time,x_bb,y_bb,w_bb,h_bb,f_u,f_v,f_delta,delta_f_u_psi,delta_f_u_y,delta_f_v_z,delta_f_delta_x,delta_x_tme,delta_y_tme,delta_psi_tme,delta_z_tme,prev_delta_x_tme,prev_delta_y_tme,prev_delta_psi_tme,prev_delta_z_tme,v_xr,v_yr,v_zr,yawrate,pitch_angle,roll_angle,yaw_angle,f_delta_ref,f_v_ref,vx_measured,vz_measured
1575495234.4174833,530,358,36,36,0.428125,0.5222222222222223,26.666666666666668,-0.07187500000000002,-0.07505332099066843,-2.7363172386474632,13.866666666666667,485.33333333333337,-0.2251599629720053,-6.468750000000002,-8.20895171594239,485.33333333333337,-0.2251599629720053,-6.468750000000002,-8.20895171594239,12.528071111111112,-0.06818594212002227,-11.84031832335144,-6.429721875000002,-2.8268930912017822,-0.5502833127975464,89.71395111083984,12.8,0.5,-0.07834595441818237,0.0069929128512740135
1575495234.48325,542,358,36,36,0.4375,0.5222222222222223,26.666666666666668,-0.0625,-0.06573096381293403,-2.735896833461752,13.866666666666667,485.33333333333337,-0.1971928914388021,-5.625,-8.207690500385256,485.33333333333337,-0.1971928914388021,-5.625,-8.207690500385256,12.327466666666668,-0.05862830746968587,-11.736981818518526,-5.565403125,-2.8264622688293457,-0.6100226640701294,89.70921325683594,12.8,0.5,-0.0818503126502037,-0.09823981672525406
1575495234.5451715,552,358,36,34,0.4453125,0.5208333333333334,27.439773622801415,-0.0546875,-0.061049567328559026,-7.355716569752956,14.639773622801414,512.3920767980495,-0.18314870198567706,-4.921875,-22.067149709258867,512.3920767980495,-0.18314870198567706,-4.921875,-22.067149709258867,13.02594303130254,-0.054510432942708326,-31.727419396456582,-4.869867187500001,-7.559332847595215,-0.5412087440490723,89.42741394042969,12.8,0.5,-0.3189176917076111,-2.537184476852417
1575495234.612754,564,358,34,36,0.45390625,0.5222222222222223,27.439773622801415,-0.04609374999999999,-0.06413811577690971,3.5285857327598276,14.639773622801414,512.3920767980495,-0.19241434733072915,-4.148437499999999,10.585757198279483,512.3920767980495,-0.19241434733072915,-4.148437499999999,10.585757198279483,13.014758750670458,-0.05738425945705837,15.541440408962883,-4.103885156249999,3.593247413635254,0.4985266327857971,88.37600708007812,12.8,0.5,-0.35633012652397156,-2.6371169090270996
1575495234.6682975,568,358,36,36,0.4578125,0.5222222222222223,26.666666666666668,-0.04218749999999999,-0.06307135687934026,5.393275135974757,13.866666666666667,485.33333333333337,-0.1892140706380208,-3.796874999999999,16.17982540792427,485.33333333333337,-0.1892140706380208,-3.796874999999999,16.17982540792427,12.316282386034585,-0.05637032504611544,23.206330310190978,-3.757511718749999,5.504141807556152,0.8209766745567322,88.12045288085938,12.8,0.5,-0.3389228582382202,-2.3295044898986816
1575495234.7223105,578,358,35,34,0.465234375,0.5208333333333334,27.829009711317525,-0.03476562500000002,-0.06732050577799481,4.712939549733891,15.029009711317524,526.0153398961133,-0.20196151733398443,-3.1289062500000018,14.138818649201673,526.0153398961133,-0.20196151733398443,-3.1289062500000018,14.138818649201673,13.377604862740561,-0.06024614482455785,20.193270218108854,-3.0949675781250017,4.808371543884277,2.0929768085479736,87.07006072998047,12.8,0.5,-0.3192857801914215,-2.1770620346069336
1575495234.7706087,592,326,34,34,0.47578125,0.47638888888888886,28.235294117647058,-0.02421875000000001,-0.06105838351779515,2.178916085464064,15.435294117647057,540.235294117647,-0.18317515055338546,-2.179687500000001,6.536748256392192,540.235294117647,-0.18317515055338546,-2.179687500000001,6.536748256392192,13.727854051666467,-0.05449539409213597,9.253537736116423,-2.154125390625001,2.257103443145752,2.2105672359466553,86.68443298339844,12.8,0.5,-0.24499255418777466,-1.8677304983139038
1575495234.8195474,597,360,33,34,0.479296875,0.5236111111111111,28.65990883327354,-0.02070312499999999,-0.06561152140299478,-3.9393017290396477,15.85990883327354,555.0968091645739,-0.19683456420898435,-1.8632812499999991,-11.817905187118942,555.0968091645739,-0.19683456420898435,-1.8632812499999991,-11.817905187118942,14.105601712332906,-0.058722720633612724,-17.126590298498172,-1.8433933593749992,-4.06110954284668,0.9762284159660339,85.95824432373047,12.8,0.5,-0.1843804270029068,-1.5274739265441895
1575495234.8745763,620,488,34,34,0.49765625,0.7013888888888888,28.235294117647058,-0.002343749999999978,-0.0495051066080729,-6.605343778954063,15.435294117647057,540.235294117647,-0.1485153198242187,-0.210937499999998,-19.81603133686219,540.235294117647,-0.1485153198242187,-0.210937499999998,-19.81603133686219,13.715833711035502,-0.044024022293090805,-28.435834971764756,-0.20227382812499803,-6.975396156311035,0.6454048752784729,85.75547790527344,12.8,0.5,-0.17008186876773834,-1.3015108108520508
1575495234.9277346,638,514,34,34,0.51171875,0.7375,28.235294117647058,0.01171875,-0.03625115288628472,-7.816161428271754,15.435294117647057,540.235294117647,-0.10875345865885416,1.0546875,-23.44848428481526,540.235294117647,-0.10875345865885416,1.0546875,-23.44848428481526,13.721976470588233,-0.03221634835137261,-33.576253862075504,1.0491609375,-8.253222465515137,0.35296300053596497,85.68270874023438,12.8,0.5,-0.161128968000412,-0.9892939329147339
1575495234.9778,654,474,32,32,0.5234375,0.6805555555555556,30.0,0.0234375,-0.02527228461371528,-8.962226577889336,17.2,602.0,-0.07581685384114584,2.109375,-26.886679733668007,602.0,-0.07581685384114584,2.109375,-26.886679733668007,15.316329411764706,-0.022434228854709203,-38.49047103619606,2.09246484375,-9.369330406188965,0.20287799835205078,85.61611938476562,12.8,0.5,-0.17579331994056702,-0.8485466241836548
1575495235.0320034,660,434,34,32,0.52890625,0.625,29.104275004359955,0.028906250000000022,-0.019271172417534697,-9.735994256365661,16.304275004359955,570.6496251525984,-0.05781351725260409,2.6015625000000018,-29.207982769096983,570.6496251525984,-0.05781351725260409,2.6015625000000018,-29.207982769096983,14.481542323939074,-0.017141412014431402,-41.796122140680154,2.577499218750002,-10.105339050292969,0.14182905852794647,85.66403198242188,12.8,0.5,-0.27255335450172424,-1.0537389516830444
1575495235.0838542,670,410,34,32,0.53671875,0.5916666666666667,29.104275004359955,0.03671875000000002,-0.01033316718207463,-10.311391103075241,16.304275004359955,570.6496251525984,-0.03099950154622389,3.3046875000000018,-30.934173309225724,570.6496251525984,-0.03099950154622389,3.3046875000000018,-30.934173309225724,14.494500478876,-0.009108250384860548,-44.257215055205705,3.274429687500002,-10.660834312438965,-0.02931574545800686,85.76532745361328,12.8,0.5,-0.35222867131233215,-1.0809351205825806
1575495235.1602507,680,384,32,32,0.54375,0.5555555555555556,30.0,0.043749999999999956,-0.0017011854383680997,-10.501118780883209,17.2,602.0,-0.005103556315104299,3.937499999999996,-31.503356342649624,602.0,-0.005103556315104299,3.937499999999996,-31.503356342649624,15.303758154936926,-0.0013956960466173364,-45.056838466835636,3.900635156249996,-10.818257331848145,-0.0341930165886879,85.90939331054688,12.8,0.5,-0.39682382345199585,-0.8852221369743347
1575495235.2218497,688,378,32,32,0.55,0.5472222222222223,30.0,0.050000000000000044,0.0072786966959635865,-10.82278170443724,17.2,602.0,0.02183609008789076,4.5000000000000036,-32.46834511331172,602.0,0.02183609008789076,4.5000000000000036,-32.46834511331172,15.290799999999999,0.006637363137139256,-46.441667206499616,4.457231250000004,-11.139350891113281,-0.027377642691135406,86.15508270263672,12.8,0.5,-0.4367389380931854,-0.9071969985961914
1575495235.2732916,692,378,32,32,0.553125,0.5472222222222223,30.0,0.05312499999999998,0.012692684597439212,-11.112439248816369,17.2,602.0,0.038078053792317636,4.781249999999998,-33.3373177464491,602.0,0.038078053792317636,4.781249999999998,-33.3373177464491,15.290799999999999,0.011425762854682052,-47.683110672318676,4.734553124999998,-11.436185836791992,-0.18698588013648987,86.36109161376953,12.8,0.5,-0.5460773706436157,-1.0607973337173462
1575495235.331592,698,374,32,32,0.5578125,0.5416666666666666,30.0,0.057812500000000044,0.020036909315321226,-11.046888397222393,17.2,602.0,0.06011072794596368,5.2031250000000036,-33.14066519166718,602.0,0.06011072794596368,5.2031250000000036,-33.14066519166718,15.290799999999999,0.018019488186306467,-47.388719287489934,5.152767187500004,-11.363317489624023,-0.02150724083185196,86.6001968383789,12.8,0.5,-0.5957767367362976,-0.9617541432380676
1575495235.3879113,700,378,32,32,0.559375,0.5472222222222223,30.0,0.059374999999999956,0.02368164062499996,-11.099973665058542,17.2,602.0,0.07104492187499988,5.3437499999999964,-33.299920995175626,602.0,0.07104492187499988,5.3437499999999964,-33.299920995175626,15.290799999999999,0.021224235322740304,-47.62085648653787,5.2908703124999965,-11.42341136932373,-0.08144772052764893,86.78759765625,12.8,0.5,-0.6671651005744934,-0.9077803492546082
1575495235.4461594,706,380,30,32,0.56328125,0.55,30.983866769659336,0.06328124999999996,0.030853356255425304,-11.196989422830352,18.183866769659335,636.4353369380767,0.09256006876627591,5.6953124999999964,-33.59096826849105,636.4353369380767,0.09256006876627591,5.6953124999999964,-33.59096826849105,16.179690830828218,0.027686890368991388,-48.03868390855554,5.639753906249997,-11.525677680969238,-0.09599339962005615,87.08148956298828,12.8,0.5,-0.7005360126495361,-0.9512661695480347
1575495235.4998796,708,385,30,31,0.56484375,0.55625,31.479640117629742,0.06484374999999998,0.03471484714084199,-11.178592109296131,18.67964011762974,653.787404117041,0.10414454142252597,5.835937499999998,-33.53577632788839,653.787404117041,0.10414454142252597,5.835937499999998,-33.53577632788839,16.613372252340145,0.031091064961751277,-47.95547760854828,5.778135937499998,-11.513229370117188,-0.11580528318881989,87.28839874267578,12.8,0.5,-0.785658061504364,-0.9928686022758484
1575495235.5538611,710,388,30,30,0.56640625,0.5597222222222222,32.0,0.06640625,0.04005101521809896,-11.219087708665716,19.2,672.0,0.12015304565429688,5.9765625,-33.65726312599715,672.0,0.12015304565429688,5.9765625,-33.65726312599715,17.076327872964956,0.0358829820421007,-48.13138865691253,5.9173546875000005,-11.558286666870117,-0.05475771054625511,87.6280288696289,12.8,0.5,-0.8114312887191772,-0.9431976079940796
1575495235.6133811,716,394,30,30,0.57109375,0.5680555555555555,32.0,0.07109374999999996,0.04712176852756072,-11.228552381257611,19.2,672.0,0.14136530558268215,6.3984374999999964,-33.68565714377283,672.0,0.14136530558268215,6.3984374999999964,-33.68565714377283,17.0688,0.04222938698662647,-48.1708408549483,6.336126562499996,-11.576525688171387,-0.036379989236593246,87.84252166748047,12.8,0.5,-0.8798865079879761,-0.8995624780654907
1575495235.6746707,716,399,30,31,0.57109375,0.5756944444444444,31.479640117629742,0.07109374999999996,0.05084203084309891,-11.24060716041524,18.67964011762974,653.787404117041,0.15252609252929675,6.3984374999999964,-33.721821481245726,653.787404117041,0.15252609252929675,6.3984374999999964,-33.721821481245726,16.598672191607882,0.045506719377305736,-48.222651950488135,6.334453124999996,-11.596707344055176,-0.11756113916635513,88.1773452758789,12.8,0.5,-0.9173749685287476,-0.9413679838180542
1575495235.725562,720,404,30,30,0.57421875,0.5819444444444445,32.0,0.07421875,0.056937154134114584,-11.269794037153895,19.2,672.0,0.17081146240234374,6.6796875,-33.80938211146169,672.0,0.17081146240234374,6.6796875,-33.80938211146169,17.076327872964956,0.05099019508361816,-48.348499252517215,6.61400625,-11.63302230834961,-0.014716113917529583,88.44465637207031,12.8,0.5,-0.9844049215316772,-0.9586774110794067
1575495235.7759418,720,408,30,30,0.57421875,0.5875,32.0,0.07421875,0.0609495374891493,-11.260048854268906,19.2,672.0,0.1828486124674479,6.6796875,-33.78014656280672,672.0,0.1828486124674479,6.6796875,-33.78014656280672,17.0688,0.05454706607394748,-48.305248038528575,6.612890625,-11.628728866577148,-0.05882607772946358,88.80577087402344,12.8,0.5,-1.0401115417480469,-0.8846325874328613
1575495235.8422096,722,410,30,30,0.57578125,0.5902777777777778,32.0,0.07578125000000002,0.06836480034722224,-11.280876118075097,19.2,672.0,0.2050944010416667,6.820312500000002,-33.84262835422529,672.0,0.2050944010416667,6.820312500000002,-33.84262835422529,17.0688,0.06122565282185873,-48.39573123802937,6.752667187500002,-11.652918815612793,-0.0729028508067131,89.33251953125,12.8,0.5,-1.1028423309326172,-0.9208035469055176
1575495235.9025266,724,416,30,30,0.57734375,0.5986111111111111,32.0,0.07734375000000004,0.07427571614583338,-11.326081047794228,19.2,672.0,0.22282714843750012,6.9609375000000036,-33.978243143382684,672.0,0.22282714843750012,6.9609375000000036,-33.978243143382684,17.0688,0.06648819851345489,-48.590564797929815,6.891885937500004,-11.707783699035645,0.079770527780056,89.723876953125,12.8,0.5,-1.1373697519302368,-0.9357209801673889
1575495235.962705,726,422,30,28,0.57890625,0.6055555555555555,33.123146848433,0.07890624999999996,0.08325856526692704,-11.31609907700521,20.323146848433,711.310139695155,0.24977569580078113,7.1015624999999964,-33.94829723101563,711.310139695155,0.24977569580078113,7.1015624999999964,-33.94829723101563,18.083525739330934,0.07456340866088863,-48.54569470923607,7.0311046874999965,-11.704670906066895,0.03388523310422897,90.39170837402344,12.8,0.5,-1.2153229713439941,-0.8754618167877197
1575495236.060844,726,430,30,30,0.57890625,0.6180555555555556,32.0,0.07890624999999996,0.08781424628363711,-11.322712041485856,19.2,672.0,0.26344273885091135,7.1015624999999964,-33.968136124457565,672.0,0.26344273885091135,7.1015624999999964,-33.968136124457565,17.052551808926,0.07857199355231388,-48.57467999895655,7.030546874999996,-11.724257469177246,0.06712391972541809,90.80171966552734,12.8,0.5,-1.2623883485794067,-0.8887079358100891
1575495236.1215355,728,436,30,28,0.58046875,0.625,33.123146848433,0.08046874999999998,0.0921209547254774,-11.318702755770204,20.323146848433,711.310139695155,0.2763628641764322,7.242187499999998,-33.95610826731061,711.310139695155,0.2763628641764322,7.242187499999998,-33.95610826731061,18.083525739330934,0.08241858079698347,-48.55708607775412,7.170323437499999,-11.727265357971191,0.07161793857812881,91.04869842529297,12.8,0.5,-1.321169376373291,-0.9077004194259644
1575495236.1756752,728,438,30,30,0.58046875,0.6291666666666667,32.0,0.08046874999999998,0.09699545966254339,-11.319560477808913,19.2,672.0,0.29098637898763013,7.242187499999998,-33.95868143342674,672.0,0.29098637898763013,7.242187499999998,-33.95868143342674,17.052551808926,0.08678462125990123,-48.560946271287875,7.169765624999998,-11.732414245605469,0.0723225474357605,91.4874038696289,12.8,0.5,-1.3424725532531738,-0.8889455795288086
1575495236.2299294,730,442,30,28,0.58203125,0.6333333333333333,33.123146848433,0.08203125,0.10488399929470486,-11.338464679894786,20.323146848433,711.310139695155,0.3146519978841146,7.3828125,-34.01539403968436,711.310139695155,0.3146519978841146,7.3828125,-34.01539403968436,18.083525739330934,0.09388067919413248,-48.64271482264601,7.3095421875,-11.756056785583496,0.12761303782463074,92.05674743652344,12.8,0.5,-1.3847832679748535,-0.8596923351287842
1575495236.299261,732,448,28,30,0.5828125,0.6430555555555556,33.123146848433,0.08281249999999996,0.10994211832682288,-11.326267022600087,20.323146848433,711.310139695155,0.32982635498046864,7.4531249999999964,-33.97880106780026,711.310139695155,0.32982635498046864,7.4531249999999964,-33.97880106780026,18.067277548256936,0.09836159651014535,-48.589232993868734,7.378872656249997,-11.753520011901855,0.07892782241106033,92.44166564941406,12.8,0.5,-1.4398505687713623,-0.8866520524024963
1575495236.3606117,732,454,30,29,0.58359375,0.6506944444444445,32.5470481737989,0.08359375000000002,0.11423611111111114,-11.332363075904684,19.7470481737989,691.1466860829614,0.3427083333333334,7.523437500000002,-33.997089227714056,691.1466860829614,0.3427083333333334,7.523437500000002,-33.997089227714056,17.546791599014178,0.10218934622870553,-48.6160637592087,7.448482031250002,-11.767595291137695,0.17788174748420715,92.7578125,12.8,0.5,-1.4832996129989624,-0.8708240389823914
1575495236.4100692,732,458,28,30,0.5828125,0.6569444444444444,33.123146848433,0.08281249999999996,0.11827782524956593,-11.327816100785373,20.323146848433,711.310139695155,0.3548334757486978,7.4531249999999964,-33.98344830235612,711.310139695155,0.3548334757486978,7.4531249999999964,-33.98344830235612,18.075611775749977,0.10579898062811953,-48.59616237959233,7.378314843749997,-11.769340515136719,0.17062561213970184,93.19187927246094,12.8,0.5,-1.5054645538330078,-0.8516378402709961
1575495236.4636147,734,462,28,30,0.584375,0.6625,33.123146848433,0.08437499999999998,0.12434709337022568,-11.328883729970725,20.323146848433,711.310139695155,0.37304128011067705,7.593749999999998,-33.98665118991217,711.310139695155,0.37304128011067705,7.593749999999998,-33.98665118991217,18.067277548256936,0.11125430586073133,-48.600950810617185,7.518370312499998,-11.776127815246582,0.19568143784999847,93.59748840332031,12.8,0.5,-1.541062831878662,-0.8546744585037231
1575495236.5200572,732,466,30,30,0.58359375,0.6680555555555555,32.0,0.08359375000000002,0.12710927327473961,-11.337976049618469,19.2,672.0,0.3813278198242188,7.523437500000002,-34.013928148855406,672.0,0.3813278198242188,7.523437500000002,-34.013928148855406,17.052551808926,0.11367574191623266,-48.64025457792216,7.447924218750002,-11.791138648986816,0.21429885923862457,93.91639709472656,12.8,0.5,-1.5671364068984985,-0.8720859289169312
1575495236.5772624,732,470,30,28,0.58359375,0.6722222222222223,33.123146848433,0.08359375000000002,0.13156068589952258,-11.327880436768815,20.323146848433,711.310139695155,0.39468205769856773,7.523437500000002,-33.983641310306446,711.310139695155,0.39468205769856773,7.523437500000002,-33.983641310306446,18.083525739330934,0.11767979867723254,-48.59623252650149,7.448203125000002,-11.785062789916992,0.26148438453674316,94.31702423095703,12.8,0.5,-1.6047940254211426,-0.8600741028785706
1575495236.6332312,734,474,28,30,0.584375,0.6791666666666667,33.123146848433,0.08437499999999998,0.13563240898980033,-11.329084454540386,20.323146848433,711.310139695155,0.406897226969401,7.593749999999998,-33.98725336362116,711.310139695155,0.406897226969401,7.593749999999998,-33.98725336362116,18.067277548256936,0.12131441362169051,-48.60181697903758,7.518091406249998,-11.793413162231445,0.2742328941822052,94.61316680908203,12.8,0.5,-1.6418027877807617,-0.8423667550086975
1575495236.690047,734,480,28,28,0.584375,0.6861111111111111,34.285714285714285,0.08437499999999998,0.1404720730251736,-11.33195241137571,21.485714285714284,751.9999999999999,0.42141621907552074,7.593749999999998,-33.99585723412713,751.9999999999999,0.42141621907552074,7.593749999999998,-33.99585723412713,19.117618475592664,0.12565220841301808,-48.61418224600039,7.517812499999998,-11.803468704223633,0.27008333802223206,95.04873657226562,12.8,0.5,-1.6756219863891602,-0.8579290509223938
1575495236.7420225,732,484,30,30,0.58359375,0.6930555555555555,32.0,0.08359375000000002,0.14283743964301218,-11.329843440854795,19.2,672.0,0.4285123189290365,7.523437500000002,-33.989530322564384,672.0,0.4285123189290365,7.523437500000002,-33.989530322564384,17.035733333333333,0.12773096885681154,-48.60495011846074,7.447924218750002,-11.80842399597168,0.33601897954940796,95.3319320678711,12.8,0.5,-1.6878854036331177,-0.8566864728927612
1575495236.7922254,734,488,28,28,0.584375,0.6972222222222222,34.285714285714285,0.08437499999999998,0.14852464463975693,-11.323993292215906,21.485714285714284,751.9999999999999,0.4455739339192708,7.593749999999998,-33.97197987664772,751.9999999999999,0.4455739339192708,7.593749999999998,-33.97197987664772,19.133866666666663,0.1328634967803955,-48.57971418309174,7.518091406249998,-11.8066987991333,0.3225254714488983,95.77346801757812,12.8,0.5,-1.718799114227295,-0.8434121012687683
1575495236.851827,733,492,29,30,0.583984375,0.7041666666666667,32.5470481737989,0.083984375,0.15462790595160592,-11.328737368264056,19.7470481737989,691.1466860829614,0.46388371785481775,7.55859375,-33.986212104792166,691.1466860829614,0.46388371785481775,7.55859375,-33.986212104792166,17.52997312342151,0.1383258452097575,-48.60045931507418,7.482868359375001,-11.818676948547363,0.3645198345184326,96.35791778564453,12.8,0.5,-1.7334632873535156,-0.8391191363334656
1575495236.9068127,732,498,30,30,0.58359375,0.7125,32.0,0.08359375000000002,0.1591376410590278,-11.324153481512305,19.2,672.0,0.4774129231770834,7.523437500000002,-33.972460444536914,672.0,0.4774129231770834,7.523437500000002,-33.972460444536914,17.060886036419042,0.14233444226582848,-48.58044837348929,7.448063671875002,-11.822519302368164,0.43845707178115845,96.7989501953125,12.8,0.5,-1.7643100023269653,-0.8475413918495178
1575495236.9591086,734,500,28,28,0.584375,0.7138888888888889,34.285714285714285,0.08437499999999998,0.16444676717122392,-11.334133912277718,21.485714285714284,751.9999999999999,0.49334030151367175,7.593749999999998,-34.00240173683315,751.9999999999999,0.49334030151367175,7.593749999999998,-34.00240173683315,19.133866666666663,0.14709239217970102,-48.6238047576528,7.518091406249998,-11.8341703414917,0.4244830012321472,97.20645904541016,12.8,0.5,-1.7965106964111328,-0.8491085767745972
1575495237.0194476,732,506,30,30,0.58359375,0.7236111111111111,32.0,0.08359375000000002,0.1670605977376302,-11.315550376987781,19.2,672.0,0.5011817932128906,7.523437500000002,-33.946651130963346,672.0,0.5011817932128906,7.523437500000002,-33.946651130963346,17.035733333333333,0.1493900749206543,-48.54302166811833,7.447924218750002,-11.825089454650879,0.4831000864505768,97.51201629638672,12.8,0.5,-1.8097259998321533,-0.8448374271392822
1575495237.078815,732,512,30,28,0.58359375,0.7305555555555555,33.123146848433,0.08359375000000002,0.1718408372667101,-11.322654491886983,20.323146848433,711.310139695155,0.5155225118001303,7.523437500000002,-33.96796347566095,711.310139695155,0.5155225118001303,7.523437500000002,-33.96796347566095,18.083525739330934,0.1536950219896105,-48.57445133285792,7.448203125000002,-11.839486122131348,0.5071622133255005,97.9422378540039,12.8,0.5,-1.8349509239196777,-0.8405846953392029
1575495237.1334283,732,516,28,30,0.5828125,0.7375,33.123146848433,0.08281249999999996,0.17434811062282982,-11.317041757062356,20.323146848433,711.310139695155,0.5230443318684894,7.4531249999999964,-33.95112527118707,711.310139695155,0.5230443318684894,7.4531249999999964,-33.95112527118707,18.067277548256936,0.15590356636047356,-48.54990090533551,7.378314843749997,-11.840850830078125,0.5365924835205078,98.23820495605469,12.8,0.5,-1.8610622882843018,-0.8464413285255432
1575495237.1857438,732,519,28,29,0.5828125,0.7409722222222223,33.68939550449263,0.08281249999999996,0.17917438083224824,-11.315574078880026,20.88939550449263,731.128842657242,0.5375231424967447,7.4531249999999964,-33.94672223664008,731.128842657242,0.5375231424967447,7.4531249999999964,-33.94672223664008,18.57886433405161,0.16025187738206648,-48.54375834753474,7.378593749999997,-11.842905044555664,0.5529820322990417,98.67256927490234,12.8,0.5,-1.8771077394485474,-0.8498888611793518
1575495237.243732,730,526,30,30,0.58203125,0.7513888888888889,32.0,0.08203125,0.18449876573350693,-11.301887232196563,19.2,672.0,0.5534962972005208,7.3828125,-33.90566169658969,672.0,0.5534962972005208,7.3828125,-33.90566169658969,17.04436007836834,0.16501910014682344,-48.484588444111296,7.3087054687499995,-11.839553833007812,0.5866528153419495,99.22207641601562,12.8,0.5,-1.8966903686523438,-0.8448907732963562
1575495237.3086352,730,530,30,30,0.58203125,0.7569444444444444,32.0,0.08203125,0.18962326049804687,-11.305132499753942,19.2,672.0,0.5688697814941406,7.3828125,-33.91539749926183,672.0,0.5688697814941406,7.3828125,-33.91539749926183,17.0688,0.1695975000593397,-48.49913882337079,7.308984375,-11.848572731018066,0.6359615921974182,99.68328094482422,12.8,0.5,-1.9157575368881226,-0.8460619449615479
1575495237.3696232,730,534,30,30,0.58203125,0.7625,32.0,0.08203125,0.1944157918294271,-11.331173174115946,19.2,672.0,0.5832473754882812,7.3828125,-33.99351952234784,672.0,0.5832473754882812,7.3828125,-33.99351952234784,17.0688,0.1738772095998128,-48.61169902597624,7.308984375,-11.880951881408691,0.6630922555923462,100.11460876464844,12.8,0.5,-1.9352177381515503,-0.8553442358970642
1575495237.4305918,730,540,28,30,0.58125,0.7708333333333334,33.123146848433,0.08125000000000004,0.19682998657226566,-11.285949343899896,20.323146848433,711.310139695155,0.590489959716797,7.3125000000000036,-33.85784803169969,711.310139695155,0.590489959716797,7.3125000000000036,-33.85784803169969,18.083525739330934,0.17600101381937666,-48.41504488122954,7.239096093750003,-11.843147277832031,0.6928727626800537,100.4021987915039,12.8,0.5,-1.9449210166931152,-0.8516936302185059
1575495237.482056,728,546,30,30,0.58046875,0.7791666666666667,32.0,0.08046874999999998,0.20076344807942706,-11.3005696218683,19.2,672.0,0.6022903442382812,7.242187499999998,-33.9017088656049,672.0,0.6022903442382812,7.242187499999998,-33.9017088656049,17.052551808926,0.17953955777486164,-48.47998609012763,7.169486718749998,-11.866669654846191,0.7356297969818115,100.82652282714844,12.8,0.5,-1.957972526550293,-0.8489075303077698
1575495237.5514064,728,550,28,30,0.5796875,0.7847222222222222,33.123146848433,0.07968750000000002,0.20282880995008684,-11.270680353427368,20.323146848433,711.310139695155,0.6084864298502606,7.171875000000002,-33.812041060282105,711.310139695155,0.6084864298502606,7.171875000000002,-33.812041060282105,18.083525739330934,0.1813589038425022,-48.350109824344244,7.099877343750001,-11.8417329788208,0.7307742834091187,101.08271789550781,12.8,0.5,-1.9733918905258179,-0.8584647178649902
1575495237.6102767,726,556,30,32,0.57890625,0.7944444444444444,30.983866769659336,0.07890624999999996,0.2066423204210069,-11.297994734594019,18.183866769659335,636.4353369380767,0.6199269612630207,7.1015624999999964,-33.893984203782054,636.4353369380767,0.6199269612630207,7.1015624999999964,-33.893984203782054,16.134509306420888,0.1847935303582085,-48.469410774949615,7.030267968749996,-11.879687309265137,0.7817906737327576,101.49624633789062,12.8,0.5,-1.9878315925598145,-0.8606916069984436
1575495237.6683712,726,560,30,32,0.57890625,0.8,30.983866769659336,0.07890624999999996,0.21284094916449647,-11.284987747224434,18.183866769659335,636.4353369380767,0.6385228474934894,7.1015624999999964,-33.8549632416733,636.4353369380767,0.6385228474934894,7.1015624999999964,-33.8549632416733,16.165457558227146,0.19036968866984044,-48.41211487636141,7.030546874999996,-11.872051239013672,0.8207080364227295,102.05412292480469,12.8,0.5,-1.997078537940979,-0.8559105396270752
1575495237.7243135,724,566,30,32,0.57734375,0.8083333333333333,30.983866769659336,0.07734375000000004,0.21595874362521705,-11.275188695756082,18.183866769659335,636.4353369380767,0.6478762308756512,6.9609375000000036,-33.82556608726824,636.4353369380767,0.6478762308756512,6.9609375000000036,-33.82556608726824,16.165457558227146,0.1931123248206245,-48.37019595998411,6.8907703125000035,-11.870549201965332,0.8315948247909546,102.47534942626953,12.8,0.5,-2.001783609390259,-0.8604147434234619
1575495237.7752738,724,572,30,30,0.57734375,0.8152777777777778,32.0,0.07734375000000004,0.21933254665798615,-11.265982857617608,19.2,672.0,0.6579976399739584,6.9609375000000036,-33.797948572852825,672.0,0.6579976399739584,6.9609375000000036,-33.797948572852825,17.083500060732263,0.19613221685621476,-48.3307249225846,6.891328125000004,-11.868231773376465,0.8994474411010742,102.77899169921875,12.8,0.5,-2.011801242828369,-0.8690728545188904
1575495237.8299103,724,574,30,32,0.57734375,0.8194444444444444,30.983866769659336,0.07734375000000004,0.22344072129991324,-11.259613425982314,18.183866769659335,636.4353369380767,0.6703221638997398,6.9609375000000036,-33.77884027794694,636.4353369380767,0.6703221638997398,6.9609375000000036,-33.77884027794694,16.150757497494883,0.19981557337443037,-48.30350529155046,6.891328125000004,-11.865974426269531,0.900050163269043,103.14872741699219,12.8,0.5,-2.0156655311584473,-0.8689050078392029
1575495237.8887157,722,581,30,33,0.57578125,0.8298611111111112,30.510802855858955,0.07578125000000002,0.2267096625434028,-11.248423418509171,17.710802855858955,619.8780999550634,0.6801289876302083,6.820312500000002,-33.745270255527515,619.8780999550634,0.6801289876302083,6.820312500000002,-33.745270255527515,15.73806008090563,0.2027258379618327,-48.255321316127095,6.751551562500001,-11.865181922912598,0.9489566683769226,103.58355712890625,12.8,0.5,-2.0208840370178223,-0.8674443960189819
1575495237.9558275,720,588,30,32,0.57421875,0.8388888888888889,30.983866769659336,0.07421875,0.2278164333767361,-11.256485448878367,18.183866769659335,636.4353369380767,0.6834493001302083,6.6796875,-33.7694563466351,636.4353369380767,0.6834493001302083,6.6796875,-33.7694563466351,16.172301216180124,0.2036839396158854,-48.29062167701489,6.6123328125,-11.882695198059082,0.9586951732635498,103.82379150390625,12.8,0.5,-2.028855800628662,-0.8765558004379272
1575495238.0031557,719,591,31,33,0.573828125,0.84375,30.014659175074677,0.07382812500000002,0.2321823967827691,-11.230333734914584,17.214659175074676,602.5130711276137,0.6965471903483074,6.644531250000002,-33.691001204743756,602.5130711276137,0.6965471903483074,6.644531250000002,-33.691001204743756,15.289810803439728,0.20763436919318307,-48.17716149419551,6.577946484375002,-11.86087703704834,0.9941366910934448,104.25188446044922,12.8,0.5,-2.0300257205963135,-0.8795661926269531
1575495238.0762587,718,600,30,32,0.57265625,0.8555555555555555,30.983866769659336,0.07265624999999998,0.23681004842122394,-11.214823402282514,18.183866769659335,636.4353369380767,0.7104301452636719,6.539062499999998,-33.644470206847544,636.4353369380767,0.7104301452636719,6.539062499999998,-33.644470206847544,16.179478761428804,0.2117752842373318,-48.11101696245134,6.473253515624998,-11.857080459594727,1.043900966644287,104.77384185791016,12.8,0.5,-2.0338008403778076,-0.8809163570404053
1575495238.1374125,718,602,30,32,0.57265625,0.8583333333333333,30.983866769659336,0.07265624999999998,0.24110480414496527,-11.223722047006376,18.183866769659335,636.4353369380767,0.7233144124348958,6.539062499999998,-33.67116614101913,636.4353369380767,0.7233144124348958,6.539062499999998,-33.67116614101913,16.165457558227146,0.21560996886359318,-48.1500977213766,6.473671874999998,-11.869046211242676,1.0939257144927979,105.16036987304688,12.8,0.5,-2.034325361251831,-0.8865662217140198
1575495238.2061856,716,616,30,32,0.57109375,0.8777777777777778,30.983866769659336,0.07109374999999996,0.2436378479003906,-11.219255845979788,18.183866769659335,636.4353369380767,0.7309135437011718,6.3984374999999964,-33.657767537939364,636.4353369380767,0.7309135437011718,6.3984374999999964,-33.657767537939364,16.165457558227146,0.21784896515740285,-48.1304418831952,6.333895312499996,-11.884395599365234,1.0737825632095337,105.52896881103516,12.8,0.5,-2.0354089736938477,-0.8941737413406372
1575495238.2681952,714,618,32,34,0.5703125,0.8819444444444444,29.104275004359955,0.0703125,0.24559834798177083,-11.20880939139242,16.304275004359955,570.6496251525984,0.7367950439453125,6.328125,-33.626428174177256,570.6496251525984,0.7367950439453125,6.328125,-33.626428174177256,14.467309051338002,0.21959335034688313,-48.085404725608285,6.26456484375,-11.877960205078125,1.151793360710144,105.77572631835938,12.8,0.5,-2.036543846130371,-0.8940895199775696
1575495238.3135855,714,622,30,34,0.56953125,0.8875,30.058765972087176,0.06953125000000004,0.24879625108506948,-11.19391139497499,17.258765972087176,604.0568090230512,0.7463887532552085,6.2578125000000036,-33.58173418492497,604.0568090230512,0.7463887532552085,6.2578125000000036,-33.58173418492497,15.356851251851953,0.22247021806504994,-48.02132716877562,6.1949554687500035,-11.868386268615723,1.139167308807373,106.13385009765625,12.8,0.5,-2.0300040245056152,-0.8964825868606567
1575495238.3679109,712,628,32,34,0.56875,0.8958333333333334,29.104275004359955,0.06874999999999998,0.25326317681206595,-11.189141385285456,16.304275004359955,570.6496251525984,0.7597895304361979,6.187499999999998,-33.56742415585637,570.6496251525984,0.7597895304361979,6.187499999999998,-33.56742415585637,14.480692176209546,0.22648205049302841,-48.00123957551513,6.125346093749998,-11.872037887573242,1.1733359098434448,106.60618591308594,12.8,0.5,-2.0278990268707275,-0.9044728875160217
1575495238.4416282,710,638,32,36,0.5671875,0.9111111111111111,28.284271247461902,0.06718749999999996,0.2532413906521267,-11.172806429221087,15.484271247461901,541.9494936611666,0.7597241719563801,6.0468749999999964,-33.518419287663264,541.9494936611666,0.7597241719563801,6.0468749999999964,-33.518419287663264,13.753654417977172,0.22639748734368215,-47.93073355448848,5.985848437499996,-11.870954513549805,1.2005873918533325,106.7448501586914,12.8,0.5,-2.02561092376709,-0.9078644514083862
1575495238.4913151,710,642,30,36,0.56640625,0.9166666666666666,29.21186973360886,0.06640625,0.2579392327202691,-11.161797471588574,16.41186973360886,574.4154406763101,0.7738176981608073,5.9765625,-33.48539241476573,574.4154406763101,0.7738176981608073,5.9765625,-33.48539241476573,14.603571451277869,0.23066579276190863,-47.88370272078682,5.91651796875,-11.865365982055664,1.2236040830612183,107.23796844482422,12.8,0.5,-2.020346164703369,-0.9125598073005676
1575495238.5457711,708,648,32,34,0.565625,0.9236111111111112,29.104275004359955,0.06562500000000004,0.2608233981662327,-11.152356187933808,16.304275004359955,570.6496251525984,0.782470194498698,5.9062500000000036,-33.45706856380143,570.6496251525984,0.782470194498698,5.9062500000000036,-33.45706856380143,14.492943941792866,0.23321793835957846,-47.843257774612454,5.846908593750003,-11.862807273864746,1.2535810470581055,107.56785583496094,12.8,0.5,-2.017778158187866,-0.9162705540657043
1575495238.596514,706,652,32,34,0.5640625,0.9291666666666667,29.104275004359955,0.06406250000000002,0.26204232109917536,-11.157679518091502,16.304275004359955,570.6496251525984,0.7861269632975261,5.765625000000002,-33.47303855427451,570.6496251525984,0.7861269632975261,5.765625000000002,-33.47303855427451,14.494500478876,0.23428350944519044,-47.8666426281614,5.7074109375000015,-11.873955726623535,1.2926254272460938,107.81818389892578,12.8,0.5,-2.0116119384765625,-0.9213568568229675
1575495238.6486754,706,656,32,34,0.5640625,0.9347222222222222,29.104275004359955,0.06406250000000002,0.2659441630045573,-11.144402652462137,16.304275004359955,570.6496251525984,0.7978324890136719,5.765625000000002,-33.433207957386415,570.6496251525984,0.7978324890136719,5.765625000000002,-33.433207957386415,14.494500478876,0.23781065843370225,-47.80899480734772,5.707968750000002,-11.866043090820312,1.2883131504058838,108.16934967041016,12.8,0.5,-2.008094072341919,-0.9222126603126526
1575495238.6974478,703,662,33,36,0.562109375,0.9444444444444444,27.852424952911655,0.06210937500000002,0.26666514078776044,-11.139541030760043,15.052424952911654,526.8348733519078,0.7999954223632812,5.589843750000002,-33.41862309228013,526.8348733519078,0.7999954223632812,5.589843750000002,-33.41862309228013,13.363495685727507,0.23840909004211425,-47.78845065579544,5.533248046875002,-11.871024131774902,1.3369587659835815,108.41001892089844,12.8,0.5,-1.9996342658996582,-0.926703691482544
1575495238.7479453,702,668,32,36,0.5609375,0.9527777777777777,28.284271247461902,0.06093749999999998,0.26924218071831596,-11.122139787898062,15.484271247461901,541.9494936611666,0.8077265421549479,5.484374999999998,-33.366419363694185,541.9494936611666,0.8077265421549479,5.484374999999998,-33.366419363694185,13.771764515388124,0.2407398766411675,-47.7133341039725,5.429112890624999,-11.86173152923584,1.328463077545166,108.74742126464844,12.8,0.5,-1.9946961402893066,-0.933617115020752
1575495238.7998874,701,672,33,34,0.560546875,0.9569444444444445,28.65990883327354,0.060546875,0.27221764458550346,-11.136802248231925,15.85990883327354,555.0968091645739,0.8166529337565104,5.44921875,-33.41040674469578,555.0968091645739,0.8166529337565104,5.44921875,-33.41040674469578,14.104893176521584,0.2434057184855143,-47.77742562219334,5.394587109375,-11.881027221679688,1.3800565004348755,109.05036926269531,12.8,0.5,-1.9881742000579834,-0.9368656873703003
1575495238.851105,700,678,32,36,0.559375,0.9666666666666667,28.284271247461902,0.059374999999999956,0.2737601386176215,-11.098175133772443,15.484271247461901,541.9494936611666,0.8212804158528645,5.3437499999999964,-33.29452540131733,541.9494936611666,0.8212804158528645,5.3437499999999964,-33.29452540131733,13.760082915252221,0.24476393008761932,-47.60973825793734,5.289894140624996,-11.85140609741211,1.381317138671875,109.29466247558594,12.8,0.5,-1.982241153717041,-0.9393954277038574
1575495238.9021378,698,682,32,36,0.5578125,0.9722222222222222,28.284271247461902,0.057812500000000044,0.27576209174262156,-11.113172203621263,15.484271247461901,541.9494936611666,0.8272862752278647,5.2031250000000036,-33.33951661086379,541.9494936611666,0.8272862752278647,5.2031250000000036,-33.33951661086379,13.76551713899363,0.24656033833821617,-47.67606514482661,5.1505359375000035,-11.872467994689941,1.4102362394332886,109.61546325683594,12.8,0.5,-1.9742165803909302,-0.945406973361969
1575495238.955638,696,688,32,32,0.5578125,0.9722222222222222,28.284271247461902,0.057812500000000044,0.27576209174262156,-11.113172203621263,15.484271247461901,541.9494936611666,0.8272862752278647,5.2031250000000036,-33.33951661086379,541.9494936611666,0.8272862752278647,5.2031250000000036,-33.33951661086379,13.76551713899363,0.24656033833821617,-47.67606514482661,5.1505359375000035,-11.855409622192383,1.415473461151123,109.80402374267578,12.8,0.5,-1.9703251123428345,-0.9493452310562134
1575495239.0086172,694,692,32,28,0.5578125,0.9722222222222222,28.284271247461902,0.057812500000000044,0.27576209174262156,-11.113172203621263,15.484271247461901,541.9494936611666,0.8272862752278647,5.2031250000000036,-33.33951661086379,541.9494936611666,0.8272862752278647,5.2031250000000036,-33.33951661086379,13.76551713899363,0.24656033833821617,-47.67606514482661,5.1505359375000035,-11.871383666992188,1.4498536586761475,110.1349868774414,12.8,0.5,-1.962688684463501,-0.9556564092636108
1575495239.056246,692,700,32,20,0.5578125,0.9722222222222222,28.284271247461902,0.057812500000000044,0.27576209174262156,-11.113172203621263,15.484271247461901,541.9494936611666,0.8272862752278647,5.2031250000000036,-33.33951661086379,541.9494936611666,0.8272862752278647,5.2031250000000036,-33.33951661086379,13.76551713899363,0.24656033833821617,-47.67606514482661,5.1505359375000035,-11.85124683380127,1.4691317081451416,110.33966064453125,12.8,0.5,-1.9551550149917603,-0.9598332047462463
1575495239.1069403,690,706,30,14,0.5578125,0.9722222222222222,28.284271247461902,0.057812500000000044,0.27576209174262156,-11.113172203621263,15.484271247461901,541.9494936611666,0.8272862752278647,5.2031250000000036,-33.33951661086379,541.9494936611666,0.8272862752278647,5.2031250000000036,-33.33951661086379,13.76551713899363,0.24656033833821617,-47.67606514482661,5.1505359375000035,-11.858325004577637,1.4682255983352661,110.65299987792969,12.8,0.5,-1.9470064640045166,-0.9639883041381836
1575495239.158761,690,711,26,9,0.5578125,0.9722222222222222,28.284271247461902,0.057812500000000044,0.27576209174262156,-11.113172203621263,15.484271247461901,541.9494936611666,0.8272862752278647,5.2031250000000036,-33.33951661086379,541.9494936611666,0.8272862752278647,5.2031250000000036,-33.33951661086379,13.76551713899363,0.24656033833821617,-47.67606514482661,5.1505359375000035,-11.864948272705078,1.4909930229187012,110.86214447021484,12.8,0.5,-1.9343516826629639,-0.9699152112007141
1575495239.2101977,692,716,18,4,0.5578125,0.9722222222222222,28.284271247461902,0.057812500000000044,0.27576209174262156,-11.113172203621263,15.484271247461901,541.9494936611666,0.8272862752278647,5.2031250000000036,-33.33951661086379,541.9494936611666,0.8272862752278647,5.2031250000000036,-33.33951661086379,13.76551713899363,0.24656033833821617,-47.67606514482661,5.1505359375000035,-11.735798835754395,1.498029112815857,111.17430114746094,12.8,0.5,-1.9282008409500122,-0.9748683571815491
1575495239.2615738,692,716,18,4,0.5578125,0.9722222222222222,28.284271247461902,0.057812500000000044,0.27576209174262156,-11.113172203621263,15.484271247461901,541.9494936611666,0.8272862752278647,5.2031250000000036,-33.33951661086379,541.9494936611666,0.8272862752278647,5.2031250000000036,-33.33951661086379,13.76551713899363,0.24656033833821617,-47.67606514482661,5.1505359375000035,-9.999650001525879,1.4583995342254639,111.39788055419922,12.8,0.5,-1.9004137516021729,-0.8727813959121704
1575495239.2970507,692,716,18,4,0.5578125,0.9722222222222222,28.284271247461902,0.057812500000000044,0.27576209174262156,-11.113172203621263,15.484271247461901,541.9494936611666,0.8272862752278647,5.2031250000000036,-33.33951661086379,541.9494936611666,0.8272862752278647,5.2031250000000036,-33.33951661086379,13.76551713899363,0.24656033833821617,-47.67606514482661,5.1505359375000035,-5.329325199127197,1.2639864683151245,111.6482162475586,12.8,0.5,-1.855607271194458,-0.7066337466239929
1575495239.3329985,692,716,18,4,0.5578125,0.9722222222222222,28.284271247461902,0.057812500000000044,0.27576209174262156,-11.113172203621263,15.484271247461901,541.9494936611666,0.8272862752278647,5.2031250000000036,-33.33951661086379,541.9494936611666,0.8272862752278647,5.2031250000000036,-33.33951661086379,13.76551713899363,0.24656033833821617,-47.67606514482661,5.1505359375000035,-2.0668208599090576,1.3261339664459229,111.74542236328125,12.8,0.5,-1.80031418800354,-0.5036677122116089
1575495239.3686056,692,716,18,4,0.5578125,0.9722222222222222,28.284271247461902,0.057812500000000044,0.27576209174262156,-11.113172203621263,15.484271247461901,541.9494936611666,0.8272862752278647,5.2031250000000036,-33.33951661086379,541.9494936611666,0.8272862752278647,5.2031250000000036,-33.33951661086379,13.76551713899363,0.24656033833821617,-47.67606514482661,5.1505359375000035,1.6959154605865479,1.4383209943771362,111.7834243774414,12.8,0.5,-1.7388728857040405,-0.24838662147521973
1575495239.4051697,692,716,18,4,0.5578125,0.9722222222222222,28.284271247461902,0.057812500000000044,0.27576209174262156,-11.113172203621263,15.484271247461901,541.9494936611666,0.8272862752278647,5.2031250000000036,-33.33951661086379,541.9494936611666,0.8272862752278647,5.2031250000000036,-33.33951661086379,13.76551713899363,0.24656033833821617,-47.67606514482661,5.1505359375000035,4.417585372924805,1.3489370346069336,111.77361297607422,12.8,0.5,-1.6565214395523071,0.149461567401886
1575495239.441732,692,716,18,4,0.5578125,0.9722222222222222,28.284271247461902,0.057812500000000044,0.27576209174262156,-11.113172203621263,15.484271247461901,541.9494936611666,0.8272862752278647,5.2031250000000036,-33.33951661086379,541.9494936611666,0.8272862752278647,5.2031250000000036,-33.33951661086379,13.76551713899363,0.24656033833821617,-47.67606514482661,5.1505359375000035,5.332265853881836,1.3782328367233276,111.76068878173828,12.8,0.5,-1.60477876663208,0.2628440260887146
1575495239.4775188,692,716,18,4,0.5578125,0.9722222222222222,28.284271247461902,0.057812500000000044,0.27576209174262156,-11.113172203621263,15.484271247461901,541.9494936611666,0.8272862752278647,5.2031250000000036,-33.33951661086379,541.9494936611666,0.8272862752278647,5.2031250000000036,-33.33951661086379,13.76551713899363,0.24656033833821617,-47.67606514482661,5.1505359375000035,7.000951766967773,1.5821824073791504,111.76431274414062,12.8,0.5,-1.5005011558532715,0.18742653727531433
1575495239.5131078,692,716,18,4,0.5578125,0.9722222222222222,28.284271247461902,0.057812500000000044,0.27576209174262156,-11.113172203621263,15.484271247461901,541.9494936611666,0.8272862752278647,5.2031250000000036,-33.33951661086379,541.9494936611666,0.8272862752278647,5.2031250000000036,-33.33951661086379,13.76551713899363,0.24656033833821617,-47.67606514482661,5.1505359375000035,8.307215690612793,1.5440813302993774,111.82084655761719,12.8,0.5,-1.3968524932861328,0.04489457607269287
1575495239.5486195,692,716,18,4,0.5578125,0.9722222222222222,28.284271247461902,0.057812500000000044,0.27576209174262156,-11.113172203621263,15.484271247461901,541.9494936611666,0.8272862752278647,5.2031250000000036,-33.33951661086379,541.9494936611666,0.8272862752278647,5.2031250000000036,-33.33951661086379,13.76551713899363,0.24656033833821617,-47.67606514482661,5.1505359375000035,8.635320663452148,1.686435341835022,111.82658386230469,12.8,0.5,-1.307117223739624,-0.02554592490196228
1575495239.5847626,692,716,18,4,0.5578125,0.9722222222222222,28.284271247461902,0.057812500000000044,0.27576209174262156,-11.113172203621263,15.484271247461901,541.9494936611666,0.8272862752278647,5.2031250000000036,-33.33951661086379,541.9494936611666,0.8272862752278647,5.2031250000000036,-33.33951661086379,13.76551713899363,0.24656033833821617,-47.67606514482661,5.1505359375000035,9.09976577758789,1.846248984336853,111.8436508178711,12.8,0.5,-1.240225911140442,0.02279599756002426
1575495239.6204646,692,716,18,4,0.5578125,0.9722222222222222,28.284271247461902,0.057812500000000044,0.27576209174262156,-11.113172203621263,15.484271247461901,541.9494936611666,0.8272862752278647,5.2031250000000036,-33.33951661086379,541.9494936611666,0.8272862752278647,5.2031250000000036,-33.33951661086379,13.76551713899363,0.24656033833821617,-47.67606514482661,5.1505359375000035,10.235289573669434,1.7339849472045898,111.88947296142578,12.8,0.5,-1.1853570938110352,0.133198544383049
1575495239.6558692,692,716,18,4,0.5578125,0.9722222222222222,28.284271247461902,0.057812500000000044,0.27576209174262156,-11.113172203621263,15.484271247461901,541.9494936611666,0.8272862752278647,5.2031250000000036,-33.33951661086379,541.9494936611666,0.8272862752278647,5.2031250000000036,-33.33951661086379,13.76551713899363,0.24656033833821617,-47.67606514482661,5.1505359375000035,10.495386123657227,1.8097065687179565,111.90139770507812,12.8,0.5,-1.1270438432693481,0.21736232936382294
1575495239.6916435,692,716,18,4,0.5578125,0.9722222222222222,28.284271247461902,0.057812500000000044,0.27576209174262156,-11.113172203621263,15.484271247461901,541.9494936611666,0.8272862752278647,5.2031250000000036,-33.33951661086379,541.9494936611666,0.8272862752278647,5.2031250000000036,-33.33951661086379,13.76551713899363,0.24656033833821617,-47.67606514482661,5.1505359375000035,10.495386123657227,1.8097065687179565,111.90139770507812,12.8,0.5,-1.0200878381729126,0.1659582555294037
1575495239.7274678,692,716,18,4,0.5578125,0.9722222222222222,28.284271247461902,0.057812500000000044,0.27576209174262156,-11.113172203621263,15.484271247461901,541.9494936611666,0.8272862752278647,5.2031250000000036,-33.33951661086379,541.9494936611666,0.8272862752278647,5.2031250000000036,-33.33951661086379,13.76551713899363,0.24656033833821617,-47.67606514482661,5.1505359375000035,10.729280471801758,2.0071182250976562,111.9208984375,12.8,0.5,-0.921099066734314,0.06146698817610741
1575495239.7631016,692,716,18,4,0.5578125,0.9722222222222222,28.284271247461902,0.057812500000000044,0.27576209174262156,-11.113172203621263,15.484271247461901,541.9494936611666,0.8272862752278647,5.2031250000000036,-33.33951661086379,541.9494936611666,0.8272862752278647,5.2031250000000036,-33.33951661086379,13.76551713899363,0.24656033833821617,-47.67606514482661,5.1505359375000035,10.964417457580566,1.880940318107605,111.94178771972656,12.8,0.5,-0.8322904706001282,-0.003298752009868622
1575495239.7984452,692,716,18,4,0.5578125,0.9722222222222222,28.284271247461902,0.057812500000000044,0.27576209174262156,-11.113172203621263,15.484271247461901,541.9494936611666,0.8272862752278647,5.2031250000000036,-33.33951661086379,541.9494936611666,0.8272862752278647,5.2031250000000036,-33.33951661086379,13.76551713899363,0.24656033833821617,-47.67606514482661,5.1505359375000035,11.140008926391602,1.8790441751480103,111.95897674560547,12.8,0.5,-0.7651968002319336,0.011396393179893494
1575495239.8347363,692,716,18,4,0.5578125,0.9722222222222222,28.284271247461902,0.057812500000000044,0.27576209174262156,-11.113172203621263,15.484271247461901,541.9494936611666,0.8272862752278647,5.2031250000000036,-33.33951661086379,541.9494936611666,0.8272862752278647,5.2031250000000036,-33.33951661086379,13.76551713899363,0.24656033833821617,-47.67606514482661,5.1505359375000035,11.127281188964844,2.030035972595215,111.96173095703125,12.8,0.5,-0.7105609774589539,0.08430102467536926
1575495239.8720834,692,716,18,4,0.5578125,0.9722222222222222,28.284271247461902,0.057812500000000044,0.27576209174262156,-11.113172203621263,15.484271247461901,541.9494936611666,0.8272862752278647,5.2031250000000036,-33.33951661086379,541.9494936611666,0.8272862752278647,5.2031250000000036,-33.33951661086379,13.76551713899363,0.24656033833821617,-47.67606514482661,5.1505359375000035,11.235136985778809,1.9842588901519775,111.98113250732422,12.8,0.5,-0.6354329586029053,0.14029920101165771
1575495239.9113276,692,716,18,4,0.5578125,0.9722222222222222,28.284271247461902,0.057812500000000044,0.27576209174262156,-11.113172203621263,15.484271247461901,541.9494936611666,0.8272862752278647,5.2031250000000036,-33.33951661086379,541.9494936611666,0.8272862752278647,5.2031250000000036,-33.33951661086379,13.76551713899363,0.24656033833821617,-47.67606514482661,5.1505359375000035,11.197494506835938,2.136582374572754,111.98503875732422,12.8,0.5,-0.4941960871219635,0.04559769108891487
1575495239.9506705,692,716,18,4,0.5578125,0.9722222222222222,28.284271247461902,0.057812500000000044,0.27576209174262156,-11.113172203621263,15.484271247461901,541.9494936611666,0.8272862752278647,5.2031250000000036,-33.33951661086379,541.9494936611666,0.8272862752278647,5.2031250000000036,-33.33951661086379,13.76551713899363,0.24656033833821617,-47.67606514482661,5.1505359375000035,11.190140724182129,2.1563587188720703,111.98948669433594,12.8,0.5,-0.4941960871219635,0.04559769108891487
1575495239.9873865,692,716,18,4,0.5578125,0.9722222222222222,28.284271247461902,0.057812500000000044,0.27576209174262156,-11.113172203621263,15.484271247461901,541.9494936611666,0.8272862752278647,5.2031250000000036,-33.33951661086379,541.9494936611666,0.8272862752278647,5.2031250000000036,-33.33951661086379,13.76551713899363,0.24656033833821617,-47.67606514482661,5.1505359375000035,11.339005470275879,1.9582997560501099,112.01911163330078,12.8,0.5,-0.3450092673301697,-0.02790175750851631
1575495240.0234716,692,716,18,4,0.5578125,0.9722222222222222,28.284271247461902,0.057812500000000044,0.27576209174262156,-11.113172203621263,15.484271247461901,541.9494936611666,0.8272862752278647,5.2031250000000036,-33.33951661086379,541.9494936611666,0.8272862752278647,5.2031250000000036,-33.33951661086379,13.76551713899363,0.24656033833821617,-47.67606514482661,5.1505359375000035,11.263530731201172,2.2815024852752686,112.03085327148438,12.8,0.5,-0.2883458137512207,0.01591995358467102
1575495240.0594404,692,716,18,4,0.5578125,0.9722222222222222,28.284271247461902,0.057812500000000044,0.27576209174262156,-11.113172203621263,15.484271247461901,541.9494936611666,0.8272862752278647,5.2031250000000036,-33.33951661086379,541.9494936611666,0.8272862752278647,5.2031250000000036,-33.33951661086379,13.76551713899363,0.24656033833821617,-47.67606514482661,5.1505359375000035,11.263530731201172,2.2815024852752686,112.03085327148438,12.8,0.5,-0.2205602079629898,0.07284363359212875
1575495240.0946634,692,716,18,4,0.5578125,0.9722222222222222,28.284271247461902,0.057812500000000044,0.27576209174262156,-11.113172203621263,15.484271247461901,541.9494936611666,0.8272862752278647,5.2031250000000036,-33.33951661086379,541.9494936611666,0.8272862752278647,5.2031250000000036,-33.33951661086379,13.76551713899363,0.24656033833821617,-47.67606514482661,5.1505359375000035,11.337366104125977,2.21559476852417,112.0477066040039,12.8,0.5,-0.15734247863292694,0.06614825129508972
1575495240.1299155,692,716,18,4,0.5578125,0.9722222222222222,28.284271247461902,0.057812500000000044,0.27576209174262156,-11.113172203621263,15.484271247461901,541.9494936611666,0.8272862752278647,5.2031250000000036,-33.33951661086379,541.9494936611666,0.8272862752278647,5.2031250000000036,-33.33951661086379,13.76551713899363,0.24656033833821617,-47.67606514482661,5.1505359375000035,11.32376766204834,2.222904682159424,112.04911041259766,12.8,0.5,-0.08327366411685944,0.009394010528922081
1575495240.1684253,692,716,18,4,0.5578125,0.9722222222222222,28.284271247461902,0.057812500000000044,0.27576209174262156,-11.113172203621263,15.484271247461901,541.9494936611666,0.8272862752278647,5.2031250000000036,-33.33951661086379,541.9494936611666,0.8272862752278647,5.2031250000000036,-33.33951661086379,13.76551713899363,0.24656033833821617,-47.67606514482661,5.1505359375000035,11.36634349822998,2.259312868118286,112.04652404785156,12.8,0.5,-0.011867055669426918,-0.04163680970668793
1575495240.2053585,692,716,18,4,0.5578125,0.9722222222222222,28.284271247461902,0.057812500000000044,0.27576209174262156,-11.113172203621263,15.484271247461901,541.9494936611666,0.8272862752278647,5.2031250000000036,-33.33951661086379,541.9494936611666,0.8272862752278647,5.2031250000000036,-33.33951661086379,13.76551713899363,0.24656033833821617,-47.67606514482661,5.1505359375000035,11.292793273925781,2.4712533950805664,112.05685424804688,12.8,0.5,0.06278132647275925,-0.04570649191737175
1575495240.242677,692,716,18,4,0.5578125,0.9722222222222222,28.284271247461902,0.057812500000000044,0.27576209174262156,-11.113172203621263,15.484271247461901,541.9494936611666,0.8272862752278647,5.2031250000000036,-33.33951661086379,541.9494936611666,0.8272862752278647,5.2031250000000036,-33.33951661086379,13.76551713899363,0.24656033833821617,-47.67606514482661,5.1505359375000035,11.313987731933594,2.3871841430664062,112.0622329711914,12.8,0.5,0.10199059545993805,-0.01980532705783844
1575495240.2782235,692,716,18,4,0.5578125,0.9722222222222222,28.284271247461902,0.057812500000000044,0.27576209174262156,-11.113172203621263,15.484271247461901,541.9494936611666,0.8272862752278647,5.2031250000000036,-33.33951661086379,541.9494936611666,0.8272862752278647,5.2031250000000036,-33.33951661086379,13.76551713899363,0.24656033833821617,-47.67606514482661,5.1505359375000035,11.343877792358398,2.438765525817871,112.07050323486328,12.8,0.5,0.16495631635189056,0.02171909809112549
1575495240.3138442,692,716,18,4,0.5578125,0.9722222222222222,28.284271247461902,0.057812500000000044,0.27576209174262156,-11.113172203621263,15.484271247461901,541.9494936611666,0.8272862752278647,5.2031250000000036,-33.33951661086379,541.9494936611666,0.8272862752278647,5.2031250000000036,-33.33951661086379,13.76551713899363,0.24656033833821617,-47.67606514482661,5.1505359375000035,11.306275367736816,2.415503740310669,112.06845092773438,12.8,0.5,0.22182559967041016,0.0212713573127985
1575495240.3502235,692,716,18,4,0.5578125,0.9722222222222222,28.284271247461902,0.057812500000000044,0.27576209174262156,-11.113172203621263,15.484271247461901,541.9494936611666,0.8272862752278647,5.2031250000000036,-33.33951661086379,541.9494936611666,0.8272862752278647,5.2031250000000036,-33.33951661086379,13.76551713899363,0.24656033833821617,-47.67606514482661,5.1505359375000035,11.357041358947754,2.361651659011841,112.06973266601562,12.8,0.5,0.2851807177066803,-0.019224319607019424
1575495240.386775,692,716,18,4,0.5578125,0.9722222222222222,28.284271247461902,0.057812500000000044,0.27576209174262156,-11.113172203621263,15.484271247461901,541.9494936611666,0.8272862752278647,5.2031250000000036,-33.33951661086379,541.9494936611666,0.8272862752278647,5.2031250000000036,-33.33951661086379,13.76551713899363,0.24656033833821617,-47.67606514482661,5.1505359375000035,11.327750205993652,2.5844576358795166,112.07768249511719,12.8,0.5,0.418245404958725,-0.07912600040435791
1575495240.424952,692,716,18,4,0.5578125,0.9722222222222222,28.284271247461902,0.057812500000000044,0.27576209174262156,-11.113172203621263,15.484271247461901,541.9494936611666,0.8272862752278647,5.2031250000000036,-33.33951661086379,541.9494936611666,0.8272862752278647,5.2031250000000036,-33.33951661086379,13.76551713899363,0.24656033833821617,-47.67606514482661,5.1505359375000035,11.349045753479004,2.4492204189300537,112.08721160888672,12.8,0.5,0.4661446213722229,-0.04899856820702553
1575495240.4605372,692,716,18,4,0.5578125,0.9722222222222222,28.284271247461902,0.057812500000000044,0.27576209174262156,-11.113172203621263,15.484271247461901,541.9494936611666,0.8272862752278647,5.2031250000000036,-33.33951661086379,541.9494936611666,0.8272862752278647,5.2031250000000036,-33.33951661086379,13.76551713899363,0.24656033833821617,-47.67606514482661,5.1505359375000035,11.349045753479004,2.4492204189300537,112.08721160888672,12.8,0.5,0.5140036940574646,-0.020592959597706795
1575495240.499221,692,716,18,4,0.5578125,0.9722222222222222,28.284271247461902,0.057812500000000044,0.27576209174262156,-11.113172203621263,15.484271247461901,541.9494936611666,0.8272862752278647,5.2031250000000036,-33.33951661086379,541.9494936611666,0.8272862752278647,5.2031250000000036,-33.33951661086379,13.76551713899363,0.24656033833821617,-47.67606514482661,5.1505359375000035,11.318998336791992,2.5701563358306885,112.09101867675781,12.8,0.5,0.5664569735527039,-0.022299181669950485
1575495240.535689,692,716,18,4,0.5578125,0.9722222222222222,28.284271247461902,0.057812500000000044,0.27576209174262156,-11.113172203621263,15.484271247461901,541.9494936611666,0.8272862752278647,5.2031250000000036,-33.33951661086379,541.9494936611666,0.8272862752278647,5.2031250000000036,-33.33951661086379,13.76551713899363,0.24656033833821617,-47.67606514482661,5.1505359375000035,11.385175704956055,2.578763723373413,112.09833526611328,12.8,0.5,0.6218550801277161,-0.05058889463543892
