time,x_bb,y_bb,w_bb,h_bb,w_im,h_im,f_u,f_v,f_delta,psi_telem_ref,psi_telem,theta_centroid_ref,theta_centroid,delta_f_u_psi,delta_f_u_y,delta_f_v_z,delta_f_delta_x,A_exp,alpha_u,alpha_v,d_exp,FOV_u,FOV_v,delta_x_tme,delta_y_tme,delta_psi_tme,delta_z_tme,prev_delta_x_tme,prev_delta_y_tme,prev_delta_psi_tme,prev_delta_z_tme,v_xr,v_yr,v_zr,yawrate,pitch_angle,roll_angle,yaw_angle,got_initial_frame,f_u_ref,f_v_ref,f_delta_ref,kp_vx,kd_vx,kp_vy,kd_vy,kp_yaw,kd_yaw,kp_vz,kd_vz,camera_period,controller_period,v_xlat,v_ylon,v_zalt,local_x,local_y,local_z,local_vx,local_vy,local_vz
1576040151.9321873,704,346,76,75,1280,720,0.5796875,0.5326388888888889,12.71551062782442,90,86.93573375600033,0.0,-3.4488660284706802,0.07968750000000002,0.045640097288892595,-0.03548685982164307,-0.2844893721755799,1225,1280,720,3.0,90.0,50.625,-9.957128026145297,0.13692029186667778,7.171875000000002,-0.1064605794649292,-9.957128026145297,0.13692029186667778,7.171875000000002,-0.1064605794649292,-0.2529110518640905,-0.04080255069201507,-0.15223797847609835,7.100156250000001,-3.4488660284706802,-0.07727788751754158,86.93573375600033,False,0.5,0.5,13,0.0254,0.0124,-0.298,-0.145,0.99,0.119,1.43,0.371,0.03333333333333333,0.01,0,0,0,0.018429402261972427,0.00017645684420131147,-10.003314018249512,-0.01455373503267765,-0.0008571392972953618,0.003103346563875675
1576040151.939524,704,346,76,76,1280,720,0.5796875,0.5333333333333333,12.631578947368421,90,86.93505073708333,0.0,-3.4553344310580942,0.07968750000000002,0.045640097288892595,-0.03548685982164307,-0.2844893721755799,1225,1280,720,3.0,90.0,50.625,-9.957128026145297,0.13692029186667778,7.171875000000002,-0.1064605794649292,-9.957128026145297,0.13692029186667778,7.171875000000002,-0.1064605794649292,-0.2529110518640905,-0.04080255069201507,-0.15223797847609835,7.100156250000001,-3.4553344310580942,-0.04955881208098115,86.93505073708333,False,0.5,0.5,13,0.0254,0.0124,-0.298,-0.145,0.99,0.119,1.43,0.371,0.03333333333333333,0.01,0,0,0,0.01828780397772789,0.0006594400620087981,-10.003076553344727,-0.013463147915899754,-0.0018049597274512053,0.003147534793242812
1576040151.9809546,704,346,76,75,1280,720,0.5796875,0.5326388888888889,12.71551062782442,90,86.9319361708218,0.0,-3.5051427318067656,0.07968750000000002,0.04560518743313464,-0.03587058603468207,-0.36842105263157876,1225,1280,720,3.0,90.0,50.625,-12.894736842105257,0.13681556229940392,7.171875000000002,-0.10761175810404622,-12.894736842105257,0.13681556229940392,7.171875000000002,-0.10761175810404622,-0.3275263157894735,-0.040770918719930806,-0.15389539203791652,7.100156250000001,-3.5051427318067656,0.010517139791467513,86.9319361708218,False,0.5,0.5,13,0.0254,0.0124,-0.298,-0.145,0.99,0.119,1.43,0.371,0.03333333333333333,0.01,0,0,0,0.018479522317647934,0.0015719578368589282,-10.002808570861816,-0.01285034604370594,-0.0023583939764648676,0.0033158576115965843
1576040151.9938972,704,346,76,75,1280,720,0.5796875,0.5326388888888889,12.71551062782442,90,86.94420319057114,0.0,-3.377348398331946,0.07968750000000002,0.04567576605455819,-0.03515449522753118,-0.2844893721755799,1225,1280,720,3.0,90.0,50.625,-9.957128026145297,0.13702729816367457,7.171875000000002,-0.10546348568259355,-9.957128026145297,0.13702729816367457,7.171875000000002,-0.10546348568259355,-0.2525467883709115,-0.040834441869778214,-0.15080481443542518,7.100156250000001,-3.377348398331946,0.4020935299233416,86.94420319057114,False,0.5,0.5,13,0.0254,0.0124,-0.298,-0.145,0.99,0.119,1.43,0.371,0.03333333333333333,0.01,0,0,0,0.018479522317647934,0.0015719578368589282,-10.002808570861816,-0.01285034604370594,-0.0023583939764648676,0.0033158576115965843
1576040152.0060716,704,346,76,75,1280,720,0.5796875,0.5326388888888889,12.71551062782442,90,86.96721409788492,0.0,-3.1209437372199025,0.07968750000000002,0.04567576605455819,-0.03515449522753118,-0.2844893721755799,1225,1280,720,3.0,90.0,50.625,-9.957128026145297,0.13702729816367457,7.171875000000002,-0.10546348568259355,-9.957128026145297,0.13702729816367457,7.171875000000002,-0.10546348568259355,-0.2525467883709115,-0.040834441869778214,-0.15080481443542518,7.100156250000001,-3.1209437372199025,1.2792243153826899,86.96721409788492,False,0.5,0.5,13,0.0254,0.0124,-0.298,-0.145,0.99,0.119,1.43,0.371,0.03333333333333333,0.01,0,0,0,0.01857573352754116,0.002318881219252944,-10.004530906677246,-0.013355453498661518,0.004869920667260885,-0.13358363509178162
1576040152.0168307,704,346,76,75,1280,720,0.5796875,0.5326388888888889,12.71551062782442,90,86.96721409788492,0.0,-3.1209437372199025,0.07968750000000002,0.04598987886538802,-0.029009382463603017,-0.2844893721755799,1225,1280,720,3.0,90.0,50.625,-9.957128026145297,0.13796963659616407,7.171875000000002,-0.08702814739080905,-9.957128026145297,0.13796963659616407,7.171875000000002,-0.08702814739080905,-0.2529110518640905,-0.041116318096384004,-0.12438185566379441,7.100156250000001,-3.1209437372199025,1.2792243153826899,86.96721409788492,False,0.5,0.5,13,0.0254,0.0124,-0.298,-0.145,0.99,0.119,1.43,0.371,0.03333333333333333,0.01,0,0,0,0.01857573352754116,0.002318881219252944,-10.004530906677246,-0.013355453498661518,0.004869920667260885,-0.13358363509178162
1576040152.0316527,704,346,76,76,1280,720,0.5796875,0.5333333333333333,12.631578947368421,90,87.07913357762475,0.0,-2.4669911171184395,0.07968750000000002,0.04625519376914758,-0.02405926217179749,-0.36842105263157876,1225,1280,720,3.0,90.0,50.625,-12.894736842105257,0.13876558130744274,7.171875000000002,-0.07217778651539247,-12.894736842105257,0.13876558130744274,7.171875000000002,-0.07217778651539247,-0.32789057928265253,-0.04135329734944929,-0.10315913987816343,7.100156250000001,-2.4669911171184395,3.840513771234266,87.07913357762475,False,0.5,0.5,13,0.0254,0.0124,-0.298,-0.145,0.99,0.119,1.43,0.371,0.03333333333333333,0.01,0,0,0,0.01857573352754116,0.002318881219252944,-10.004530906677246,-0.013355453498661518,0.004869920667260885,-0.13358363509178162
1576040152.038976,704,346,76,76,1280,720,0.5796875,0.5333333333333333,12.631578947368421,90,87.07913357762475,0.0,-2.4669911171184395,0.07968750000000002,0.047233428640274966,-0.015397355399870416,-0.36842105263157876,1225,1280,720,3.0,90.0,50.625,-12.894736842105257,0.1417002859208249,7.171875000000002,-0.04619206619961125,-12.894736842105257,0.1417002859208249,7.171875000000002,-0.04619206619961125,-0.3275263157894735,-0.042230940526095224,-0.06595824764307254,7.100156250000001,-2.4669911171184395,3.840513771234266,87.07913357762475,False,0.5,0.5,13,0.0254,0.0124,-0.298,-0.145,0.99,0.119,1.43,0.371,0.03333333333333333,0.01,0,0,0,0.018301641568541527,0.0032415997702628374,-10.012228965759277,-0.03584129735827446,0.010015279054641724,-0.32958540320396423
1576040152.051114,704,346,76,76,1280,720,0.5796875,0.5333333333333333,12.631578947368421,90,87.15444324341331,0.0,-2.299310186438038,0.07968750000000002,0.04807020270459237,-0.012085139485195823,-0.36842105263157876,1225,1280,720,3.0,90.0,50.625,-12.894736842105257,0.14421060811377712,7.171875000000002,-0.03625541845558747,-12.894736842105257,0.14421060811377712,7.171875000000002,-0.03625541845558747,-0.3275263157894735,-0.042978401185085356,-0.05180838342835975,7.100156250000001,-2.299310186438038,4.282289126090221,87.15444324341331,False,0.5,0.5,13,0.0254,0.0124,-0.298,-0.145,0.99,0.119,1.43,0.371,0.03333333333333333,0.01,0,0,0,0.018301641568541527,0.0032415997702628374,-10.012228965759277,-0.03584129735827446,0.010015279054641724,-0.32958540320396423
1576040152.0637813,704,346,76,76,1280,720,0.5796875,0.5333333333333333,12.631578947368421,90,87.24001185333522,0.0,-2.08141327809288,0.07968750000000002,0.04902096503705801,-0.00778100302405689,-0.36842105263157876,1225,1280,720,3.0,90.0,50.625,-12.894736842105257,0.14706289511117404,7.171875000000002,-0.02334300907217067,-12.894736842105257,0.14706289511117404,7.171875000000002,-0.02334300907217067,-0.3275263157894735,-0.043828878559276085,-0.033332597934391583,7.100156250000001,-2.08141327809288,4.1871702041613315,87.24001185333522,False,0.5,0.5,13,0.0254,0.0124,-0.298,-0.145,0.99,0.119,1.43,0.371,0.03333333333333333,0.01,0,0,0,0.018301641568541527,0.0032415997702628374,-10.012228965759277,-0.03584129735827446,0.010015279054641724,-0.32958540320396423
1576040152.0793529,704,346,76,76,1280,720,0.5796875,0.5333333333333333,12.631578947368421,90,87.28660057366388,0.0,-1.9334342415167916,0.07968750000000002,0.049538617485154195,-0.00485796032625762,-0.36842105263157876,1225,1280,720,3.0,90.0,50.625,-12.894736842105257,0.14861585245546258,7.171875000000002,-0.014573880978772859,-12.894736842105257,0.14861585245546258,7.171875000000002,-0.014573880978772859,-0.3275263157894735,-0.044289775819877066,-0.020808116334418682,7.100156250000001,-1.9334342415167916,4.235764438785033,87.28660057366388,False,0.5,0.5,13,0.0254,0.0124,-0.298,-0.145,0.99,0.119,1.43,0.371,0.03333333333333333,0.01,0,0,0,0.017072614282369614,0.004143810831010342,-10.024591445922852,-0.06360269337892532,0.006856344174593687,-0.404949814081192
1576040152.0909746,704,346,76,76,1280,720,0.5796875,0.5333333333333333,12.631578947368421,90,87.39594507208662,0.0,-1.4978087249564922,0.07968750000000002,0.05027741628037732,0.00032807371746535613,-0.36842105263157876,1225,1280,720,3.0,90.0,50.625,-12.894736842105257,0.15083224884113194,7.171875000000002,0.0009842211523960684,-12.894736842105257,0.15083224884113194,7.171875000000002,0.0009842211523960684,-0.3275263157894735,-0.04495122392941654,0.0014651568068330145,7.100156250000001,-1.4978087249564922,5.027533200864428,87.39594507208662,False,0.5,0.5,13,0.0254,0.0124,-0.298,-0.145,0.99,0.119,1.43,0.371,0.03333333333333333,0.01,0,0,0,0.017072614282369614,0.004143810831010342,-10.024591445922852,-0.06360269337892532,0.006856344174593687,-0.404949814081192
1576040152.103865,704,346,76,76,1280,720,0.5796875,0.5333333333333333,12.631578947368421,90,87.4632087750329,0.0,-1.2842625403909262,0.07968750000000002,0.051500930833698874,0.00796518438733972,-0.36842105263157876,1225,1280,720,3.0,90.0,50.625,-12.894736842105257,0.1545027925010966,7.171875000000002,0.02389555316201916,-12.894736842105257,0.1545027925010966,7.171875000000002,0.02389555316201916,-0.3275263157894735,-0.046047154453633735,0.0342556420634431,7.100156250000001,-1.2842625403909262,5.88120823625988,87.4632087750329,False,0.5,0.5,13,0.0254,0.0124,-0.298,-0.145,0.99,0.119,1.43,0.371,0.03333333333333333,0.01,0,0,0,0.015092580579221249,0.004747343249619007,-10.03664779663086,-0.08057646453380585,-0.005877811461687088,-0.3225339651107788
1576040152.1179397,704,346,76,76,1280,720,0.5796875,0.5333333333333333,12.631578947368421,90,87.50900519341783,0.0,-1.1910966256778368,0.07968750000000002,0.052009779926864855,0.009805498752042723,-0.36842105263157876,1225,1280,720,3.0,90.0,50.625,-12.894736842105257,0.15602933978059458,7.171875000000002,0.029416496256128168,-12.894736842105257,0.15602933978059458,7.171875000000002,0.029416496256128168,-0.3275263157894735,-0.046498956748172456,0.042086072345142424,7.100156250000001,-1.1910966256778368,6.497830030565815,87.50900519341783,False,0.5,0.5,13,0.0254,0.0124,-0.298,-0.145,0.99,0.119,1.43,0.371,0.03333333333333333,0.01,0,0,0,0.015092580579221249,0.004747343249619007,-10.03664779663086,-0.08057646453380585,-0.005877811461687088,-0.3225339651107788
1576040152.1323612,703,346,77,76,1280,720,0.579296875,0.5333333333333333,12.54928765478405,90,87.5945874637181,0.0,-1.118400467742158,0.07968750000000002,0.05251536570742735,0.010875698747411403,-0.36842105263157876,1225,1280,720,3.0,90.0,50.625,-12.894736842105257,0.15754609712228204,7.171875000000002,0.03262709624223421,-12.894736842105257,0.15754609712228204,7.171875000000002,0.03262709624223421,-0.3275263157894735,-0.046950936240585495,0.04666865895234337,7.100156250000001,-1.118400467742158,7.588369196188139,87.5945874637181,False,0.5,0.5,13,0.0254,0.0124,-0.298,-0.145,0.99,0.119,1.43,0.371,0.03333333333333333,0.01,0,0,0,0.015092580579221249,0.004747343249619007,-10.03664779663086,-0.08057646453380585,-0.005877811461687088,-0.3225339651107788
1576040152.138357,703,346,77,76,1280,720,0.579296875,0.5333333333333333,12.54928765478405,90,87.6589551664563,0.0,-1.1798025877201033,0.07929687500000004,0.052570069041312256,0.011241472242130207,-0.4507123452159494,1225,1280,720,3.0,90.0,50.625,-15.774932082558228,0.15771020712393677,7.1367187500000036,0.03372441672639062,-15.774932082558228,0.15771020712393677,7.1367187500000036,0.03372441672639062,-0.40104041910679517,-0.04699787968243556,0.048229986977734805,7.065309726562504,-1.1798025877201033,8.273665981277613,87.6589551664563,False,0.5,0.5,13,0.0254,0.0124,-0.298,-0.145,0.99,0.119,1.43,0.371,0.03333333333333333,0.01,0,0,0,0.011943137273192406,0.0050582136027514935,-10.046243667602539,-0.10521730780601501,-0.02449926920235157,-0.14767572283744812
1576040152.150057,703,346,77,76,1280,720,0.579296875,0.5333333333333333,12.54928765478405,90,87.67208279004106,0.0,-1.2094066552953484,0.07929687500000004,0.05343112822267848,0.009443819154659777,-0.4507123452159494,1225,1280,720,3.0,90.0,50.625,-15.774932082558228,0.16029338466803544,7.1367187500000036,0.02833145746397933,-15.774932082558228,0.16029338466803544,7.1367187500000036,0.02833145746397933,-0.40068327489697897,-0.04777117423851351,0.04049397629462689,7.065351562500004,-1.2094066552953484,8.379981290803446,87.67208279004106,False,0.5,0.5,13,0.0254,0.0124,-0.298,-0.145,0.99,0.119,1.43,0.371,0.03333333333333333,0.01,0,0,0,0.011943137273192406,0.0050582136027514935,-10.046243667602539,-0.10521730780601501,-0.02449926920235157,-0.14767572283744812
1576040152.1627197,703,346,77,76,1280,720,0.579296875,0.5333333333333333,12.54928765478405,90,87.72202513325219,0.0,-1.3012270227419453,0.07929687500000004,0.05343112822267848,0.009443819154659777,-0.4507123452159494,1225,1280,720,3.0,90.0,50.625,-15.774932082558228,0.16029338466803544,7.1367187500000036,0.02833145746397933,-15.774932082558228,0.16029338466803544,7.1367187500000036,0.02833145746397933,-0.40068327489697897,-0.04776742863107456,0.04051398417349044,7.065351562500004,-1.3012270227419453,8.577449743671332,87.72202513325219,False,0.5,0.5,13,0.0254,0.0124,-0.298,-0.145,0.99,0.119,1.43,0.371,0.03333333333333333,0.01,0,0,0,0.011943137273192406,0.0050582136027514935,-10.046243667602539,-0.10521730780601501,-0.02449926920235157,-0.14767572283744812
1576040152.174625,703,346,77,76,1280,720,0.579296875,0.5333333333333333,12.54928765478405,90,87.77248657084024,0.0,-1.389727598086799,0.07929687500000004,0.05454672578711386,0.005881923988408904,-0.4507123452159494,1225,1280,720,3.0,90.0,50.625,-15.774932082558228,0.16364017736134157,7.1367187500000036,0.017645771965226712,-15.774932082558228,0.16364017736134157,7.1367187500000036,0.017645771965226712,-0.40068327489697897,-0.04876962570308508,0.025193810017073822,7.065351562500004,-1.389727598086799,8.67893098681209,87.77248657084024,False,0.5,0.5,13,0.0254,0.0124,-0.298,-0.145,0.99,0.119,1.43,0.371,0.03333333333333333,0.01,0,0,0,0.008802228607237339,0.004995973315089941,-10.04864501953125,-0.12654531002044678,-0.03904024511575699,0.01386913564056158
1576040152.1829967,703,346,77,76,1280,720,0.579296875,0.5333333333333333,12.54928765478405,90,87.83268102799558,0.0,-1.5020012871681165,0.07929687500000004,0.05521555308883978,0.003664172105321148,-0.4507123452159494,1225,1280,720,3.0,90.0,50.625,-15.774932082558228,0.16564665926651934,7.1367187500000036,0.010992516315963444,-15.774932082558228,0.16564665926651934,7.1367187500000036,0.010992516315963444,-0.40068327489697897,-0.049365613860185266,0.015694614753368957,7.065351562500004,-1.5020012871681165,8.790785579754802,87.83268102799558,False,0.5,0.5,13,0.0254,0.0124,-0.298,-0.145,0.99,0.119,1.43,0.371,0.03333333333333333,0.01,0,0,0,0.008802228607237339,0.004995973315089941,-10.04864501953125,-0.12654531002044678,-0.03904024511575699,0.01386913564056158
1576040152.196448,703,346,77,76,1280,720,0.579296875,0.5333333333333333,12.54928765478405,90,87.85285740680379,0.0,-1.551125181617612,0.07929687500000004,0.05521555308883978,0.003664172105321148,-0.4507123452159494,1225,1280,720,3.0,90.0,50.625,-15.774932082558228,0.16564665926651934,7.1367187500000036,0.010992516315963444,-15.774932082558228,0.16564665926651934,7.1367187500000036,0.010992516315963444,-0.40068327489697897,-0.049365613860185266,0.015694614753368957,7.065351562500004,-1.551125181617612,8.847053531911014,87.85285740680379,False,0.5,0.5,13,0.0254,0.0124,-0.298,-0.145,0.99,0.119,1.43,0.371,0.03333333333333333,0.01,0,0,0,0.008802228607237339,0.004995973315089941,-10.04864501953125,-0.12654531002044678,-0.03904024511575699,0.01386913564056158
1576040152.2056155,703,346,77,76,1280,720,0.579296875,0.5333333333333333,12.54928765478405,90,87.94697741356656,0.0,-1.9032941108134063,0.07929687500000004,0.05607957201884632,-0.0010541436541544325,-0.4507123452159494,1225,1280,720,3.0,90.0,50.625,-15.774932082558228,0.16823871605653895,7.1367187500000036,-0.0031624309624632974,-15.774932082558228,0.16823871605653895,7.1367187500000036,-0.0031624309624632974,-0.40068327489697897,-0.05013889586719414,-0.004574791130725478,7.065351562500004,-1.9032941108134063,9.287159332401725,87.94697741356656,False,0.5,0.5,13,0.0254,0.0124,-0.298,-0.145,0.99,0.119,1.43,0.371,0.03333333333333333,0.01,0,0,0,0.005923199933022261,0.004604831337928772,-10.047195434570312,-0.1459389328956604,-0.04908284544944763,0.11443058401346207
1576040152.216684,703,346,77,76,1280,720,0.579296875,0.5333333333333333,12.54928765478405,90,87.94697741356656,0.0,-1.9032941108134063,0.07929687500000004,0.05648551292851735,-0.004262599719770999,-0.4507123452159494,1225,1280,720,3.0,90.0,50.625,-15.774932082558228,0.16945653878555206,7.1367187500000036,-0.012787799159312996,-15.774932082558228,0.16945653878555206,7.1367187500000036,-0.012787799159312996,-0.40068327489697897,-0.05049981440105158,-0.018322262913827898,7.065351562500004,-1.9032941108134063,9.287159332401725,87.94697741356656,False,0.5,0.5,13,0.0254,0.0124,-0.298,-0.145,0.99,0.119,1.43,0.371,0.03333333333333333,0.01,0,0,0,0.005923199933022261,0.004604831337928772,-10.047195434570312,-0.1459389328956604,-0.04908284544944763,0.11443058401346207
1576040152.2272227,703,346,77,76,1280,720,0.579296875,0.5333333333333333,12.54928765478405,90,88.06334334645607,0.0,-2.389850320302081,0.07929687500000004,0.0570435393837075,-0.009584130803278718,-0.4507123452159494,1225,1280,720,3.0,90.0,50.625,-15.774932082558228,0.17113061815112252,7.1367187500000036,-0.028752392409836153,-15.774932082558228,0.17113061815112252,7.1367187500000036,-0.028752392409836153,-0.40068327489697897,-0.05099935162411458,-0.041175149787025134,7.065351562500004,-2.389850320302081,9.68975714906531,88.06334334645607,False,0.5,0.5,13,0.0254,0.0124,-0.298,-0.145,0.99,0.119,1.43,0.371,0.03333333333333333,0.01,0,0,0,0.005923199933022261,0.004604831337928772,-10.047195434570312,-0.1459389328956604,-0.04908284544944763,0.11443058401346207
1576040152.237492,703,346,77,76,1280,720,0.579296875,0.5333333333333333,12.54928765478405,90,88.15822150421671,0.0,-2.482664480272915,0.07929687500000004,0.05777846773840077,-0.013873586573868273,-0.4507123452159494,1225,1280,720,3.0,90.0,50.625,-15.774932082558228,0.1733354032152023,7.1367187500000036,-0.04162075972160482,-15.774932082558228,0.1733354032152023,7.1367187500000036,-0.04162075972160482,-0.40068327489697897,-0.0516571470964732,-0.059565428044621546,7.065351562500004,-2.482664480272915,9.460050203314964,88.15822150421671,False,0.5,0.5,13,0.0254,0.0124,-0.298,-0.145,0.99,0.119,1.43,0.371,0.03333333333333333,0.01,0,0,0,-0.00040558562614023685,0.0034610030706971884,-10.041779518127441,-0.20683756470680237,-0.05597751960158348,0.12739989161491394
1576040152.2482624,703,346,77,76,1280,720,0.579296875,0.5333333333333333,12.54928765478405,90,88.23415954740892,0.0,-2.4769068442460056,0.07929687500000004,0.059676425526765844,-0.01559322161473592,-0.4507123452159494,1225,1280,720,3.0,90.0,50.625,-15.774932082558228,0.17902927658029755,7.1367187500000036,-0.04677966484420776,-15.774932082558228,0.17902927658029755,7.1367187500000036,-0.04677966484420776,-0.40068327489697897,-0.05335898053730806,-0.06691406026522194,7.065351562500004,-2.4769068442460056,9.090753827723422,88.23415954740892,False,0.5,0.5,13,0.0254,0.0124,-0.298,-0.145,0.99,0.119,1.43,0.371,0.03333333333333333,0.01,0,0,0,-0.00040558562614023685,0.0034610030706971884,-10.041779518127441,-0.20683756470680237,-0.05597751960158348,0.12739989161491394
1576040152.2641664,703,346,77,76,1280,720,0.579296875,0.5333333333333333,12.54928765478405,90,88.3567068014973,0.0,-2.4408423782112805,0.07929687500000004,0.059676425526765844,-0.01559322161473592,-0.4507123452159494,1225,1280,720,3.0,90.0,50.625,-15.774932082558228,0.17902927658029755,7.1367187500000036,-0.04677966484420776,-15.774932082558228,0.17902927658029755,7.1367187500000036,-0.04677966484420776,-0.40068327489697897,-0.05335898053730806,-0.06691406026522194,7.065351562500004,-2.4408423782112805,8.353487840786613,88.3567068014973,False,0.5,0.5,13,0.0254,0.0124,-0.298,-0.145,0.99,0.119,1.43,0.371,0.03333333333333333,0.01,0,0,0,-0.00040558562614023685,0.0034610030706971884,-10.041779518127441,-0.20683756470680237,-0.05597751960158348,0.12739989161491394
1576040152.2961068,703,346,77,76,1280,720,0.579296875,0.5333333333333333,12.54928765478405,90,88.56763670344563,0.0,-2.6283340591358924,0.07929687500000004,0.06338172726050703,-0.018584376476758376,-0.4507123452159494,1225,1280,720,3.0,90.0,50.625,-15.774932082558228,0.1901451817815211,7.1367187500000036,-0.055753129430275127,-15.774932082558228,0.1901451817815211,7.1367187500000036,-0.055753129430275127,-0.40068327489697897,-0.056671540755072886,-0.07976790852649386,7.065351562500004,-2.6283340591358924,7.421985788006628,88.56763670344563,False,0.5,0.5,13,0.0254,0.0124,-0.298,-0.145,0.99,0.119,1.43,0.371,0.03333333333333333,0.01,0,0,0,-0.00773779209703207,0.0024738069623708725,-10.040031433105469,-0.27758532762527466,-0.052088137716054916,-0.024198714643716812
1576040152.3016922,703,346,77,76,1280,720,0.579296875,0.5333333333333333,12.54928765478405,90,88.56763670344563,0.0,-2.6283340591358924,0.07929687500000004,0.06338172726050703,-0.018584376476758376,-0.4507123452159494,1225,1280,720,3.0,90.0,50.625,-15.774932082558228,0.1901451817815211,7.1367187500000036,-0.055753129430275127,-15.774932082558228,0.1901451817815211,7.1367187500000036,-0.055753129430275127,-0.40068327489697897,-0.056671540755072886,-0.07976790852649386,7.065351562500004,-2.6283340591358924,7.421985788006628,88.56763670344563,False,0.5,0.5,13,0.0254,0.0124,-0.298,-0.145,0.99,0.119,1.43,0.371,0.03333333333333333,0.01,0,0,0,-0.00773779209703207,0.0024738069623708725,-10.040031433105469,-0.27758532762527466,-0.052088137716054916,-0.024198714643716812
1576040152.3180227,703,346,77,76,1280,720,0.579296875,0.5333333333333333,12.54928765478405,90,88.71997041250442,0.0,-2.8638221196884186,0.07929687500000004,0.06471224811082539,-0.02261378755128124,-0.4507123452159494,1225,1280,720,3.0,90.0,50.625,-15.774932082558228,0.19413674433247619,7.1367187500000036,-0.06784136265384372,-15.774932082558228,0.19413674433247619,7.1367187500000036,-0.06784136265384372,-0.40068327489697897,-0.05785853757677679,-0.09705799594025595,7.065351562500004,-2.8638221196884186,7.391698167905853,88.71997041250442,False,0.5,0.5,13,0.0254,0.0124,-0.298,-0.145,0.99,0.119,1.43,0.371,0.03333333333333333,0.01,0,0,0,-0.017270613461732864,0.0015571831027045846,-10.044257164001465,-0.3389064371585846,-0.04751523211598396,-0.22952498495578766
1576040152.3383904,703,346,77,76,1280,720,0.579296875,0.5333333333333333,12.54928765478405,90,88.82951298641308,0.0,-2.8850838582444336,0.07929687500000004,0.06471224811082539,-0.02261378755128124,-0.4507123452159494,1225,1280,720,3.0,90.0,50.625,-15.774932082558228,0.19413674433247619,7.1367187500000036,-0.06784136265384372,-15.774932082558228,0.19413674433247619,7.1367187500000036,-0.06784136265384372,-0.40068327489697897,-0.05785853757677679,-0.09705799594025595,7.065351562500004,-2.8850838582444336,6.987706992651585,88.82951298641308,False,0.5,0.5,13,0.0254,0.0124,-0.298,-0.145,0.99,0.119,1.43,0.371,0.03333333333333333,0.01,0,0,0,-0.017270613461732864,0.0015571831027045846,-10.044257164001465,-0.3389064371585846,-0.04751523211598396,-0.22952498495578766
1576040152.3697996,703,346,77,74,1280,720,0.579296875,0.5319444444444444,12.717742006384693,90,89.186902634734,0.0,-2.9271943223550894,0.07929687500000004,0.06919755744778201,-0.023135900137498576,-0.2822579936153069,1225,1280,720,3.0,90.0,50.625,-9.879029776535742,0.20759267234334605,7.1367187500000036,-0.06940770041249572,-9.879029776535742,0.20759267234334605,7.1367187500000036,-0.06940770041249572,-0.25019626443806103,-0.06186261635831712,-0.09926846992320221,7.065351562500004,-2.9271943223550894,2.5375604181796,89.186902634734,False,0.5,0.5,13,0.0254,0.0124,-0.298,-0.145,0.99,0.119,1.43,0.371,0.03333333333333333,0.01,0,0,0,-0.02826337143778801,0.0009419620619155467,-10.053647994995117,-0.3834366500377655,-0.043941330164670944,-0.31668126583099365
1576040152.381681,703,346,77,74,1280,720,0.579296875,0.5319444444444444,12.717742006384693,90,89.186902634734,0.0,-2.9271943223550894,0.07929687500000004,0.0702624598303778,-0.025876677972446215,-0.2822579936153069,1225,1280,720,3.0,90.0,50.625,-9.879029776535742,0.21078737949113338,7.1367187500000036,-0.07763003391733864,-9.879029776535742,0.21078737949113338,7.1367187500000036,-0.07763003391733864,-0.2509273563240078,-0.06281927141372204,-0.11104145335909721,7.065351562500004,-2.9271943223550894,2.5375604181796,89.186902634734,False,0.5,0.5,13,0.0254,0.0124,-0.298,-0.145,0.99,0.119,1.43,0.371,0.03333333333333333,0.01,0,0,0,-0.03936728462576866,0.0007630098261870444,-10.064031600952148,-0.3956248164176941,-0.051476847380399704,-0.24783696234226227
1576040152.390088,703,346,77,74,1280,720,0.579296875,0.5319444444444444,12.717742006384693,90,89.37533389355632,0.0,-3.4473584776548116,0.07929687500000004,0.07132326409947155,-0.03091516095734921,-0.2822579936153069,1225,1280,720,3.0,90.0,50.625,-9.879029776535742,0.21396979229841467,7.1367187500000036,-0.09274548287204763,-9.879029776535742,0.21396979229841467,7.1367187500000036,-0.09274548287204763,-0.2509273563240078,-0.06376761260349813,-0.13268211882265007,7.065351562500004,-3.4473584776548116,0.032681938245248635,89.37533389355632,False,0.5,0.5,13,0.0254,0.0124,-0.298,-0.145,0.99,0.119,1.43,0.371,0.03333333333333333,0.01,0,0,0,-0.03936728462576866,0.0007630098261870444,-10.064031600952148,-0.3956248164176941,-0.051476847380399704,-0.24783696234226227
1576040152.4038577,703,346,77,74,1280,720,0.579296875,0.5319444444444444,12.717742006384693,90,89.4367646149514,0.0,-3.5645986747580807,0.07929687500000004,0.0730387040550156,-0.03846738122978925,-0.2822579936153069,1225,1280,720,3.0,90.0,50.625,-9.879029776535742,0.21911611216504678,7.1367187500000036,-0.11540214368936776,-9.879029776535742,0.21911611216504678,7.1367187500000036,-0.11540214368936776,-0.2509273563240078,-0.06530406358899056,-0.16510912168742814,7.065351562500004,-3.5645986747580807,-0.5410919616383472,89.4367646149514,False,0.5,0.5,13,0.0254,0.0124,-0.298,-0.145,0.99,0.119,1.43,0.371,0.03333333333333333,0.01,0,0,0,-0.03936728462576866,0.0007630098261870444,-10.064031600952148,-0.3956248164176941,-0.051476847380399704,-0.24783696234226227
1576040152.4220397,704,352,76,76,1280,720,0.5796875,0.5416666666666666,12.631578947368421,90,89.5426325470866,0.0,-3.6563180834710085,0.07968750000000002,0.07434070396326767,-0.030376212397532257,-0.36842105263157876,1225,1280,720,3.0,90.0,50.625,-12.894736842105257,0.223022111889803,7.171875000000002,-0.09112863719259677,-12.894736842105257,0.223022111889803,7.171875000000002,-0.09112863719259677,-0.32790026346560414,-0.06646625304276219,-0.13022389647631033,7.100198085937501,-3.6563180834710085,-1.2801995383301208,89.5426325470866,False,0.5,0.5,13,0.0254,0.0124,-0.298,-0.145,0.99,0.119,1.43,0.371,0.03333333333333333,0.01,0,0,0,-0.05348636955022812,8.610310032963753e-06,-10.072029113769531,-0.3878605365753174,-0.05986642464995384,-0.0891536995768547
1576040152.4337902,704,352,76,76,1280,720,0.5796875,0.5416666666666666,12.631578947368421,90,89.6298472325985,0.0,-3.654864533838265,0.07968750000000002,0.07460563941207334,-0.03055690041424218,-0.36842105263157876,1225,1280,720,3.0,90.0,50.625,-12.894736842105257,0.22381691823622002,7.171875000000002,-0.09167070124272654,-12.894736842105257,0.22381691823622002,7.171875000000002,-0.09167070124272654,-0.3275263157894735,-0.06669859410359587,-0.13109111383472494,7.100156250000001,-3.654864533838265,-1.8295457835804283,89.6298472325985,False,0.5,0.5,13,0.0254,0.0124,-0.298,-0.145,0.99,0.119,1.43,0.371,0.03333333333333333,0.01,0,0,0,-0.05348636955022812,8.610310032963753e-06,-10.072029113769531,-0.3878605365753174,-0.05986642464995384,-0.0891536995768547
1576040152.4482515,704,352,76,76,1280,720,0.5796875,0.5416666666666666,12.631578947368421,90,89.67104010348284,0.0,-3.647850356447485,0.07968750000000002,0.07603239003869822,-0.03038963667056764,-0.36842105263157876,1225,1280,720,3.0,90.0,50.625,-12.894736842105257,0.22809717011609465,7.171875000000002,-0.09116891001170292,-12.894736842105257,0.22809717011609465,7.171875000000002,-0.09116891001170292,-0.3275263157894735,-0.06797494768335562,-0.13036999923684658,7.100156250000001,-3.647850356447485,-2.2085559688321976,89.67104010348284,False,0.5,0.5,13,0.0254,0.0124,-0.298,-0.145,0.99,0.119,1.43,0.371,0.03333333333333333,0.01,0,0,0,-0.0645657628774643,-0.000873104203492403,-10.074362754821777,-0.3746546804904938,-0.062265794724226,-0.013795724138617516
1576040152.4620047,702,362,76,76,1280,720,0.578125,0.5555555555555556,12.631578947368421,90,89.77203128055065,0.0,-3.7095312335209316,0.078125,0.07559201422834055,-0.01771913547695665,-0.36842105263157876,1225,1280,720,3.0,90.0,50.625,-12.894736842105257,0.22677604268502166,7.03125,-0.053157406430869955,-12.894736842105257,0.22677604268502166,7.03125,-0.053157406430869955,-0.3275263157894735,-0.0675773450853614,-0.07587406851785915,6.96077015625,-3.7095312335209316,-3.393461881801064,89.77203128055065,False,0.5,0.5,13,0.0254,0.0124,-0.298,-0.145,0.99,0.119,1.43,0.371,0.03333333333333333,0.01,0,0,0,-0.0645657628774643,-0.000873104203492403,-10.074362754821777,-0.3746546804904938,-0.062265794724226,-0.013795724138617516
1576040152.4700758,702,362,76,76,1280,720,0.578125,0.5555555555555556,12.631578947368421,90,89.8340425680252,0.0,-3.7870987037170045,0.078125,0.07559201422834055,-0.01771913547695665,-0.36842105263157876,1225,1280,720,3.0,90.0,50.625,-12.894736842105257,0.22677604268502166,7.03125,-0.053157406430869955,-12.894736842105257,0.22677604268502166,7.03125,-0.053157406430869955,-0.3275263157894735,-0.06757926072013645,-0.07601509119614404,6.9609375,-3.7870987037170045,-3.780448660786351,89.8340425680252,False,0.5,0.5,13,0.0254,0.0124,-0.298,-0.145,0.99,0.119,1.43,0.371,0.03333333333333333,0.01,0,0,0,-0.0645657628774643,-0.000873104203492403,-10.074362754821777,-0.3746546804904938,-0.062265794724226,-0.013795724138617516
1576040152.4932172,702,362,76,76,1280,720,0.578125,0.5555555555555556,12.631578947368421,90,89.91258291329117,0.0,-3.6985636572611833,0.078125,0.0771536990365686,-0.017502491995282615,-0.36842105263157876,1225,1280,720,3.0,90.0,50.625,-12.894736842105257,0.2314610971097058,7.03125,-0.052507475985847846,-12.894736842105257,0.2314610971097058,7.03125,-0.052507475985847846,-0.3275263157894735,-0.06898220026760811,-0.07508327941781139,6.9609375,-3.6985636572611833,-3.0189929185737068,89.91258291329117,False,0.5,0.5,13,0.0254,0.0124,-0.298,-0.145,0.99,0.119,1.43,0.371,0.03333333333333333,0.01,0,0,0,-0.07509168982505798,-0.0018368826713413,-10.076484680175781,-0.3432646691799164,-0.05747606232762337,-0.0978013277053833
1576040152.5049481,702,368,76,74,1280,720,0.578125,0.5625,12.801137929503959,90,89.9347605375262,0.0,-3.567064586491867,0.078125,0.07740011708362447,-0.007960535041814654,-0.1988620704960411,1225,1280,720,3.0,90.0,50.625,-6.9601724673614385,0.2322003512508734,7.03125,-0.02388160512544396,-6.9601724673614385,0.2322003512508734,7.03125,-0.02388160512544396,-0.17605249468851228,-0.06919677659126497,-0.034044493348492764,6.9609375,-3.567064586491867,-2.3675369460572955,89.9347605375262,False,0.5,0.5,13,0.0254,0.0124,-0.298,-0.145,0.99,0.119,1.43,0.371,0.03333333333333333,0.01,0,0,0,-0.07509168982505798,-0.0018368826713413,-10.076484680175781,-0.3432646691799164,-0.05747606232762337,-0.0978013277053833
1576040152.518812,702,368,76,74,1280,720,0.578125,0.5625,12.801137929503959,90,89.95961559591588,0.0,-3.4108455670123927,0.078125,0.07740011708362447,-0.007960535041814654,-0.1988620704960411,1225,1280,720,3.0,90.0,50.625,-6.9601724673614385,0.2322003512508734,7.03125,-0.02388160512544396,-6.9601724673614385,0.2322003512508734,7.03125,-0.02388160512544396,-0.17605249468851228,-0.06919677659126497,-0.034044493348492764,6.9609375,-3.4108455670123927,-1.7240181869649678,89.95961559591588,False,0.5,0.5,13,0.0254,0.0124,-0.298,-0.145,0.99,0.119,1.43,0.371,0.03333333333333333,0.01,0,0,0,-0.08452703058719635,-0.0025895065627992153,-10.082749366760254,-0.3086569309234619,-0.0467861108481884,-0.23805111646652222
1576040152.5322568,702,368,76,74,1280,720,0.578125,0.5625,12.801137929503959,90,89.9995175610471,0.0,-3.2123498110046556,0.078125,0.0776762843990653,-0.0048747272496275085,-0.1988620704960411,1225,1280,720,3.0,90.0,50.625,-6.9601724673614385,0.2330288531971959,7.03125,-0.014624181748882525,-6.9601724673614385,0.2330288531971959,7.03125,-0.014624181748882525,-0.17678838067098052,-0.06944379958058654,-0.02087823486017497,6.9609375,-3.2123498110046556,-1.0252951709579523,89.9995175610471,False,0.5,0.5,13,0.0254,0.0124,-0.298,-0.145,0.99,0.119,1.43,0.371,0.03333333333333333,0.01,0,0,0,-0.08452703058719635,-0.0025895065627992153,-10.082749366760254,-0.3086569309234619,-0.0467861108481884,-0.23805111646652222
1576040152.5438669,698,363,77,77,1280,720,0.575390625,0.5576388888888889,12.467532467532466,90,90.0685093018534,0.0,-3.0819316176714935,0.07539062500000004,0.07584577109923037,-0.0038859626317673188,-0.5324675324675336,1225,1280,720,3.0,90.0,50.625,-18.636363636363676,0.2275373132976911,6.7851562500000036,-0.011657887895301956,-18.636363636363676,0.2275373132976911,6.7851562500000036,-0.011657887895301956,-0.4748114840685936,-0.06779815662985766,-0.016659774740085013,6.7170118359375035,-3.0819316176714935,-0.8044499154080228,90.0685093018534,False,0.5,0.5,13,0.0254,0.0124,-0.298,-0.145,0.99,0.119,1.43,0.371,0.03333333333333333,0.01,0,0,0,-0.08452703058719635,-0.0025895065627992153,-10.082749366760254,-0.3086569309234619,-0.0467861108481884,-0.23805111646652222
1576040152.5518768,698,363,77,77,1280,720,0.575390625,0.5576388888888889,12.467532467532466,90,90.0685093018534,0.0,-3.0819316176714935,0.07539062500000004,0.07615183946503779,-0.003238772694745533,-0.5324675324675336,1225,1280,720,3.0,90.0,50.625,-18.636363636363676,0.22845551839511336,6.7851562500000036,-0.009716318084236598,-18.636363636363676,0.22845551839511336,6.7851562500000036,-0.009716318084236598,-0.4733636363636373,-0.06808107587913505,-0.013887131636459282,6.717304687500003,-3.0819316176714935,-0.8044499154080228,90.0685093018534,False,0.5,0.5,13,0.0254,0.0124,-0.298,-0.145,0.99,0.119,1.43,0.371,0.03333333333333333,0.01,0,0,0,-0.09279574453830719,-0.002993195317685604,-10.091756820678711,-0.29502350091934204,-0.04732579365372658,-0.26442769169807434
1576040152.5622606,698,363,77,77,1280,720,0.575390625,0.5576388888888889,12.467532467532466,90,90.14203628826859,0.0,-3.0437433896917176,0.07539062500000004,0.07665560386182166,-0.002794527915562367,-0.5324675324675336,1225,1280,720,3.0,90.0,50.625,-18.636363636363676,0.22996681158546498,6.7851562500000036,-0.008383583746687101,-18.636363636363676,0.22996681158546498,6.7851562500000036,-0.008383583746687101,-0.4733636363636373,-0.06853230122759457,-0.011983580313370245,6.717304687500003,-3.0437433896917176,-0.8093231486591211,90.14203628826859,False,0.5,0.5,13,0.0254,0.0124,-0.298,-0.145,0.99,0.119,1.43,0.371,0.03333333333333333,0.01,0,0,0,-0.09279574453830719,-0.002993195317685604,-10.091756820678711,-0.29502350091934204,-0.04732579365372658,-0.26442769169807434
1576040152.5761123,696,359,76,77,1280,720,0.5734375,0.5520833333333334,12.54928765478405,90,90.17154270548303,0.0,-3.028966275422395,0.07343750000000004,0.0750156809807621,-0.008039992882799323,-0.4507123452159494,1225,1280,720,3.0,90.0,50.625,-15.774932082558228,0.22504704294228628,6.6093750000000036,-0.024119978648397968,-15.774932082558228,0.22504704294228628,6.6093750000000036,-0.024119978648397968,-0.4003284573843071,-0.06705688513226869,-0.03454995149229444,6.543072070312503,-3.028966275422395,-0.6314617142991099,90.17154270548303,False,0.5,0.5,13,0.0254,0.0124,-0.298,-0.145,0.99,0.119,1.43,0.371,0.03333333333333333,0.01,0,0,0,-0.09279574453830719,-0.002993195317685604,-10.091756820678711,-0.29502350091934204,-0.04732579365372658,-0.26442769169807434
1576040152.6218386,696,359,76,77,1280,720,0.5734375,0.5520833333333334,12.54928765478405,90,90.24646305048891,0.0,-3.0079489295726196,0.07343750000000004,0.07617597833876574,-0.007332941818718373,-0.4507123452159494,1225,1280,720,3.0,90.0,50.625,-15.774932082558228,0.22852793501629723,6.6093750000000036,-0.02199882545615512,-15.774932082558228,0.22852793501629723,6.6093750000000036,-0.02199882545615512,-0.40068327489697897,-0.06810132463485657,-0.03145832040230182,6.543281250000003,-3.0079489295726196,-0.05052870894828288,90.24646305048891,False,0.5,0.5,13,0.0254,0.0124,-0.298,-0.145,0.99,0.119,1.43,0.371,0.03333333333333333,0.01,0,0,0,-0.09940540045499802,-0.002946373075246811,-10.099079132080078,-0.2860077917575836,-0.05444341152906418,-0.1704089194536209
1576040152.6228368,696,359,76,77,1280,720,0.5734375,0.5520833333333334,12.54928765478405,90,90.24646305048891,0.0,-3.0079489295726196,0.07343750000000004,0.07617597833876574,-0.007332941818718373,-0.4507123452159494,1225,1280,720,3.0,90.0,50.625,-15.774932082558228,0.22852793501629723,6.6093750000000036,-0.02199882545615512,-15.774932082558228,0.22852793501629723,6.6093750000000036,-0.02199882545615512,-0.40068327489697897,-0.06810132463485657,-0.03145832040230182,6.543281250000003,-3.0079489295726196,-0.05052870894828288,90.24646305048891,False,0.5,0.5,13,0.0254,0.0124,-0.298,-0.145,0.99,0.119,1.43,0.371,0.03333333333333333,0.01,0,0,0,-0.09940540045499802,-0.002946373075246811,-10.099079132080078,-0.2860077917575836,-0.05444341152906418,-0.1704089194536209
1576040152.6404173,694,354,76,76,1280,720,0.571875,0.5444444444444444,12.631578947368421,90,90.38162566397429,0.0,-3.0770074781667374,0.07343750000000004,0.07617597833876574,-0.007332941818718373,-0.4507123452159494,1225,1280,720,3.0,90.0,50.625,-15.774932082558228,0.22852793501629723,6.6093750000000036,-0.02199882545615512,-15.774932082558228,0.22852793501629723,6.6093750000000036,-0.02199882545615512,-0.40068327489697897,-0.06810132463485657,-0.03145832040230182,6.543281250000003,-3.0770074781667374,1.3624680996658665,90.38162566397429,False,0.5,0.5,13,0.0254,0.0124,-0.298,-0.145,0.99,0.119,1.43,0.371,0.03333333333333333,0.01,0,0,0,-0.1060272678732872,-0.0032961899414658546,-10.102453231811523,-0.27924594283103943,-0.061893440783023834,-0.028354842215776443
1576040152.6463616,694,354,76,76,1280,720,0.571875,0.5444444444444444,12.631578947368421,90,90.38162566397429,0.0,-3.0770074781667374,0.07187500000000002,0.07611528515526991,-0.016335950186009675,-0.36842105263157876,1225,1280,720,3.0,90.0,50.625,-12.894736842105257,0.22834585546580974,6.468750000000002,-0.049007850558029024,-12.894736842105257,0.22834585546580974,6.468750000000002,-0.049007850558029024,-0.3271691715796573,-0.06804680091346309,-0.07018142978110944,6.403895156250002,-3.0770074781667374,1.3624680996658665,90.38162566397429,False,0.5,0.5,13,0.0254,0.0124,-0.298,-0.145,0.99,0.119,1.43,0.371,0.03333333333333333,0.01,0,0,0,-0.1060272678732872,-0.0032961899414658546,-10.102453231811523,-0.27924594283103943,-0.061893440783023834,-0.028354842215776443
1576040152.6654851,689,351,76,75,1280,720,0.56796875,0.5395833333333333,12.71551062782442,90,90.51779231526767,0.0,-3.1887848045944653,0.06796875000000002,0.07372199794741857,-0.023405008485816628,-0.2844893721755799,1225,1280,720,3.0,90.0,50.625,-9.957128026145297,0.22116599384225571,6.117187500000002,-0.07021502545744988,-9.957128026145297,0.22116599384225571,6.117187500000002,-0.07021502545744988,-0.2529110518640905,-0.06591404755313804,-0.10043206085636351,6.0560156250000015,-3.1887848045944653,3.34228754321839,90.51779231526767,False,0.5,0.5,13,0.0254,0.0124,-0.298,-0.145,0.99,0.119,1.43,0.371,0.03333333333333333,0.01,0,0,0,-0.1060272678732872,-0.0032961899414658546,-10.102453231811523,-0.27924594283103943,-0.061893440783023834,-0.028354842215776443
1576040152.6945481,689,351,76,75,1280,720,0.56796875,0.5395833333333333,12.71551062782442,90,90.62243764354143,0.0,-3.2280075927900866,0.06796875000000002,0.07372199794741857,-0.023405008485816628,-0.2844893721755799,1225,1280,720,3.0,90.0,50.625,-9.957128026145297,0.22116599384225571,6.117187500000002,-0.07021502545744988,-9.957128026145297,0.22116599384225571,6.117187500000002,-0.07021502545744988,-0.2529110518640905,-0.06591404755313804,-0.10043206085636351,6.0560156250000015,-3.2280075927900866,4.259843416930267,90.62243764354143,False,0.5,0.5,13,0.0254,0.0124,-0.298,-0.145,0.99,0.119,1.43,0.371,0.03333333333333333,0.01,0,0,0,-0.1144966408610344,-0.004271443467587233,-10.100356101989746,-0.28125905990600586,-0.07038833200931549,0.11421166360378265
1576040152.7084787,683,354,75,76,1280,720,0.562890625,0.5444444444444444,12.71551062782442,90,90.62243764354143,0.0,-3.2280075927900866,0.06289062499999998,0.06980659881712699,-0.01931866849955731,-0.2844893721755799,1225,1280,720,3.0,90.0,50.625,-9.957128026145297,0.20941979645138098,5.660156249999998,-0.05795600549867193,-9.957128026145297,0.20941979645138098,5.660156249999998,-0.05795600549867193,-0.2529110518640905,-0.06238500949876152,-0.08282298369643419,5.603010820312498,-3.2280075927900866,4.259843416930267,90.62243764354143,False,0.5,0.5,13,0.0254,0.0124,-0.298,-0.145,0.99,0.119,1.43,0.371,0.03333333333333333,0.01,0,0,0,-0.1144966408610344,-0.004271443467587233,-10.100356101989746,-0.28125905990600586,-0.07038833200931549,0.11421166360378265
1576040152.729084,683,354,75,76,1280,720,0.562890625,0.5444444444444444,12.71551062782442,90,90.88692305877183,0.0,-3.2144656755434786,0.06289062499999998,0.07119745300511382,-0.018877278064860628,-0.2844893721755799,1225,1280,720,3.0,90.0,50.625,-9.957128026145297,0.21359235901534146,5.660156249999998,-0.056631834194581884,-9.957128026145297,0.21359235901534146,5.660156249999998,-0.056631834194581884,-0.2529110518640905,-0.0636565732022895,-0.08097861022271391,5.603554687499998,-3.2144656755434786,3.265508106097807,90.88692305877183,False,0.5,0.5,13,0.0254,0.0124,-0.298,-0.145,0.99,0.119,1.43,0.371,0.03333333333333333,0.01,0,0,0,-0.12189991027116776,-0.005273092538118362,-10.097317695617676,-0.3031259775161743,-0.0670936331152916,0.051907025277614594
1576040152.7420309,682,354,75,76,1280,720,0.562109375,0.5444444444444444,12.71551062782442,90,90.95591479957812,0.0,-3.237026644145677,0.06289062499999998,0.07351190055086802,-0.019496822600408484,-0.2844893721755799,1225,1280,720,3.0,90.0,50.625,-9.957128026145297,0.22053570165260405,5.660156249999998,-0.05849046780122545,-9.957128026145297,0.22053570165260405,5.660156249999998,-0.05849046780122545,-0.2529110518640905,-0.06572970693930004,-0.08364826448643303,5.603554687499998,-3.237026644145677,2.969538720444818,90.95591479957812,False,0.5,0.5,13,0.0254,0.0124,-0.298,-0.145,0.99,0.119,1.43,0.371,0.03333333333333333,0.01,0,0,0,-0.12189991027116776,-0.005273092538118362,-10.097317695617676,-0.3031259775161743,-0.0670936331152916,0.051907025277614594
1576040152.7511613,682,354,75,76,1280,720,0.562109375,0.5444444444444444,12.71551062782442,90,91.08449311070362,0.0,-3.256810287076619,0.06210937500000002,0.07273065055086807,-0.019496822600408484,-0.2844893721755799,1225,1280,720,3.0,90.0,50.625,-9.957128026145297,0.2181919516526042,5.589843750000002,-0.05849046780122545,-9.957128026145297,0.2181919516526042,5.589843750000002,-0.05849046780122545,-0.2529110518640905,-0.06501780315497604,-0.08364136895575239,5.533861640625002,-3.256810287076619,2.9577572844567808,91.08449311070362,False,0.5,0.5,13,0.0254,0.0124,-0.298,-0.145,0.99,0.119,1.43,0.371,0.03333333333333333,0.01,0,0,0,-0.13023072481155396,-0.0061327628791332245,-10.09860897064209,-0.3231426775455475,-0.05554845556616783,-0.159775510430336
1576040152.7669685,682,354,75,76,1280,720,0.562109375,0.5444444444444444,12.71551062782442,90,91.23679949900574,0.0,-3.1472384714205703,0.06210937500000002,0.07449860707203049,-0.01969957803077016,-0.2844893721755799,1225,1280,720,3.0,90.0,50.625,-9.957128026145297,0.22349582121609146,5.589843750000002,-0.05909873409231048,-9.957128026145297,0.22349582121609146,5.589843750000002,-0.05909873409231048,-0.2529110518640905,-0.06660944533326231,-0.08451344641994392,5.533945312500002,-3.1472384714205703,3.241215044210776,91.23679949900574,False,0.5,0.5,13,0.0254,0.0124,-0.298,-0.145,0.99,0.119,1.43,0.371,0.03333333333333333,0.01,0,0,0,-0.13023072481155396,-0.0061327628791332245,-10.09860897064209,-0.3231426775455475,-0.05554845556616783,-0.159775510430336
1576040152.7761543,670,358,76,76,1280,720,0.553125,0.55,12.631578947368421,90,91.29439848427646,0.0,-3.0838698972918963,0.05312499999999998,0.06686721665561933,-0.012167673509542086,-0.36842105263157876,1225,1280,720,3.0,90.0,50.625,-12.894736842105257,0.20060164996685798,4.781249999999998,-0.03650302052862626,-12.894736842105257,0.20060164996685798,4.781249999999998,-0.03650302052862626,-0.32789057928265253,-0.05974609514181228,-0.05211548925861428,4.732475273437498,-3.0838698972918963,2.9854767534296314,91.29439848427646,False,0.5,0.5,13,0.0254,0.0124,-0.298,-0.145,0.99,0.119,1.43,0.371,0.03333333333333333,0.01,0,0,0,-0.13023072481155396,-0.0061327628791332245,-10.09860897064209,-0.3231426775455475,-0.05554845556616783,-0.159775510430336
1576040152.7905076,670,358,76,76,1280,720,0.553125,0.55,12.631578947368421,90,91.37237192384131,0.0,-3.0220325661977743,0.05312499999999998,0.06750720538084949,-0.010915948588481855,-0.36842105263157876,1225,1280,720,3.0,90.0,50.625,-12.894736842105257,0.2025216161425485,4.781249999999998,-0.032747845765445566,-12.894736842105257,0.2025216161425485,4.781249999999998,-0.032747845765445566,-0.3275263157894735,-0.060354225561434195,-0.04681548774621576,4.733437499999998,-3.0220325661977743,2.024071278689684,91.37237192384131,False,0.5,0.5,13,0.0254,0.0124,-0.298,-0.145,0.99,0.119,1.43,0.371,0.03333333333333333,0.01,0,0,0,-0.1393502652645111,-0.006463958881795406,-10.106905937194824,-0.3429795205593109,-0.0453033484518528,-0.3482038676738739
1576040152.8059907,670,358,76,76,1280,720,0.553125,0.55,12.631578947368421,90,91.48178472415576,0.0,-3.044511785973344,0.05312499999999998,0.06887976984005899,-0.009620894127853594,-0.36842105263157876,1225,1280,720,3.0,90.0,50.625,-12.894736842105257,0.20663930952017695,4.781249999999998,-0.02886268238356078,-12.894736842105257,0.20663930952017695,4.781249999999998,-0.02886268238356078,-0.3275263157894735,-0.06158448489241029,-0.041259221852345124,4.733437499999998,-3.044511785973344,-0.5495756435568848,91.48178472415576,False,0.5,0.5,13,0.0254,0.0124,-0.298,-0.145,0.99,0.119,1.43,0.371,0.03333333333333333,0.01,0,0,0,-0.1393502652645111,-0.006463958881795406,-10.106905937194824,-0.3429795205593109,-0.0453033484518528,-0.3482038676738739
1576040152.8188035,654,356,75,76,1280,720,0.540234375,0.5472222222222223,12.71551062782442,90,91.50271242377268,0.0,-3.0491129855964054,0.05312499999999998,0.06958927471284174,-0.010138504414288235,-0.36842105263157876,1225,1280,720,3.0,90.0,50.625,-12.894736842105257,0.2087678241385252,4.781249999999998,-0.030415513242864706,-12.894736842105257,0.2087678241385252,4.781249999999998,-0.030415513242864706,-0.3275263157894735,-0.06221589793947711,-0.04349994493978454,4.733437499999998,-3.0491129855964054,-1.0893973500921683,91.50271242377268,False,0.5,0.5,13,0.0254,0.0124,-0.298,-0.145,0.99,0.119,1.43,0.371,0.03333333333333333,0.01,0,0,0,-0.14913402497768402,-0.006083370186388493,-10.118408203125,-0.34682872891426086,-0.047400329262018204,-0.34284135699272156
1576040152.827563,654,356,75,76,1280,720,0.540234375,0.5472222222222223,12.71551062782442,90,91.56202578652507,0.0,-3.012897615069705,0.040234375000000044,0.056931179708585355,-0.01300717008585487,-0.2844893721755799,1225,1280,720,3.0,90.0,50.625,-9.957128026145297,0.17079353912575607,3.621093750000004,-0.03902151025756461,-9.957128026145297,0.17079353912575607,3.621093750000004,-0.03902151025756461,-0.2525467883709115,-0.05084141194620679,-0.05583268791724193,3.583502226562504,-3.012897615069705,-2.6112867607411867,91.56202578652507,False,0.5,0.5,13,0.0254,0.0124,-0.298,-0.145,0.99,0.119,1.43,0.371,0.03333333333333333,0.01,0,0,0,-0.14913402497768402,-0.006083370186388493,-10.118408203125,-0.34682872891426086,-0.047400329262018204,-0.34284135699272156
1576040152.8448005,646,358,76,74,1280,720,0.534375,0.5486111111111112,12.801137929503959,90,91.59496778889203,0.0,-2.9503676601050617,0.034375000000000044,0.05209686432102265,-0.009667756248988822,-0.1988620704960411,1225,1280,720,3.0,90.0,50.625,-6.9601724673614385,0.15629059296306796,3.093750000000004,-0.029003268746966467,-6.9601724673614385,0.15629059296306796,3.093750000000004,-0.029003268746966467,-0.1764167581816913,-0.04655070061852532,-0.04144546864843352,3.0621849609375036,-2.9503676601050617,-3.4860053955260364,91.59496778889203,False,0.5,0.5,13,0.0254,0.0124,-0.298,-0.145,0.99,0.119,1.43,0.371,0.03333333333333333,0.01,0,0,0,-0.15884427726268768,-0.00604703975841403,-10.127389907836914,-0.33197227120399475,-0.05445443466305733,-0.2235478013753891
1576040152.853841,646,358,76,74,1280,720,0.534375,0.5486111111111112,12.801137929503959,90,91.70589689120222,0.0,-2.8117442751445987,0.034375000000000044,0.05332940990224688,-0.006929516546066099,-0.1988620704960411,1225,1280,720,3.0,90.0,50.625,-6.9601724673614385,0.15998822970674065,3.093750000000004,-0.020788549638198296,-6.9601724673614385,0.15998822970674065,3.093750000000004,-0.020788549638198296,-0.17678838067098052,-0.04768185402588703,-0.029697149374730034,3.0628125000000037,-2.8117442751445987,-5.208461496883481,91.70589689120222,False,0.5,0.5,13,0.0254,0.0124,-0.298,-0.145,0.99,0.119,1.43,0.371,0.03333333333333333,0.01,0,0,0,-0.15884427726268768,-0.00604703975841403,-10.127389907836914,-0.33197227120399475,-0.05445443466305733,-0.2235478013753891
1576040152.865707,646,358,76,74,1280,720,0.534375,0.5486111111111112,12.801137929503959,90,91.7299050061348,0.0,-2.837442221566537,0.034375000000000044,0.053596166734831155,-0.007437130302548826,-0.1988620704960411,1225,1280,720,3.0,90.0,50.625,-6.9601724673614385,0.16078850020449348,3.093750000000004,-0.02231139090764648,-6.9601724673614385,0.16078850020449348,3.093750000000004,-0.02231139090764648,-0.17678838067098052,-0.04791613345316079,-0.03191093873904412,3.0628125000000037,-2.837442221566537,-5.372227235065584,91.7299050061348,False,0.5,0.5,13,0.0254,0.0124,-0.298,-0.145,0.99,0.119,1.43,0.371,0.03333333333333333,0.01,0,0,0,-0.15884427726268768,-0.00604703975841403,-10.127389907836914,-0.33197227120399475,-0.05445443466305733,-0.2235478013753891
1576040152.8845315,644,362,74,74,1280,720,0.53203125,0.5541666666666667,12.972972972972972,90,91.9453086819895,0.0,-3.459871811101098,0.032031249999999956,0.05195281468872059,-0.004949240376218349,-0.027027027027028083,1225,1280,720,3.0,90.0,50.625,-0.9459459459459829,0.15585844406616176,2.882812499999996,-0.014847721128655046,-0.9459459459459829,0.15585844406616176,2.882812499999996,-0.014847721128655046,-0.02328126293837245,-0.046438667750315625,-0.021204550999096655,2.853733359374996,-3.459871811101098,-5.476530200107202,91.9453086819895,False,0.5,0.5,13,0.0254,0.0124,-0.298,-0.145,0.99,0.119,1.43,0.371,0.03333333333333333,0.01,0,0,0,-0.17027407884597778,-0.00662615243345499,-10.132347106933594,-0.3041929602622986,-0.06815361976623535,-0.04605018347501755
1576040152.8890479,644,362,74,74,1280,720,0.53203125,0.5541666666666667,12.972972972972972,90,91.9453086819895,0.0,-3.459871811101098,0.032031249999999956,0.05195281468872059,-0.004949240376218349,-0.027027027027028083,1225,1280,720,3.0,90.0,50.625,-0.9459459459459829,0.15585844406616176,2.882812499999996,-0.014847721128655046,-0.9459459459459829,0.15585844406616176,2.882812499999996,-0.014847721128655046,-0.02328126293837245,-0.046438667750315625,-0.021204550999096655,2.853733359374996,-3.459871811101098,-5.476530200107202,91.9453086819895,False,0.5,0.5,13,0.0254,0.0124,-0.298,-0.145,0.99,0.119,1.43,0.371,0.03333333333333333,0.01,0,0,0,-0.17027407884597778,-0.00662615243345499,-10.132347106933594,-0.3041929602622986,-0.06815361976623535,-0.04605018347501755
1576040152.9151871,644,362,74,74,1280,720,0.53203125,0.5541666666666667,12.972972972972972,90,92.08774544694094,0.0,-3.9006002260233377,0.032031249999999956,0.05447330627443685,-0.01895496066977878,-0.027027027027028083,1225,1280,720,3.0,90.0,50.625,-0.9459459459459829,0.16341991882331053,2.882812499999996,-0.05686488200933634,-0.9459459459459829,0.16341991882331053,2.882812499999996,-0.05686488200933634,-0.024027027027027966,-0.048710099947744404,-0.08147266494021829,2.853984374999996,-3.9006002260233377,-5.064559656355067,92.08774544694094,False,0.5,0.5,13,0.0254,0.0124,-0.298,-0.145,0.99,0.119,1.43,0.371,0.03333333333333333,0.01,0,0,0,-0.17663201689720154,-0.007296341005712748,-10.132177352905273,-0.2840176224708557,-0.07111015170812607,0.027142301201820374
1576040152.9305325,642,364,76,76,1280,720,0.53125,0.5583333333333333,12.631578947368421,90,92.23146628745636,0.0,-4.127659619696656,0.03125,0.05604406986062618,-0.023200683845859854,-0.36842105263157876,1225,1280,720,3.0,90.0,50.625,-12.894736842105257,0.16813220958187855,2.8125,-0.06960205153757956,-12.894736842105257,0.16813220958187855,2.8125,-0.06960205153757956,-0.3290079658605973,-0.05010263343148525,-0.0994942927319567,2.7842913281249997,-4.127659619696656,-4.993464217284404,92.23146628745636,False,0.5,0.5,13,0.0254,0.0124,-0.298,-0.145,0.99,0.119,1.43,0.371,0.03333333333333333,0.01,0,0,0,-0.17663201689720154,-0.007296341005712748,-10.132177352905273,-0.2840176224708557,-0.07111015170812607,0.027142301201820374
1576040152.944389,642,364,76,76,1280,720,0.53125,0.5583333333333333,12.631578947368421,90,92.33494365338204,0.0,-4.075812507480736,0.03125,0.0565469994565114,-0.023146025467835132,-0.36842105263157876,1225,1280,720,3.0,90.0,50.625,-12.894736842105257,0.1696409983695342,2.8125,-0.0694380764035054,-12.894736842105257,0.1696409983695342,2.8125,-0.0694380764035054,-0.3275263157894735,-0.05055520525786329,-0.0992958409092653,2.784375,-4.075812507480736,-6.210238512260081,92.33494365338204,False,0.5,0.5,13,0.0254,0.0124,-0.298,-0.145,0.99,0.119,1.43,0.371,0.03333333333333333,0.01,0,0,0,-0.18439869582653046,-0.008256886154413223,-10.130417823791504,-0.25283193588256836,-0.06500851362943649,0.03449869528412819
1576040152.952141,636,366,76,76,1280,720,0.5265625,0.5611111111111111,12.631578947368421,90,92.38785029869297,0.0,-4.048100295583878,0.03125,0.057193818370911566,-0.022176543357644143,-0.36842105263157876,1225,1280,720,3.0,90.0,50.625,-12.894736842105257,0.1715814551127347,2.8125,-0.06652963007293243,-12.894736842105257,0.1715814551127347,2.8125,-0.06652963007293243,-0.3275263157894735,-0.05113408728587258,-0.09512658066840694,2.784375,-4.048100295583878,-7.140041555484026,92.38785029869297,False,0.5,0.5,13,0.0254,0.0124,-0.298,-0.145,0.99,0.119,1.43,0.371,0.03333333333333333,0.01,0,0,0,-0.18439869582653046,-0.008256886154413223,-10.130417823791504,-0.25283193588256836,-0.06500851362943649,0.03449869528412819
1576040152.9683104,636,366,76,76,1280,720,0.5265625,0.5611111111111111,12.631578947368421,90,92.42075131992492,0.0,-4.070430745301589,0.026562500000000044,0.053459736888054686,-0.019292459166451142,-0.36842105263157876,1225,1280,720,3.0,90.0,50.625,-12.894736842105257,0.16037921066416405,2.390625000000004,-0.05787737749935343,-12.894736842105257,0.16037921066416405,2.390625000000004,-0.05787737749935343,-0.3275263157894735,-0.04777676152347046,-0.08273254996702742,2.366216718750004,-4.070430745301589,-7.4633391683364705,92.42075131992492,False,0.5,0.5,13,0.0254,0.0124,-0.298,-0.145,0.99,0.119,1.43,0.371,0.03333333333333333,0.01,0,0,0,-0.18439869582653046,-0.008256886154413223,-10.130417823791504,-0.25283193588256836,-0.06500851362943649,0.03449869528412819
1576040152.980678,636,366,76,76,1280,720,0.5265625,0.5611111111111111,12.631578947368421,90,92.46818698371065,0.0,-4.151419286498192,0.026562500000000044,0.053459736888054686,-0.019292459166451142,-0.36842105263157876,1225,1280,720,3.0,90.0,50.625,-12.894736842105257,0.16037921066416405,2.390625000000004,-0.05787737749935343,-12.894736842105257,0.16037921066416405,2.390625000000004,-0.05787737749935343,-0.3275263157894735,-0.04777676152347046,-0.08273254996702742,2.366216718750004,-4.151419286498192,-7.134796823975102,92.46818698371065,False,0.5,0.5,13,0.0254,0.0124,-0.298,-0.145,0.99,0.119,1.43,0.371,0.03333333333333333,0.01,0,0,0,-0.19207458198070526,-0.008877299726009369,-10.131050109863281,-0.17221073806285858,-0.0432303212583065,-0.1614243984222412
1576040152.9894025,636,366,76,76,1280,720,0.5265625,0.5611111111111111,12.631578947368421,90,92.48746177754843,0.0,-4.191922735163191,0.026562500000000044,0.05398679981900729,-0.020892232819717374,-0.36842105263157876,1225,1280,720,3.0,90.0,50.625,-12.894736842105257,0.16196039945702187,2.390625000000004,-0.06267669845915212,-12.894736842105257,0.16196039945702187,2.390625000000004,-0.06267669845915212,-0.3275263157894735,-0.04826649176194216,-0.08964548427734839,2.366718750000004,-4.191922735163191,-5.60717165524886,92.48746177754843,False,0.5,0.5,13,0.0254,0.0124,-0.298,-0.145,0.99,0.119,1.43,0.371,0.03333333333333333,0.01,0,0,0,-0.19207458198070526,-0.008877299726009369,-10.131050109863281,-0.17221073806285858,-0.0432303212583065,-0.1614243984222412
1576040153.0015533,636,366,76,76,1280,720,0.5265625,0.5611111111111111,12.631578947368421,90,92.48286506023702,0.0,-4.158806989859207,0.026562500000000044,0.054149889558189127,-0.021038162762650997,-0.36842105263157876,1225,1280,720,3.0,90.0,50.625,-12.894736842105257,0.1624496686745674,2.390625000000004,-0.06311448828795299,-12.894736842105257,0.1624496686745674,2.390625000000004,-0.06311448828795299,-0.3275263157894735,-0.04841071070538652,-0.09025534245203763,2.366718750000004,-4.158806989859207,-4.129198546694025,92.48286506023702,False,0.5,0.5,13,0.0254,0.0124,-0.298,-0.145,0.99,0.119,1.43,0.371,0.03333333333333333,0.01,0,0,0,-0.19207458198070526,-0.008877299726009369,-10.131050109863281,-0.17221073806285858,-0.0432303212583065,-0.1614243984222412
1576040153.0180027,636,366,76,76,1280,720,0.5265625,0.5611111111111111,12.631578947368421,90,92.45340645434675,0.0,-3.8198605598446167,0.026562500000000044,0.05382257171496391,-0.014342924638906004,-0.36842105263157876,1225,1280,720,3.0,90.0,50.625,-12.894736842105257,0.16146771514489172,2.390625000000004,-0.04302877391671801,-12.894736842105257,0.16146771514489172,2.390625000000004,-0.04302877391671801,-0.3275263157894735,-0.0481159552805597,-0.061456628700589475,2.366718750000004,-3.8198605598446167,-0.8548929435018298,92.45340645434675,False,0.5,0.5,13,0.0254,0.0124,-0.298,-0.145,0.99,0.119,1.43,0.371,0.03333333333333333,0.01,0,0,0,-0.1957395225763321,-0.008105918765068054,-10.138071060180664,-0.12717756628990173,-0.024007698521018028,-0.36479926109313965
