time,x_bb,y_bb,w_bb,h_bb,w_im,h_im,f_u,f_v,f_delta,psi_telem_ref,psi_telem,theta_centroid_ref,theta_centroid,delta_f_u_psi,delta_f_u_y,delta_f_v_z,delta_f_delta_x,A_exp,alpha_u,alpha_v,d_exp,FOV_u,FOV_v,delta_x_tme,delta_y_tme,delta_psi_tme,delta_z_tme,prev_delta_x_tme,prev_delta_y_tme,prev_delta_psi_tme,prev_delta_z_tme,v_xr,v_yr,v_zr,yawrate,pitch_angle,roll_angle,yaw_angle,got_initial_frame,f_u_ref,f_v_ref,f_delta_ref,kp_vx,kd_vx,kp_vy,kd_vy,kp_yaw,kd_yaw,kp_vz,kd_vz,camera_period,controller_period,local_x,local_y,local_z,local_vx,local_vy,local_vz,body_vx,body_vy,body_vz,body_yawrate
1576103103.183948,660,368,82,82,1280,720,0.54765625,0.5680555555555555,11.707317073170731,90,87.12252576942184,0.0,-3.3691455545821727,0.047656249999999956,0.047656249999999956,0.0014792141774101902,-5.2926829268292686,1225,100,100,1,90.0,50.625,-19.296239837398375,0.6099999999999994,4.2890624999999964,0.01065034207735337,-19.296239837398375,0.6099999999999994,4.2890624999999964,0.01065034207735337,-0.4901244918699187,0.18177999999999983,0.007773113479082468,8.535234374999993,-3.3691455545821727,-0.9242038889301208,87.12252576942184,False,0.5,0.5,17,0.0254,0.0124,0.298,0.145,1.99,0.119,0.73,0.171,0.03333333333333333,0.01,-0.0494433268904686,0.14435692131519318,-10.044197082519531,0.042483244091272354,-0.15483428537845612,0.03541169315576553,-0.150161702840212,-0.05091063235427808,0.04349759168907296,-0.296133043388805
1576103103.197769,660,368,82,82,1280,720,0.54765625,0.5680555555555555,11.707317073170731,90,87.1250870903606,0.0,-3.3706759438430787,0.047656249999999956,0.047656249999999956,0.001504532255166946,-5.2926829268292686,1225,100,100,1,90.0,50.625,-19.296239837398375,0.6099999999999994,4.2890624999999964,0.010832632237202012,-19.296239837398375,0.6099999999999994,4.2890624999999964,0.010832632237202012,-0.4901244918699187,0.18177999999999983,0.007908133249330809,8.535234374999993,-3.3706759438430787,-0.9336582581235936,87.1250870903606,False,0.5,0.5,17,0.0254,0.0124,0.298,0.145,1.99,0.119,0.73,0.171,0.03333333333333333,0.01,-0.0494433268904686,0.14435692131519318,-10.044197082519531,0.042483244091272354,-0.15483428537845612,0.03541169315576553,-0.150161702840212,-0.05091063235427808,0.04349759168907296,-0.32909164098102545
1576103103.2135854,662,369,82,81,1280,720,0.54921875,0.56875,11.779362781316964,90,87.1327164116635,0.0,-3.384731405937907,0.04921874999999998,0.04921874999999998,0.0018911080308561395,-5.220637218683036,1225,100,100,1,90.0,50.625,-19.033573193115238,0.6299999999999998,4.429687499999998,0.013615977822164204,-19.033573193115238,0.6299999999999998,4.429687499999998,0.013615977822164204,-0.4834201884412359,0.18776899999999994,0.009945696825365054,8.815245468749996,-3.384731405937907,-0.915799447878126,87.1327164116635,False,0.5,0.5,17,0.0254,0.0124,0.298,0.145,1.99,0.119,0.73,0.171,0.03333333333333333,0.01,-0.0494433268904686,0.14435692131519318,-10.044197082519531,0.042483244091272354,-0.15483428537845612,0.03541169315576553,-0.150161702840212,-0.05091063235427808,0.04349759168907296,-0.30004951654757256
1576103103.2247274,662,369,82,81,1280,720,0.54921875,0.56875,11.779362781316964,90,87.13462203444193,0.0,-3.390379332051273,0.04921874999999998,0.04921874999999998,0.0017795440582464433,-5.220637218683036,1225,100,100,1,90.0,50.625,-19.033573193115238,0.6299999999999998,4.429687499999998,0.012812717219374393,-19.033573193115238,0.6299999999999998,4.429687499999998,0.012812717219374393,-0.48345275910512703,0.18773999999999993,0.009351909994512535,8.815078124999996,-3.390379332051273,-0.909162211552166,87.13462203444193,False,0.5,0.5,17,0.0254,0.0124,0.298,0.145,1.99,0.119,0.73,0.171,0.03333333333333333,0.01,-0.0479552261531353,0.14068961143493652,-10.044660568237305,0.040336381644010544,-0.15222226083278656,0.0360630564391613,-0.1476230979818558,-0.048611278097090246,0.0440857006399701,-0.24154899966726626
1576103103.2366767,663,370,81,80,1280,720,0.549609375,0.5694444444444444,11.925695879998878,90,87.13563290243908,0.0,-3.3844846653541403,0.049609374999999956,0.049609374999999956,0.0025904263633749758,-5.074304120001122,1225,100,100,1,90.0,50.625,-18.500067104170757,0.6349999999999995,4.4648437499999964,0.018651069816299826,-18.500067104170757,0.6349999999999995,4.4648437499999964,0.018651069816299826,-0.46983554969090807,0.18923724999999983,0.013625264548839614,8.885080898437494,-3.3844846653541403,-0.8983302785804663,87.13563290243908,False,0.5,0.5,17,0.0254,0.0124,0.298,0.145,1.99,0.119,0.73,0.171,0.03333333333333333,0.01,-0.0479552261531353,0.14068961143493652,-10.044660568237305,0.040336381644010544,-0.15222226083278656,0.0360630564391613,-0.1476230979818558,-0.048611278097090246,0.0440857006399701,-0.4660473925669477
1576103103.2457297,663,370,81,80,1280,720,0.549609375,0.5694444444444444,11.925695879998878,90,87.13170554366633,0.0,-3.26333567905492,0.049609374999999956,0.049609374999999956,0.004983492759408958,-5.074304120001122,1225,100,100,1,90.0,50.625,-18.500067104170757,0.6349999999999995,4.4648437499999964,0.0358811478677445,-18.500067104170757,0.6349999999999995,4.4648437499999964,0.0358811478677445,-0.4699017044459372,0.18922999999999984,0.026222701376921457,8.885039062499994,-3.26333567905492,-0.8367511606534824,87.13170554366633,False,0.5,0.5,17,0.0254,0.0124,0.298,0.145,1.99,0.119,0.73,0.171,0.03333333333333333,0.01,-0.04648629203438759,0.13685573637485504,-10.045405387878418,0.03949253633618355,-0.14640286564826965,-0.0034094485454261303,-0.14420342040001397,-0.046834313840875254,0.004123642523936343,-0.6808763720360067
1576103103.2576694,663,370,81,80,1280,720,0.549609375,0.5694444444444444,11.925695879998878,90,87.11975954280798,0.0,-2.941577420086667,0.049609374999999956,0.049609374999999956,0.011339211455078158,-5.074304120001122,1225,100,100,1,90.0,50.625,-18.500067104170757,0.6349999999999995,4.4648437499999964,0.08164232247656274,-18.500067104170757,0.6349999999999995,4.4648437499999964,0.08164232247656274,-0.4699017044459372,0.18922999999999984,0.05967714701647187,8.885039062499994,-2.941577420086667,-0.6601377299208795,87.11975954280798,False,0.5,0.5,17,0.0254,0.0124,0.298,0.145,1.99,0.119,0.73,0.171,0.03333333333333333,0.01,-0.04648629203438759,0.13685573637485504,-10.045405387878418,0.03949253633618355,-0.14640286564826965,-0.0034094485454261303,-0.14420342040001397,-0.046834313840875254,0.004123642523936343,-1.2544142935528533
1576103103.2761116,664,370,81,80,1280,720,0.550390625,0.5694444444444444,11.925695879998878,90,87.07943410594822,0.0,-1.1953318765717735,0.049609374999999956,0.049609374999999956,0.04583295058623654,-5.074304120001122,1225,100,100,1,90.0,50.625,-18.500067104170757,0.6349999999999995,4.4648437499999964,0.3299972442209031,-18.500067104170757,0.6349999999999995,4.4648437499999964,0.3299972442209031,-0.4699017044459372,0.18922999999999984,0.24132267519744208,8.885039062499994,-1.1953318765717735,0.4191297025802194,87.07943410594822,False,0.5,0.5,17,0.0254,0.0124,0.298,0.145,1.99,0.119,0.73,0.171,0.03333333333333333,0.01,-0.04648629203438759,0.13685573637485504,-10.045405387878418,0.03949253633618355,-0.14640286564826965,-0.0034094485454261303,-0.14420342040001397,-0.046834313840875254,0.004123642523936343,-2.6015708166468436
1576103103.285407,664,370,81,80,1280,720,0.550390625,0.5694444444444444,11.925695879998878,90,87.09077905015961,0.0,0.21229983512459735,0.05039062500000002,0.05039062500000002,0.07363802143455993,-5.074304120001122,1225,100,100,1,90.0,50.625,-18.500067104170757,0.6450000000000004,4.535156250000002,0.5301937543288315,-18.500067104170757,0.6450000000000004,4.535156250000002,0.5301937543288315,-0.4699017044459372,0.1922245000000001,0.3873837766923316,9.025044609375003,0.21229983512459735,1.352562404378644,87.09077905015961,False,0.5,0.5,17,0.0254,0.0124,0.298,0.145,1.99,0.119,0.73,0.171,0.03333333333333333,0.01,-0.04510330781340599,0.13519300520420074,-10.048933029174805,0.032840829342603683,-0.14533954858779907,-0.09443715959787369,-0.14313453754682126,-0.042405499587255216,-0.09399340048398296,-1.6845410809444692
1576103103.2981808,664,370,81,80,1280,720,0.550390625,0.5694444444444444,11.925695879998878,90,87.12727275089499,0.0,1.489967561067612,0.05039062500000002,0.05039062500000002,0.0988759024408417,-5.074304120001122,1225,100,100,1,90.0,50.625,-18.500067104170757,0.6450000000000004,4.535156250000002,0.7119064975740602,-18.500067104170757,0.6450000000000004,4.535156250000002,0.7119064975740602,-0.4699017044459372,0.1922100000000001,0.5200024720200133,9.024960937500003,1.489967561067612,2.224566572576942,87.12727275089499,False,0.5,0.5,17,0.0254,0.0124,0.298,0.145,1.99,0.119,0.73,0.171,0.03333333333333333,0.01,-0.04510330781340599,0.13519300520420074,-10.048933029174805,0.032840829342603683,-0.14533954858779907,-0.09443715959787369,-0.14313453754682126,-0.042405499587255216,-0.09399340048398296,-0.773065783141196
1576103103.313836,664,369,82,81,1280,720,0.55078125,0.56875,11.779362781316964,90,87.16742060283633,0.0,2.5763104292186094,0.05078125,0.05078125,0.11964008255246633,-5.220637218683036,1225,100,100,1,90.0,50.625,-19.033573193115238,0.65,4.5703125,0.8614085943777576,-19.033573193115238,0.65,4.5703125,0.8614085943777576,-0.48351891386015616,0.19370725,0.6290839224812973,9.0949637109375,2.5763104292186094,3.0081087986878803,87.16742060283633,False,0.5,0.5,17,0.0254,0.0124,0.298,0.145,1.99,0.119,0.73,0.171,0.03333333333333333,0.01,-0.04510330781340599,0.13519300520420074,-10.048933029174805,0.032840829342603683,-0.14533954858779907,-0.09443715959787369,-0.14313453754682126,-0.042405499587255216,-0.09399340048398296,-1.186609831723373
1576103103.3171177,664,369,82,81,1280,720,0.55078125,0.56875,11.779362781316964,90,87.16742060283633,0.0,2.5763104292186094,0.05078125,0.05078125,0.11964008255246633,-5.220637218683036,1225,100,100,1,90.0,50.625,-19.033573193115238,0.65,4.5703125,0.8614085943777576,-19.033573193115238,0.65,4.5703125,0.8614085943777576,-0.48351891386015616,0.19370725,0.6290839224812973,9.0949637109375,2.5763104292186094,3.0081087986878803,87.16742060283633,False,0.5,0.5,17,0.0254,0.0124,0.298,0.145,1.99,0.119,0.73,0.171,0.03333333333333333,0.01,-0.044158440083265305,0.13268177211284637,-10.055110931396484,0.011021679267287254,-0.17224939167499542,-0.1543828845024109,-0.16438142887557203,-0.027991420746332187,-0.16068799450795548,-1.186609831723373
1576103103.328851,664,369,82,81,1280,720,0.55078125,0.56875,11.779362781316964,90,87.17392294292618,0.0,2.9487811352269144,0.05078125,0.05078125,0.12699752859707483,-5.220637218683036,1225,100,100,1,90.0,50.625,-19.033573193115238,0.65,4.5703125,0.9143822058989388,-19.033573193115238,0.65,4.5703125,0.9143822058989388,-0.48345275910512703,0.1937,0.6675895951819265,9.094921875,2.9487811352269144,3.312641320569361,87.17392294292618,False,0.5,0.5,17,0.0254,0.0124,0.298,0.145,1.99,0.119,0.73,0.171,0.03333333333333333,0.01,-0.044158440083265305,0.13268177211284637,-10.055110931396484,0.011021679267287254,-0.17224939167499542,-0.1543828845024109,-0.16438142887557203,-0.027991420746332187,-0.16068799450795548,-1.7370604331851072
1576103103.3468156,664,369,82,81,1280,720,0.55078125,0.56875,11.779362781316964,90,87.18978264217895,0.0,3.2574004581095903,0.05078125,0.05078125,0.133093712752782,-5.220637218683036,1225,100,100,1,90.0,50.625,-19.033573193115238,0.65,4.5703125,0.9582747318200304,-19.033573193115238,0.65,4.5703125,0.9582747318200304,-0.48345275910512703,0.1937,0.6995600148172657,9.094921875,3.2574004581095903,3.518294474497037,87.18978264217895,False,0.5,0.5,17,0.0254,0.0124,0.298,0.145,1.99,0.119,0.73,0.171,0.03333333333333333,0.01,-0.044158440083265305,0.13268177211284637,-10.055110931396484,0.011021679267287254,-0.17224939167499542,-0.1543828845024109,-0.16438142887557203,-0.027991420746332187,-0.16068799450795548,-0.38045882568604683
1576103103.3542473,666,369,80,81,1280,720,0.5515625,0.56875,11.925695879998878,90,87.21189879471144,0.0,3.61859793689279,0.05078125,0.05078125,0.133093712752782,-5.220637218683036,1225,100,100,1,90.0,50.625,-19.033573193115238,0.65,4.5703125,0.9582747318200304,-19.033573193115238,0.65,4.5703125,0.9582747318200304,-0.48345275910512703,0.1937,0.6995600148172657,9.094921875,3.61859793689279,3.621444418229393,87.21189879471144,False,0.5,0.5,17,0.0254,0.0124,0.298,0.145,1.99,0.119,0.73,0.171,0.03333333333333333,0.01,-0.04393300786614418,0.1288595348596573,-10.060807228088379,-0.009671288542449474,-0.19826413691043854,-0.06226181238889694,-0.19464133630187094,-0.0045675284060189515,-0.0732981785295161,-0.4217253879082358
1576103103.3663905,666,369,80,81,1280,720,0.5515625,0.56875,11.925695879998878,90,87.2219323426022,0.0,3.769482365187072,0.051562499999999956,0.051562499999999956,0.14320891091727547,-5.074304120001122,1225,100,100,1,90.0,50.625,-18.500067104170757,0.6599999999999995,4.6406249999999964,1.0311041586043834,-18.500067104170757,0.6599999999999995,4.6406249999999964,1.0311041586043834,-0.46983554969090807,0.19669449999999983,0.7528305741010011,9.234927421874993,3.769482365187072,3.6614808527098917,87.2219323426022,False,0.5,0.5,17,0.0254,0.0124,0.298,0.145,1.99,0.119,0.73,0.171,0.03333333333333333,0.01,-0.04393300786614418,0.1288595348596573,-10.060807228088379,-0.009671288542449474,-0.19826413691043854,-0.06226181238889694,-0.19464133630187094,-0.0045675284060189515,-0.0732981785295161,-0.528388983720887
1576103103.3885944,666,370,80,80,1280,720,0.5515625,0.5694444444444444,12.0,90,87.29797283863195,0.0,4.685684367339405,0.051562499999999956,0.051562499999999956,0.16130672824374132,-5.074304120001122,1225,100,100,1,90.0,50.625,-18.500067104170757,0.6599999999999995,4.6406249999999964,1.1614084433549374,-18.500067104170757,0.6599999999999995,4.6406249999999964,1.1614084433549374,-0.4699017044459372,0.19667999999999983,0.847923606002347,9.234843749999992,4.685684367339405,3.9598602279228374,87.29797283863195,False,0.5,0.5,17,0.0254,0.0124,0.298,0.145,1.99,0.119,0.73,0.171,0.03333333333333333,0.01,-0.04420057684183121,0.12393420189619064,-10.06169605255127,-0.023696942254900932,-0.22161583602428436,0.11899641156196594,-0.2314637296361128,0.020126692479128867,0.09927098229790232,0.35121633124998924
1576103103.3997471,666,370,80,80,1280,720,0.5515625,0.5694444444444444,12.0,90,87.39021454337298,0.0,5.486061729093955,0.051562499999999956,0.051562499999999956,0.16200117268818576,-5.0,1225,100,100,1,90.0,50.625,-18.229166666666668,0.6599999999999995,4.6406249999999964,1.1664084433549375,-18.229166666666668,0.6599999999999995,4.6406249999999964,1.1664084433549375,-0.46298724167908284,0.19667999999999983,0.8514867136491043,9.234843749999992,5.486061729093955,4.330741207401823,87.39021454337298,False,0.5,0.5,17,0.0254,0.0124,0.298,0.145,1.99,0.119,0.73,0.171,0.03333333333333333,0.01,-0.04420057684183121,0.12393420189619064,-10.06169605255127,-0.023696942254900932,-0.22161583602428436,0.11899641156196594,-0.2314637296361128,0.020126692479128867,0.09927098229790232,1.6595778067451303
1576103103.4100573,666,370,80,80,1280,720,0.5515625,0.5694444444444444,12.0,90,87.44466481143631,0.0,5.862193843384211,0.051562499999999956,0.051562499999999956,0.18524086604215723,-5.0,1225,100,100,1,90.0,50.625,-18.229166666666668,0.6599999999999995,4.6406249999999964,1.333734235503532,-18.229166666666668,0.6599999999999995,4.6406249999999964,1.333734235503532,-0.4630208333333333,0.19667999999999983,0.9739121190221525,9.234843749999992,5.862193843384211,4.54615512854027,87.44466481143631,False,0.5,0.5,17,0.0254,0.0124,0.298,0.145,1.99,0.119,0.73,0.171,0.03333333333333333,0.01,-0.04420057684183121,0.12393420189619064,-10.06169605255127,-0.023696942254900932,-0.22161583602428436,0.11899641156196594,-0.2314637296361128,0.020126692479128867,0.09927098229790232,2.3080771611245727
1576103103.426882,668,369,80,81,1280,720,0.553125,0.56875,11.925695879998878,90,87.5917597654017,0.0,6.637682849576881,0.05312499999999998,0.05312499999999998,0.19436419453701528,-5.074304120001122,1225,100,100,1,90.0,50.625,-18.500067104170757,0.6799999999999997,4.781249999999998,1.39942220066651,-18.500067104170757,0.6799999999999997,4.781249999999998,1.39942220066651,-0.4699352961001877,0.2026689999999999,1.0216905329069812,9.514854843749998,6.637682849576881,5.109766544037266,87.5917597654017,False,0.5,0.5,17,0.0254,0.0124,0.298,0.145,1.99,0.119,0.73,0.171,0.03333333333333333,0.01,-0.044919345527887344,0.1179375872015953,-10.056342124938965,-0.03945035859942436,-0.24672335386276245,0.316936194896698,-0.28177137899811344,0.05316174127405785,0.2840000264308482,3.7427054623196834
1576103103.4444697,668,369,80,81,1280,720,0.553125,0.56875,11.925695879998878,90,87.75025430509186,0.0,7.134583380563539,0.05312499999999998,0.05312499999999998,0.20640201506187655,-5.074304120001122,1225,100,100,1,90.0,50.625,-18.500067104170757,0.6799999999999997,4.781249999999998,1.4860945084455113,-18.500067104170757,0.6799999999999997,4.781249999999998,1.4860945084455113,-0.4699017044459372,0.2026399999999999,1.0849972008115254,9.514687499999997,7.134583380563539,5.644549865481754,87.75025430509186,False,0.5,0.5,17,0.0254,0.0124,0.298,0.145,1.99,0.119,0.73,0.171,0.03333333333333333,0.01,-0.044919345527887344,0.1179375872015953,-10.056342124938965,-0.03945035859942436,-0.24672335386276245,0.316936194896698,-0.28177137899811344,0.05316174127405785,0.2840000264308482,5.21237818348566
1576103103.4501889,668,369,80,81,1280,720,0.553125,0.56875,11.925695879998878,90,87.75025430509186,0.0,7.134583380563539,0.05312499999999998,0.05312499999999998,0.2096800420852057,-5.074304120001122,1225,100,100,1,90.0,50.625,-18.500067104170757,0.6799999999999997,4.781249999999998,1.509696303013481,-18.500067104170757,0.6799999999999997,4.781249999999998,1.509696303013481,-0.4699017044459372,0.2026399999999999,1.1021186602685522,9.514687499999997,7.134583380563539,5.644549865481754,87.75025430509186,False,0.5,0.5,17,0.0254,0.0124,0.298,0.145,1.99,0.119,0.73,0.171,0.03333333333333333,0.01,-0.04613975062966347,0.11080051958560944,-10.044546127319336,-0.055797357112169266,-0.27528929710388184,0.5215778946876526,-0.3399008071582004,0.09224620547380204,0.47633929216089793,5.21237818348566
1576103103.4615924,668,369,80,81,1280,720,0.553125,0.56875,11.925695879998878,90,87.90996461845427,0.0,7.3989646354091,0.05312499999999998,0.05312499999999998,0.2122481088898074,-5.074304120001122,1225,100,100,1,90.0,50.625,-18.500067104170757,0.6799999999999997,4.781249999999998,1.5281863840066134,-18.500067104170757,0.6799999999999997,4.781249999999998,1.5281863840066134,-0.4699017044459372,0.2026399999999999,1.115607678363326,9.514687499999997,7.3989646354091,6.1378786344193195,87.90996461845427,False,0.5,0.5,17,0.0254,0.0124,0.298,0.145,1.99,0.119,0.73,0.171,0.03333333333333333,0.01,-0.04613975062966347,0.11080051958560944,-10.044546127319336,-0.055797357112169266,-0.27528929710388184,0.5215778946876526,-0.3399008071582004,0.09224620547380204,0.47633929216089793,6.187993866793819
1576103103.477708,668,369,80,81,1280,720,0.553125,0.56875,11.925695879998878,90,88.00840813496166,0.0,7.483561650921586,0.05312499999999998,0.05312499999999998,0.21490238785993282,-5.074304120001122,1225,100,100,1,90.0,50.625,-18.500067104170757,0.6799999999999997,4.781249999999998,1.5472971925915164,-18.500067104170757,0.6799999999999997,4.781249999999998,1.5472971925915164,-0.4699017044459372,0.2026399999999999,1.1295596300744872,9.514687499999997,7.483561650921586,6.411929302695503,88.00840813496166,False,0.5,0.5,17,0.0254,0.0124,0.298,0.145,1.99,0.119,0.73,0.171,0.03333333333333333,0.01,-0.04613975062966347,0.11080051958560944,-10.044546127319336,-0.055797357112169266,-0.27528929710388184,0.5215778946876526,-0.3399008071582004,0.09224620547380204,0.47633929216089793,6.833219639570121
1576103103.4836733,670,368,80,82,1280,720,0.5546875,0.5680555555555555,11.852755159795075,90,88.07746817765965,0.0,7.524305436868004,0.05312499999999998,0.05312499999999998,0.21657344001820414,-5.074304120001122,1225,100,100,1,90.0,50.625,-18.500067104170757,0.6799999999999997,4.781249999999998,1.55932876813107,-18.500067104170757,0.6799999999999997,4.781249999999998,1.55932876813107,-0.4699017044459372,0.2026399999999999,1.1383305747298536,9.514687499999997,7.524305436868004,6.583881876371513,88.07746817765965,False,0.5,0.5,17,0.0254,0.0124,0.298,0.145,1.99,0.119,0.73,0.171,0.03333333333333333,0.01,-0.04832562431693077,0.1021975725889206,-10.02016830444336,-0.07656662166118622,-0.30926939845085144,0.7866255640983582,-0.4119864406991046,0.1504485656581778,0.7265825405522066,7.194644649030046
1576103103.4943686,670,368,80,82,1280,720,0.5546875,0.5680555555555555,11.852755159795075,90,88.17953169442715,0.0,7.567539680540539,0.0546875,0.0546875,0.21668381109862722,-5.147244840204925,1225,100,100,1,90.0,50.625,-18.765996813247124,0.7000000000000001,4.921875,1.560123439910116,-18.765996813247124,0.7000000000000001,4.921875,1.560123439910116,-0.4766892943404024,0.208629,1.138891470023127,9.79469859375,7.567539680540539,6.831619667757045,88.17953169442715,False,0.5,0.5,17,0.0254,0.0124,0.298,0.145,1.99,0.119,0.73,0.171,0.03333333333333333,0.01,-0.04832562431693077,0.1021975725889206,-10.02016830444336,-0.07656662166118622,-0.30926939845085144,0.7866255640983582,-0.4119864406991046,0.1504485656581778,0.7265825405522066,7.478394612814471
1576103103.505973,670,368,80,82,1280,720,0.5546875,0.5680555555555555,11.852755159795075,90,88.24840732201757,0.0,7.582969931649243,0.0546875,0.0546875,0.21784261593381218,-5.147244840204925,1225,100,100,1,90.0,50.625,-18.765996813247124,0.7000000000000001,4.921875,1.5684668347234478,-18.765996813247124,0.7000000000000001,4.921875,1.5684668347234478,-0.47665631905647693,0.2086,1.1449950565532478,9.79453125,7.582969931649243,6.986737959563089,88.24840732201757,False,0.5,0.5,17,0.0254,0.0124,0.298,0.145,1.99,0.119,0.73,0.171,0.03333333333333333,0.01,-0.04832562431693077,0.1021975725889206,-10.02016830444336,-0.07656662166118622,-0.30926939845085144,0.7866255640983582,-0.4119864406991046,0.1504485656581778,0.7265825405522066,7.59621110712896
1576103103.519056,670,368,80,82,1280,720,0.5546875,0.5680555555555555,11.852755159795075,90,88.40996861664505,0.0,7.484260037764219,0.0546875,0.0546875,0.21784261593381218,-5.147244840204925,1225,100,100,1,90.0,50.625,-18.765996813247124,0.7000000000000001,4.921875,1.5684668347234478,-18.765996813247124,0.7000000000000001,4.921875,1.5684668347234478,-0.47665631905647693,0.2086,1.144980789348117,9.79453125,7.484260037764219,7.274504928353128,88.40996861664505,False,0.5,0.5,17,0.0254,0.0124,0.298,0.145,1.99,0.119,0.73,0.171,0.03333333333333333,0.01,-0.05064832419157028,0.09431002289056778,-9.992889404296875,-0.09348837286233902,-0.33631375432014465,0.9964160323143005,-0.4672531088111107,0.19988832323587058,0.9254248306581339,8.080392118333762
1576103103.5335696,670,368,80,80,1280,720,0.5546875,0.5666666666666667,12.0,90,88.48934224498977,0.0,7.297129076205149,0.0546875,0.0546875,0.21450390198052777,-5.0,1225,100,100,1,90.0,50.625,-18.229166666666668,0.7000000000000001,4.921875,1.5444280942597999,-18.229166666666668,0.7000000000000001,4.921875,1.5444280942597999,-0.46295426639515735,0.2086,1.127391402563461,9.79453125,7.297129076205149,7.334329701519623,88.48934224498977,False,0.5,0.5,17,0.0254,0.0124,0.298,0.145,1.99,0.119,0.73,0.171,0.03333333333333333,0.01,-0.05064832419157028,0.09431002289056778,-9.992889404296875,-0.09348837286233902,-0.33631375432014465,0.9964160323143005,-0.4672531088111107,0.19988832323587058,0.9254248306581339,7.99372384795547
1576103103.5518668,670,368,80,80,1280,720,0.5546875,0.5666666666666667,12.0,90,88.59236198824107,0.0,6.728280613162045,0.0546875,0.0546875,0.20902976676306412,-5.0,1225,100,100,1,90.0,50.625,-18.229166666666668,0.7000000000000001,4.921875,1.5050143206940616,-18.229166666666668,0.7000000000000001,4.921875,1.5050143206940616,-0.4630208333333333,0.2086,1.0985930565538675,9.79453125,6.728280613162045,7.105202894961907,88.59236198824107,False,0.5,0.5,17,0.0254,0.0124,0.298,0.145,1.99,0.119,0.73,0.171,0.03333333333333333,0.01,-0.05359464883804321,0.08515000343322754,-9.959358215332031,-0.11765902489423752,-0.3680386245250702,1.162963628768921,-0.5139380498272565,0.24834945262175265,1.0844218309509346,8.081681316539603
1576103103.5683584,670,368,80,80,1280,720,0.5546875,0.5666666666666667,12.0,90,88.6275442926558,0.0,6.415586442109222,0.0546875,0.0546875,0.19339430009104636,-5.0,1225,100,100,1,90.0,50.625,-18.229166666666668,0.7000000000000001,4.921875,1.3924389606555339,-18.229166666666668,0.7000000000000001,4.921875,1.3924389606555339,-0.4630208333333333,0.2086,1.0164043940561398,9.79453125,6.415586442109222,6.866001132491597,88.6275442926558,False,0.5,0.5,17,0.0254,0.0124,0.298,0.145,1.99,0.119,0.73,0.171,0.03333333333333333,0.01,-0.05359464883804321,0.08515000343322754,-9.959358215332031,-0.11765902489423752,-0.3680386245250702,1.162963628768921,-0.5139380498272565,0.24834945262175265,1.0844218309509346,8.357941124125462
1576103103.5788605,670,368,80,80,1280,720,0.5546875,0.5666666666666667,12.0,90,88.6931892407688,0.0,5.699797558130695,0.0546875,0.0546875,0.1829179788631023,-5.0,1225,100,100,1,90.0,50.625,-18.229166666666668,0.7000000000000001,4.921875,1.3170094478143366,-18.229166666666668,0.7000000000000001,4.921875,1.3170094478143366,-0.4630208333333333,0.2086,0.9612879124375073,9.79453125,5.699797558130695,6.163643388629077,88.6931892407688,False,0.5,0.5,17,0.0254,0.0124,0.298,0.145,1.99,0.119,0.73,0.171,0.03333333333333333,0.01,-0.05359464883804321,0.08515000343322754,-9.959358215332031,-0.11765902489423752,-0.3680386245250702,1.162963628768921,-0.5139380498272565,0.24834945262175265,1.0844218309509346,8.671159939083907
1576103103.5962386,670,368,80,80,1280,720,0.5546875,0.5666666666666667,12.0,90,88.78186558676308,0.0,4.965350731773809,0.0546875,0.0546875,0.16474766877577893,-5.0,1225,100,100,1,90.0,50.625,-18.229166666666668,0.7000000000000001,4.921875,1.1861832151856082,-18.229166666666668,0.7000000000000001,4.921875,1.1861832151856082,-0.4630208333333333,0.2086,0.8656900342276989,9.79453125,4.965350731773809,5.43037092792261,88.78186558676308,False,0.5,0.5,17,0.0254,0.0124,0.298,0.145,1.99,0.119,0.73,0.171,0.03333333333333333,0.01,-0.057532358914613724,0.07448120415210724,-9.922626495361328,-0.15612924098968506,-0.4112906754016876,1.1854774951934814,-0.530431042455203,0.2680916333721449,1.1160927544296417,9.678536855806271
1576103103.5995963,672,368,80,80,1280,720,0.55625,0.5666666666666667,12.0,90,88.83515472266751,0.0,4.608055425440803,0.0546875,0.0546875,0.16474766877577893,-5.0,1225,100,100,1,90.0,50.625,-18.229166666666668,0.7000000000000001,4.921875,1.1861832151856082,-18.229166666666668,0.7000000000000001,4.921875,1.1861832151856082,-0.4630208333333333,0.2086,0.8656900342276989,9.79453125,4.608055425440803,5.149849509181486,88.83515472266751,False,0.5,0.5,17,0.0254,0.0124,0.298,0.145,1.99,0.119,0.73,0.171,0.03333333333333333,0.01,-0.057532358914613724,0.07448120415210724,-9.922626495361328,-0.15612924098968506,-0.4112906754016876,1.1854774951934814,-0.530431042455203,0.2680916333721449,1.1160927544296417,10.058930581251792
1576103103.6173227,672,368,80,80,1280,720,0.55625,0.5666666666666667,12.0,90,88.83515472266751,0.0,4.608055425440803,0.05625000000000002,0.05625000000000002,0.15768998371241089,-5.0,1225,100,100,1,90.0,50.625,-18.229166666666668,0.7200000000000003,5.062500000000002,1.1353678827293585,-18.229166666666668,0.7200000000000003,5.062500000000002,1.1353678827293585,-0.4630208333333333,0.21458900000000009,0.8287316601739315,10.074542343750004,4.608055425440803,5.149849509181486,88.83515472266751,False,0.5,0.5,17,0.0254,0.0124,0.298,0.145,1.99,0.119,0.73,0.171,0.03333333333333333,0.01,-0.057532358914613724,0.07448120415210724,-9.922626495361328,-0.15612924098968506,-0.4112906754016876,1.1854774951934814,-0.530431042455203,0.2680916333721449,1.1160927544296417,10.058930581251792
1576103103.6375685,672,368,80,80,1280,720,0.55625,0.5666666666666667,12.0,90,88.9176565776521,0.0,4.04952353625218,0.05625000000000002,0.05625000000000002,0.15768998371241089,-5.0,1225,100,100,1,90.0,50.625,-18.229166666666668,0.7200000000000003,5.062500000000002,1.1353678827293585,-18.229166666666668,0.7200000000000003,5.062500000000002,1.1353678827293585,-0.4630208333333333,0.21458900000000009,0.8287316601739315,10.074542343750004,4.04952353625218,4.812576902400372,88.9176565776521,False,0.5,0.5,17,0.0254,0.0124,0.298,0.145,1.99,0.119,0.73,0.171,0.03333333333333333,0.01,-0.06276091933250427,0.06211313605308533,-9.887228965759277,-0.19702862203121185,-0.4543759822845459,1.0801188945770264,-0.5331497424803923,0.2754248073668405,1.0255862543827758,10.363742287115596
1576103103.646041,672,372,80,80,1280,720,0.55625,0.5722222222222222,12.0,90,89.05938983311903,0.0,2.9848720682446737,0.05625000000000002,0.05625000000000002,0.13118265813816637,-5.0,1225,100,100,1,90.0,50.625,-18.229166666666668,0.7200000000000003,5.062500000000002,0.944515138594798,-18.229166666666668,0.7200000000000003,5.062500000000002,0.944515138594798,-0.4630208333333333,0.21456000000000008,0.6891696929817325,10.074375000000003,2.9848720682446737,4.110541031202489,89.05938983311903,False,0.5,0.5,17,0.0254,0.0124,0.298,0.145,1.99,0.119,0.73,0.171,0.03333333333333333,0.01,-0.06276091933250427,0.06211313605308533,-9.887228965759277,-0.19702862203121185,-0.4543759822845459,1.0801188945770264,-0.5331497424803923,0.2754248073668405,1.0255862543827758,10.690458409647633
1576103103.6611605,672,372,80,80,1280,720,0.55625,0.5722222222222222,12.0,90,89.11849146000715,0.0,2.528241265387352,0.05625000000000002,0.05625000000000002,0.12216279042740445,-5.0,1225,100,100,1,90.0,50.625,-18.229166666666668,0.7200000000000003,5.062500000000002,0.879572091077312,-18.229166666666668,0.7200000000000003,5.062500000000002,0.879572091077312,-0.4630208333333333,0.21456000000000008,0.6419765738751829,10.074375000000003,2.528241265387352,3.695589109877643,89.11849146000715,False,0.5,0.5,17,0.0254,0.0124,0.298,0.145,1.99,0.119,0.73,0.171,0.03333333333333333,0.01,-0.06924185156822205,0.04824228957295418,-9.856110572814941,-0.2342764139175415,-0.4889925718307495,0.9292824864387512,-0.5330518535692297,0.28469290307571243,0.8901521136133045,10.871244979241407
1576103103.682034,674,393,80,81,1280,720,0.5578125,0.6020833333333333,11.925695879998878,90,89.21443512727832,0.0,1.8871127523394113,0.05625000000000002,0.05625000000000002,0.12216279042740445,-5.0,1225,100,100,1,90.0,50.625,-18.229166666666668,0.7200000000000003,5.062500000000002,0.879572091077312,-18.229166666666668,0.7200000000000003,5.062500000000002,0.879572091077312,-0.4630208333333333,0.21456000000000008,0.6419765738751829,10.074375000000003,1.8871127523394113,2.9827115940328337,89.21443512727832,False,0.5,0.5,17,0.0254,0.0124,0.298,0.145,1.99,0.119,0.73,0.171,0.03333333333333333,0.01,-0.06924185156822205,0.04824228957295418,-9.856110572814941,-0.2342764139175415,-0.4889925718307495,0.9292824864387512,-0.5330518535692297,0.28469290307571243,0.8901521136133045,10.605139101630419
1576103103.6959133,674,393,80,81,1280,720,0.5578125,0.6020833333333333,11.925695879998878,90,89.21443512727832,0.0,1.8871127523394113,0.057812500000000044,0.057812500000000044,0.1393596346141118,-5.074304120001122,1225,100,100,1,90.0,50.625,-18.500067104170757,0.7400000000000007,5.2031250000000036,1.003389369221605,-18.500067104170757,0.7400000000000007,5.2031250000000036,1.003389369221605,-0.4699352961001877,0.2205490000000002,0.7326859670773983,10.354386093750007,1.8871127523394113,2.9827115940328337,89.21443512727832,False,0.5,0.5,17,0.0254,0.0124,0.298,0.145,1.99,0.119,0.73,0.171,0.03333333333333333,0.01,-0.06924185156822205,0.04824228957295418,-9.856110572814941,-0.2342764139175415,-0.4889925718307495,0.9292824864387512,-0.5330518535692297,0.28469290307571243,0.8901521136133045,10.605139101630419
1576103103.7152996,680,434,80,82,1280,720,0.5625,0.6597222222222222,11.852755159795075,90,89.64154734664673,0.0,0.0032328139115316602,0.057812500000000044,0.057812500000000044,0.11727305743314159,-5.074304120001122,1225,100,100,1,90.0,50.625,-18.500067104170757,0.7400000000000007,5.2031250000000036,0.8443660135186195,-18.500067104170757,0.7400000000000007,5.2031250000000036,0.8443660135186195,-0.4699017044459372,0.2205200000000002,0.6161152599303401,10.354218750000006,0.0032328139115316602,1.4117172853979492,89.64154734664673,False,0.5,0.5,17,0.0254,0.0124,0.298,0.145,1.99,0.119,0.73,0.171,0.03333333333333333,0.01,-0.07642170786857605,0.035831268876791,-9.831100463867188,-0.25797054171562195,-0.5066120624542236,0.7017892599105835,-0.5184025478235538,0.27479535310779235,0.6866287642266599,9.766318447019275
1576103103.7239993,680,434,80,82,1280,720,0.5625,0.6597222222222222,11.852755159795075,90,89.64154734664673,0.0,0.0032328139115316602,0.0625,0.0625,0.15978608027479568,-5.147244840204925,1225,100,100,1,90.0,50.625,-18.765996813247124,0.8,5.625,1.150459777978529,-18.765996813247124,0.8,5.625,1.150459777978529,-0.4766892943404024,0.238487,0.8403590582615525,11.19425203125,0.0032328139115316602,1.4117172853979492,89.64154734664673,False,0.5,0.5,17,0.0254,0.0124,0.298,0.145,1.99,0.119,0.73,0.171,0.03333333333333333,0.01,-0.07642170786857605,0.035831268876791,-9.831100463867188,-0.25797054171562195,-0.5066120624542236,0.7017892599105835,-0.5184025478235538,0.27479535310779235,0.6866287642266599,9.766318447019275
1576103103.7334225,680,434,80,82,1280,720,0.5625,0.6597222222222222,11.852755159795075,90,89.78246097941326,0.0,-0.6929448360517433,0.0625,0.0625,0.14954125818997044,-5.147244840204925,1225,100,100,1,90.0,50.625,-18.765996813247124,0.8,5.625,1.0766970589677871,-18.765996813247124,0.8,5.625,1.0766970589677871,-0.47665631905647693,0.2384,0.7858627187969762,11.19375,-0.6929448360517433,0.9754014928446555,89.78246097941326,False,0.5,0.5,17,0.0254,0.0124,0.298,0.145,1.99,0.119,0.73,0.171,0.03333333333333333,0.01,-0.08619912713766098,0.01917470619082451,-9.810458183288574,-0.2733197808265686,-0.5148801803588867,0.44925442337989807,-0.5120195833260734,0.2797897945575578,0.4485403625047825,9.078510713636174
1576103103.7515235,682,450,82,82,1280,720,0.56484375,0.6819444444444445,11.707317073170731,90,89.88606811893318,0.0,-1.2410144228966402,0.06484374999999998,0.06484374999999998,0.15743057930080712,-5.2926829268292686,1225,100,100,1,90.0,50.625,-19.296239837398375,0.8299999999999997,5.835937499999998,1.1335001709658112,-19.296239837398375,0.8299999999999997,5.835937499999998,1.1335001709658112,-0.49019024200491346,0.24738349999999992,0.8275522581265587,11.613766640624997,-1.2410144228966402,0.4420465880711989,89.88606811893318,False,0.5,0.5,17,0.0254,0.0124,0.298,0.145,1.99,0.119,0.73,0.171,0.03333333333333333,0.01,-0.08619912713766098,0.01917470619082451,-9.810458183288574,-0.2733197808265686,-0.5148801803588867,0.44925442337989807,-0.5120195833260734,0.2797897945575578,0.4485403625047825,8.745570581222964
1576103103.7622123,682,450,82,82,1280,720,0.56484375,0.6819444444444445,11.707317073170731,90,89.95811978448765,0.0,-1.6136156495511162,0.06484374999999998,0.06484374999999998,0.15007055507059525,-5.2926829268292686,1225,100,100,1,90.0,50.625,-19.296239837398375,0.8299999999999997,5.835937499999998,1.0805079965082858,-19.296239837398375,0.8299999999999997,5.835937499999998,1.0805079965082858,-0.4901244918699187,0.24733999999999992,0.7886802208327263,11.613515624999996,-1.6136156495511162,-0.019586719705928672,89.95811978448765,False,0.5,0.5,17,0.0254,0.0124,0.298,0.145,1.99,0.119,0.73,0.171,0.03333333333333333,0.01,-0.09227925539016724,0.008795879781246185,-9.801352500915527,-0.2757973074913025,-0.5144347548484802,0.42036861181259155,-0.502594895869239,0.2752725916617841,0.4347877787366001,8.5941068675097
1576103103.772421,684,472,82,82,1280,720,0.56640625,0.7125,11.707317073170731,90,90.10708621028563,0.0,-2.367808232633392,0.06484374999999998,0.06484374999999998,0.13517292379983425,-5.2926829268292686,1225,100,100,1,90.0,50.625,-19.296239837398375,0.8299999999999997,5.835937499999998,0.9732450513588067,-19.296239837398375,0.8299999999999997,5.835937499999998,0.9732450513588067,-0.4901244918699187,0.24733999999999992,0.7102854678557232,11.613515624999996,-2.367808232633392,-1.1274331794760883,90.10708621028563,False,0.5,0.5,17,0.0254,0.0124,0.298,0.145,1.99,0.119,0.73,0.171,0.03333333333333333,0.01,-0.09227925539016724,0.008795879781246185,-9.801352500915527,-0.2757973074913025,-0.5144347548484802,0.42036861181259155,-0.502594895869239,0.2752725916617841,0.4347877787366001,8.32281516877138
1576103103.7874985,684,472,82,82,1280,720,0.56640625,0.7125,11.707317073170731,90,90.27588067524415,0.0,-3.1474610928988307,0.06640625,0.06640625,0.16192516440705898,-5.2926829268292686,1225,100,100,1,90.0,50.625,-19.296239837398375,0.8500000000000001,5.9765625,1.1658611837308246,-19.296239837398375,0.8500000000000001,5.9765625,1.1658611837308246,-0.4901244918699187,0.253329,0.8514080377098581,11.89352671875,-3.1474610928988307,-2.2970348796707776,90.27588067524415,False,0.5,0.5,17,0.0254,0.0124,0.298,0.145,1.99,0.119,0.73,0.171,0.03333333333333333,0.01,-0.09227925539016724,0.008795879781246185,-9.801352500915527,-0.2757973074913025,-0.5144347548484802,0.42036861181259155,-0.502594895869239,0.2752725916617841,0.4347877787366001,8.564690096528102
1576103103.8037636,684,472,82,82,1280,720,0.56640625,0.7125,11.707317073170731,90,90.36524687034459,0.0,-3.5278138372093304,0.06640625,0.06640625,0.15032792902915892,-5.2926829268292686,1225,100,100,1,90.0,50.625,-19.296239837398375,0.8500000000000001,5.9765625,1.0823610890099442,-19.296239837398375,0.8500000000000001,5.9765625,1.0823610890099442,-0.4901244918699187,0.2533,0.7899808098152865,11.893359375,-3.5278138372093304,-2.8357444926709654,90.36524687034459,False,0.5,0.5,17,0.0254,0.0124,0.298,0.145,1.99,0.119,0.73,0.171,0.03333333333333333,0.01,-0.10242781788110733,-0.008984931744635105,-9.783660888671875,-0.2721235156059265,-0.517383337020874,0.5869900584220886,-0.47854170276738695,0.24452413228895825,0.6304758847884454,8.719478404819869
1576103103.8120716,684,472,82,82,1280,720,0.56640625,0.7125,11.707317073170731,90,90.5048900879255,0.0,-4.057897775061439,0.06640625,0.06640625,0.14281478840080336,-5.2926829268292686,1225,100,100,1,90.0,50.625,-19.296239837398375,0.8500000000000001,5.9765625,1.0282664764857843,-19.296239837398375,0.8500000000000001,5.9765625,1.0282664764857843,-0.4901244918699187,0.2533,0.7505420260472062,11.893359375,-4.057897775061439,-3.5175397385937504,90.5048900879255,False,0.5,0.5,17,0.0254,0.0124,0.298,0.145,1.99,0.119,0.73,0.171,0.03333333333333333,0.01,-0.10242781788110733,-0.008984931744635105,-9.783660888671875,-0.2721235156059265,-0.517383337020874,0.5869900584220886,-0.47854170276738695,0.24452413228895825,0.6304758847884454,8.613983571768083
1576103103.8263564,684,482,82,84,1280,720,0.56640625,0.7277777777777777,11.567104625085117,90,90.77875335288634,0.0,-4.895240974377744,0.06640625,0.06640625,0.14140611468844297,-5.432895374914883,1225,100,100,1,90.0,50.625,-19.80743105437718,0.8500000000000001,5.9765625,1.0181240257567894,-19.80743105437718,0.8500000000000001,5.9765625,1.0181240257567894,-0.5031721364920858,0.2533,0.7432131952117097,11.893359375,-4.895240974377744,-4.3571505607145,90.77875335288634,False,0.5,0.5,17,0.0254,0.0124,0.298,0.145,1.99,0.119,0.73,0.171,0.03333333333333333,0.01,-0.10242781788110733,-0.008984931744635105,-9.783660888671875,-0.2721235156059265,-0.517383337020874,0.5869900584220886,-0.47854170276738695,0.24452413228895825,0.6304758847884454,8.138818410267698
1576103103.8425045,684,482,82,84,1280,720,0.56640625,0.7277777777777777,11.567104625085117,90,90.86756630266402,0.0,-5.106840234864738,0.06640625,0.06640625,0.12690192128662242,-5.432895374914883,1225,100,100,1,90.0,50.625,-19.80743105437718,0.8500000000000001,5.9765625,0.9136938332636815,-19.80743105437718,0.8500000000000001,5.9765625,0.9136938332636815,-0.5031087487811804,0.2533,0.666945037342337,11.893359375,-5.106840234864738,-4.493021806326271,90.86756630266402,False,0.5,0.5,17,0.0254,0.0124,0.298,0.145,1.99,0.119,0.73,0.171,0.03333333333333333,0.01,-0.1103692352771759,-0.023698773235082626,-9.763445854187012,-0.26475322246551514,-0.5208457708358765,0.7773130536079407,-0.4489813934878176,0.20882949053596472,0.836896720806708,8.301207011558397
1576103103.8482668,684,482,82,84,1280,720,0.56640625,0.7277777777777777,11.567104625085117,90,90.95652268641426,0.0,-5.288577481413615,0.06640625,0.06640625,0.12331204974985449,-5.432895374914883,1225,100,100,1,90.0,50.625,-19.80743105437718,0.8500000000000001,5.9765625,0.8878467581989523,-19.80743105437718,0.8500000000000001,5.9765625,0.8878467581989523,-0.5031087487811804,0.2533,0.6480839349868744,11.893359375,-5.288577481413615,-4.571513913381234,90.95652268641426,False,0.5,0.5,17,0.0254,0.0124,0.298,0.145,1.99,0.119,0.73,0.171,0.03333333333333333,0.01,-0.1103692352771759,-0.023698773235082626,-9.763445854187012,-0.26475322246551514,-0.5208457708358765,0.7773130536079407,-0.4489813934878176,0.20882949053596472,0.836896720806708,8.611129406468665
1576103103.8640542,684,482,82,84,1280,720,0.56640625,0.7277777777777777,11.567104625085117,90,91.04497363616593,0.0,-5.430663772283275,0.06640625,0.06640625,0.12050540696724392,-5.432895374914883,1225,100,100,1,90.0,50.625,-19.80743105437718,0.8500000000000001,5.9765625,0.8676389301641563,-19.80743105437718,0.8500000000000001,5.9765625,0.8676389301641563,-0.5031087487811804,0.2533,0.6333418636338946,11.893359375,-5.430663772283275,-4.5931989102223785,91.04497363616593,False,0.5,0.5,17,0.0254,0.0124,0.298,0.145,1.99,0.119,0.73,0.171,0.03333333333333333,0.01,-0.11807304620742798,-0.03877832740545273,-9.737059593200684,-0.25414517521858215,-0.5182627439498901,0.943723201751709,-0.4219215855870497,0.18358134754794092,1.006021663696186,9.030475700750767
1576103103.878137,681,474,81,84,1280,720,0.563671875,0.7166666666666667,11.638287479252927,90,91.2470106318149,0.0,-5.476572888789515,0.06640625,0.06640625,0.11959856022144165,-5.432895374914883,1225,100,100,1,90.0,50.625,-19.80743105437718,0.8500000000000001,5.9765625,0.8611096335943799,-19.80743105437718,0.8500000000000001,5.9765625,0.8611096335943799,-0.5031087487811804,0.2533,0.628598867426763,11.893359375,-5.476572888789515,-4.365984556632265,91.2470106318149,False,0.5,0.5,17,0.0254,0.0124,0.298,0.145,1.99,0.119,0.73,0.171,0.03333333333333333,0.01,-0.11807304620742798,-0.03877832740545273,-9.737059593200684,-0.25414517521858215,-0.5182627439498901,0.943723201751709,-0.4219215855870497,0.18358134754794092,1.006021663696186,9.47862319521552
1576103103.8886116,681,474,81,84,1280,720,0.563671875,0.7166666666666667,11.638287479252927,90,91.35039920528139,0.0,-5.217875205107051,0.06367187500000004,0.06367187500000004,0.11359752681270024,-5.361712520747073,1225,100,100,1,90.0,50.625,-19.54791023189037,0.8150000000000006,5.7304687500000036,0.8179021930514417,-19.54791023189037,0.8150000000000006,5.7304687500000036,0.8179021930514417,-0.49648473930802706,0.24281925000000018,0.596994716204224,11.403339960937506,-5.217875205107051,-4.044437606641459,91.35039920528139,False,0.5,0.5,17,0.0254,0.0124,0.298,0.145,1.99,0.119,0.73,0.171,0.03333333333333333,0.01,-0.11807304620742798,-0.03877832740545273,-9.737059593200684,-0.25414517521858215,-0.5182627439498901,0.943723201751709,-0.4219215855870497,0.18358134754794092,1.006021663696186,9.6201302006662
1576103103.8995473,681,474,81,84,1280,720,0.563671875,0.7166666666666667,11.638287479252927,90,91.45286570320992,0.0,-4.82171441484938,0.06367187500000004,0.06367187500000004,0.12142292513877768,-5.361712520747073,1225,100,100,1,90.0,50.625,-19.54791023189037,0.8150000000000006,5.7304687500000036,0.8742450609991993,-19.54791023189037,0.8150000000000006,5.7304687500000036,0.8742450609991993,-0.4965169198900154,0.24287000000000017,0.6382952408336061,11.403632812500007,-4.82171441484938,-3.6644148458452355,91.45286570320992,False,0.5,0.5,17,0.0254,0.0124,0.298,0.145,1.99,0.119,0.73,0.171,0.03333333333333333,0.01,-0.12688453495502472,-0.05728229507803917,-9.701508522033691,-0.22094735503196716,-0.4820452630519867,0.8668041229248047,-0.401743070685826,0.17485951957281515,0.9168213623256218,10.124007769890026
1576103103.9134307,681,474,81,84,1280,720,0.563671875,0.7166666666666667,11.638287479252927,90,91.66130941630037,0.0,-4.309548837954566,0.06367187500000004,0.06367187500000004,0.1284504814788069,-5.361712520747073,1225,100,100,1,90.0,50.625,-19.54791023189037,0.8150000000000006,5.7304687500000036,0.9248434666474096,-19.54791023189037,0.8150000000000006,5.7304687500000036,0.9248434666474096,-0.4965169198900154,0.24287000000000017,0.6752222539262674,11.403632812500007,-4.309548837954566,-3.1540370709656718,91.66130941630037,False,0.5,0.5,17,0.0254,0.0124,0.298,0.145,1.99,0.119,0.73,0.171,0.03333333333333333,0.01,-0.12688453495502472,-0.05728229507803917,-9.701508522033691,-0.22094735503196716,-0.4820452630519867,0.8668041229248047,-0.401743070685826,0.17485951957281515,0.9168213623256218,11.664724276821067
1576103103.9266834,679,468,81,82,1280,720,0.562109375,0.7069444444444445,11.779362781316964,90,91.80837021931991,0.0,-4.166256591809575,0.06210937500000002,0.06210937500000002,0.12464801793956398,-5.220637218683036,1225,100,100,1,90.0,50.625,-19.033573193115238,0.7950000000000004,5.589843750000002,0.8974657291648607,-19.033573193115238,0.7950000000000004,5.589843750000002,0.8974657291648607,-0.4833889813123189,0.2368810000000001,0.6551031663592531,11.123621718750003,-4.166256591809575,-2.9507729891436196,91.80837021931991,False,0.5,0.5,17,0.0254,0.0124,0.298,0.145,1.99,0.119,0.73,0.171,0.03333333333333333,0.01,-0.12688453495502472,-0.05728229507803917,-9.701508522033691,-0.22094735503196716,-0.4820452630519867,0.8668041229248047,-0.401743070685826,0.17485951957281515,0.9168213623256218,12.306412011607303
1576103103.9332852,679,468,81,82,1280,720,0.562109375,0.7069444444444445,11.779362781316964,90,91.90887645295665,0.0,-4.075249443761033,0.06210937500000002,0.06210937500000002,0.12464801793956398,-5.220637218683036,1225,100,100,1,90.0,50.625,-19.033573193115238,0.7950000000000004,5.589843750000002,0.8974657291648607,-19.033573193115238,0.7950000000000004,5.589843750000002,0.8974657291648607,-0.4833889813123189,0.2368810000000001,0.6551031663592531,11.123621718750003,-4.075249443761033,-2.813734421514011,91.90887645295665,False,0.5,0.5,17,0.0254,0.0124,0.298,0.145,1.99,0.119,0.73,0.171,0.03333333333333333,0.01,-0.132838636636734,-0.07109018415212631,-9.679571151733398,-0.18789978325366974,-0.4426676332950592,0.5872086882591248,-0.3927029308577895,0.16972688387061716,0.6269387519272511,12.590389932955278
1576103103.947265,679,468,81,82,1280,720,0.562109375,0.7069444444444445,11.779362781316964,90,92.00572170519825,0.0,-3.939528462311002,0.06210937500000002,0.06210937500000002,0.12644568999978212,-5.220637218683036,1225,100,100,1,90.0,50.625,-19.033573193115238,0.7950000000000004,5.589843750000002,0.9104089679984313,-19.033573193115238,0.7950000000000004,5.589843750000002,0.9104089679984313,-0.48345275910512703,0.2369100000000001,0.6646206795772602,11.123789062500004,-3.939528462311002,-2.6393306636996128,92.00572170519825,False,0.5,0.5,17,0.0254,0.0124,0.298,0.145,1.99,0.119,0.73,0.171,0.03333333333333333,0.01,-0.132838636636734,-0.07109018415212631,-9.679571151733398,-0.18789978325366974,-0.4426676332950592,0.5872086882591248,-0.3927029308577895,0.16972688387061716,0.6269387519272511,12.526771843478485
1576103103.9624662,672,446,80,82,1280,720,0.55625,0.6763888888888889,11.852755159795075,90,92.13971635633557,0.0,-3.5956194729775746,0.05625000000000002,0.05625000000000002,0.10536430670661585,-5.147244840204925,1225,100,100,1,90.0,50.625,-18.765996813247124,0.7200000000000003,5.062500000000002,0.7586230082876342,-18.765996813247124,0.7200000000000003,5.062500000000002,0.7586230082876342,-0.4766231395853733,0.2144512500000001,0.5535022347161789,10.073747460937504,-3.5956194729775746,-2.281943149812811,92.13971635633557,False,0.5,0.5,17,0.0254,0.0124,0.298,0.145,1.99,0.119,0.73,0.171,0.03333333333333333,0.01,-0.13670042157173157,-0.08081994205713272,-9.668925285339355,-0.16979221999645233,-0.4186181426048279,0.40572068095207214,-0.38573138991147493,0.16800508344107284,0.43779607697691014,11.971343421493987
1576103103.9809642,672,446,80,82,1280,720,0.55625,0.6763888888888889,11.852755159795075,90,92.3805078453352,0.0,-2.3364382409925812,0.05625000000000002,0.05625000000000002,0.11214929014312189,-5.147244840204925,1225,100,100,1,90.0,50.625,-18.765996813247124,0.7200000000000003,5.062500000000002,0.8074748890304776,-18.765996813247124,0.7200000000000003,5.062500000000002,0.8074748890304776,-0.47665631905647693,0.21456000000000008,0.5895402057083189,10.074375000000003,-2.3364382409925812,-1.1432990685877933,92.3805078453352,False,0.5,0.5,17,0.0254,0.0124,0.298,0.145,1.99,0.119,0.73,0.171,0.03333333333333333,0.01,-0.13670042157173157,-0.08081994205713272,-9.668925285339355,-0.16979221999645233,-0.4186181426048279,0.40572068095207214,-0.38573138991147493,0.16800508344107284,0.43779607697691014,10.813371932630243
1576103104.0090356,660,418,80,78,1280,720,0.546875,0.6347222222222222,12.152872405003999,90,92.65749250674673,0.0,-0.210048020472822,0.046875,0.046875,0.11142362059474245,-4.847127594996001,1225,100,100,1,90.0,50.625,-17.671819356756256,0.6000000000000001,4.21875,0.8022500682821456,-17.671819356756256,0.6000000000000001,4.21875,0.8022500682821456,-0.44872853365700405,0.178626,0.5852763693834817,8.3943084375,-0.210048020472822,0.6862326277274718,92.65749250674673,False,0.5,0.5,17,0.0254,0.0124,0.298,0.145,1.99,0.119,0.73,0.171,0.03333333333333333,0.01,-0.14153046905994415,-0.09343472123146057,-9.656145095825195,-0.15992604196071625,-0.4095653295516968,0.41599658131599426,-0.3934478559499464,0.17694173835895682,0.42457468083896155,9.477052251706418
1576103104.013282,660,418,80,78,1280,720,0.546875,0.6347222222222222,12.152872405003999,90,92.74445447525933,0.0,0.43805682378098587,0.046875,0.046875,0.13057312552152447,-4.847127594996001,1225,100,100,1,90.0,50.625,-17.671819356756256,0.6000000000000001,4.21875,0.9401265037549762,-17.671819356756256,0.6000000000000001,4.21875,0.9401265037549762,-0.4488642116616089,0.17880000000000001,0.6865281164457911,8.3953125,0.43805682378098587,1.2062721320748415,92.74445447525933,False,0.5,0.5,17,0.0254,0.0124,0.298,0.145,1.99,0.119,0.73,0.171,0.03333333333333333,0.01,-0.14153046905994415,-0.09343472123146057,-9.656145095825195,-0.15992604196071625,-0.4095653295516968,0.41599658131599426,-0.3934478559499464,0.17694173835895682,0.42457468083896155,9.23115178120762
1576103104.0262024,653,392,78,78,1280,720,0.540625,0.5986111111111111,12.307692307692308,90,92.8311022550701,0.0,1.0223793205125915,0.04062500000000002,0.04062500000000002,0.11880625818296475,-4.692307692307692,1225,100,100,1,90.0,50.625,-17.107371794871792,0.5200000000000004,3.6562500000000018,0.8554050589173462,-17.107371794871792,0.5200000000000004,3.6562500000000018,0.8554050589173462,-0.4344572520920698,0.1548440000000001,0.6243008193389903,7.275268125000004,1.0223793205125915,1.6636789084549,92.8311022550701,False,0.5,0.5,17,0.0254,0.0124,0.298,0.145,1.99,0.119,0.73,0.171,0.03333333333333333,0.01,-0.14153046905994415,-0.09343472123146057,-9.656145095825195,-0.15992604196071625,-0.4095653295516968,0.41599658131599426,-0.3934478559499464,0.17694173835895682,0.42457468083896155,8.863246202885822
1576103104.0348802,653,392,78,78,1280,720,0.540625,0.5986111111111111,12.307692307692308,90,92.94819901820081,0.0,1.6922737088585698,0.04062500000000002,0.04062500000000002,0.11880625818296475,-4.692307692307692,1225,100,100,1,90.0,50.625,-17.107371794871792,0.5200000000000004,3.6562500000000018,0.8554050589173462,-17.107371794871792,0.5200000000000004,3.6562500000000018,0.8554050589173462,-0.4345272435897435,0.1549600000000001,0.6244456930096627,7.275937500000004,1.6922737088585698,2.204715694971358,92.94819901820081,False,0.5,0.5,17,0.0254,0.0124,0.298,0.145,1.99,0.119,0.73,0.171,0.03333333333333333,0.01,-0.14526590704917908,-0.10354608297348022,-9.642477035522461,-0.16398939490318298,-0.4214264154434204,0.5609152913093567,-0.4227549549723442,0.20059488312013687,0.5478673655285673,7.593487569197417
1576103104.0577466,648,376,76,78,1280,720,0.5359375,0.5763888888888888,12.468584003187146,90,93.07247431014919,0.0,2.078997952447634,0.04062500000000002,0.04062500000000002,0.1320387399280705,-4.692307692307692,1225,100,100,1,90.0,50.625,-17.107371794871792,0.5200000000000004,3.6562500000000018,0.9506789274821076,-17.107371794871792,0.5200000000000004,3.6562500000000018,0.9506789274821076,-0.4345272435897435,0.1549600000000001,0.6941585353771842,7.275937500000004,2.078997952447634,2.60390289936158,93.07247431014919,False,0.5,0.5,17,0.0254,0.0124,0.298,0.145,1.99,0.119,0.73,0.171,0.03333333333333333,0.01,-0.14526590704917908,-0.10354608297348022,-9.642477035522461,-0.16398939490318298,-0.4214264154434204,0.5609152913093567,-0.4227549549723442,0.20059488312013687,0.5478673655285673,5.873630995149397
1576103104.0688343,648,376,76,78,1280,720,0.5359375,0.5763888888888888,12.468584003187146,90,93.15147910827874,0.0,1.9988377851313066,0.035937499999999956,0.035937499999999956,0.11745551511007667,-4.531415996812854,1225,100,100,1,90.0,50.625,-16.520787488380197,0.45999999999999946,3.234374999999996,0.845679708792552,-16.520787488380197,0.45999999999999946,3.234374999999996,0.845679708792552,-0.419555265750852,0.13699299999999984,0.6171666387546038,6.435904218749992,1.9988377851313066,2.562964453023816,93.15147910827874,False,0.5,0.5,17,0.0254,0.0124,0.298,0.145,1.99,0.119,0.73,0.171,0.03333333333333333,0.01,-0.14935198426246643,-0.11466826498508453,-9.624770164489746,-0.17455172538757324,-0.4431445896625519,0.6618878841400146,-0.4568782217719651,0.22718504166567663,0.636074092121482,4.586983438077667
1576103104.084644,648,376,76,78,1280,720,0.5359375,0.5763888888888888,12.468584003187146,90,93.18502899748184,0.0,1.859610141872709,0.035937499999999956,0.035937499999999956,0.11312192872834975,-4.531415996812854,1225,100,100,1,90.0,50.625,-16.520787488380197,0.45999999999999946,3.234374999999996,0.8144778868441183,-16.520787488380197,0.45999999999999946,3.234374999999996,0.8144778868441183,-0.41962800220485696,0.13707999999999984,0.5945349972333659,6.436406249999992,1.859610141872709,2.374670438315139,93.18502899748184,False,0.5,0.5,17,0.0254,0.0124,0.298,0.145,1.99,0.119,0.73,0.171,0.03333333333333333,0.01,-0.14935198426246643,-0.11466826498508453,-9.624770164489746,-0.17455172538757324,-0.4431445896625519,0.6618878841400146,-0.4568782217719651,0.22718504166567663,0.636074092121482,4.4430354937723555
1576103104.09829,642,360,76,76,1280,720,0.53125,0.5527777777777778,12.631578947368421,90,93.26266775777736,0.0,1.3837385894017555,0.03125,0.03125,0.08606782676887223,-4.368421052631579,1225,100,100,1,90.0,50.625,-15.926535087719298,0.4,2.8125,0.6196883527358801,-15.926535087719298,0.4,2.8125,0.6196883527358801,-0.4044603039303882,0.119113,0.45203940739386733,5.59637296875,1.3837385894017555,1.5426934198089368,93.26266775777736,False,0.5,0.5,17,0.0254,0.0124,0.298,0.145,1.99,0.119,0.73,0.171,0.03333333333333333,0.01,-0.14935198426246643,-0.11466826498508453,-9.624770164489746,-0.17455172538757324,-0.4431445896625519,0.6618878841400146,-0.4568782217719651,0.22718504166567663,0.636074092121482,4.201557997647963
1576103104.1096883,642,360,76,76,1280,720,0.53125,0.5527777777777778,12.631578947368421,90,93.26266775777736,0.0,1.3837385894017555,0.03125,0.03125,0.08606782676887223,-4.368421052631579,1225,100,100,1,90.0,50.625,-15.926535087719298,0.4,2.8125,0.6196883527358801,-15.926535087719298,0.4,2.8125,0.6196883527358801,-0.4044603039303882,0.119113,0.45203940739386733,5.59637296875,1.3837385894017555,1.5426934198089368,93.26266775777736,False,0.5,0.5,17,0.0254,0.0124,0.298,0.145,1.99,0.119,0.73,0.171,0.03333333333333333,0.01,-0.155120387673378,-0.13006705045700073,-9.599186897277832,-0.18876338005065918,-0.46719086170196533,0.72230464220047,-0.4730000566695418,0.23411278473839497,0.7050425954954549,4.201557997647963
1576103104.121836,642,360,76,76,1280,720,0.53125,0.5527777777777778,12.631578947368421,90,93.35486848138336,0.0,0.8150308922885775,0.03125,0.03125,0.07357390982176797,-4.368421052631579,1225,100,100,1,90.0,50.625,-15.926535087719298,0.4,2.8125,0.5297321507167294,-15.926535087719298,0.4,2.8125,0.5297321507167294,-0.40453399122807016,0.1192,0.3865506449177597,5.596875,0.8150308922885775,0.6832080812247727,93.35486848138336,False,0.5,0.5,17,0.0254,0.0124,0.298,0.145,1.99,0.119,0.73,0.171,0.03333333333333333,0.01,-0.155120387673378,-0.13006705045700073,-9.599186897277832,-0.18876338005065918,-0.46719086170196533,0.72230464220047,-0.4730000566695418,0.23411278473839497,0.7050425954954549,4.813043062811225
1576103104.146551,634,334,76,74,1280,720,0.525,0.5152777777777777,12.801137929503959,90,93.44504063880588,0.0,0.3368113288883001,0.025000000000000022,0.025000000000000022,0.031377153427922466,-4.198862070496041,1225,100,100,1,90.0,50.625,-15.308351298683485,0.3200000000000003,2.2500000000000018,0.22591550468104177,-15.308351298683485,0.3200000000000003,2.2500000000000018,0.22591550468104177,-0.3887554681967201,0.09524400000000008,0.16439879195243945,4.476830625000003,0.3368113288883001,0.24093772441697656,93.44504063880588,False,0.5,0.5,17,0.0254,0.0124,0.298,0.145,1.99,0.119,0.73,0.171,0.03333333333333333,0.01,-0.15885281562805176,-0.1399899125099182,-9.583420753479004,-0.1924315094947815,-0.47897306084632874,0.70805823802948,-0.47222393569576254,0.22474740063774945,0.7030538441449077,5.739850641197296
1576103104.1494381,634,334,76,74,1280,720,0.525,0.5152777777777777,12.801137929503959,90,93.44504063880588,0.0,0.3368113288883001,0.025000000000000022,0.025000000000000022,0.031377153427922466,-4.198862070496041,1225,100,100,1,90.0,50.625,-15.308351298683485,0.3200000000000003,2.2500000000000018,0.22591550468104177,-15.308351298683485,0.3200000000000003,2.2500000000000018,0.22591550468104177,-0.3887554681967201,0.09524400000000008,0.16439879195243945,4.476830625000003,0.3368113288883001,0.24093772441697656,93.44504063880588,False,0.5,0.5,17,0.0254,0.0124,0.298,0.145,1.99,0.119,0.73,0.171,0.03333333333333333,0.01,-0.15885281562805176,-0.1399899125099182,-9.583420753479004,-0.1924315094947815,-0.47897306084632874,0.70805823802948,-0.47222393569576254,0.22474740063774945,0.7030538441449077,5.739850641197296
1576103104.1599627,634,334,76,74,1280,720,0.525,0.5152777777777777,12.801137929503959,90,93.52890853162447,0.0,-0.004682594100276265,0.025000000000000022,0.025000000000000022,0.015185282091846341,-4.198862070496041,1225,100,100,1,90.0,50.625,-15.308351298683485,0.3200000000000003,2.2500000000000018,0.10933403106129366,-15.308351298683485,0.3200000000000003,2.2500000000000018,0.10933403106129366,-0.3888321229865605,0.09536000000000008,0.07973079135267355,4.477500000000004,-0.004682594100276265,0.0035882455500568186,93.52890853162447,False,0.5,0.5,17,0.0254,0.0124,0.298,0.145,1.99,0.119,0.73,0.171,0.03333333333333333,0.01,-0.15885281562805176,-0.1399899125099182,-9.583420753479004,-0.1924315094947815,-0.47897306084632874,0.70805823802948,-0.47222393569576254,0.22474740063774945,0.7030538441449077,6.4186954588420475
