time,x_bb,y_bb,w_bb,h_bb,w_im,h_im,f_u,f_v,f_delta,psi_telem_ref,psi_telem,theta_centroid_ref,theta_centroid,delta_f_u_psi,delta_f_u_y,delta_f_v_z,delta_f_delta_x,A_exp,alpha_u,alpha_v,d_exp,FOV_u,FOV_v,delta_x_tme,delta_y_tme,delta_psi_tme,delta_z_tme,prev_delta_x_tme,prev_delta_y_tme,prev_delta_psi_tme,prev_delta_z_tme,v_xr,v_yr,v_zr,yawrate,pitch_angle,roll_angle,yaw_angle,f_u_ref,f_v_ref,f_delta_ref,kp_vx,kd_vx,kp_vy,kd_vy,kp_yaw,kd_yaw,kp_vz,kd_vz,camera_period,controller_period,local_x,local_y,local_z,local_vx,local_vy,local_vz,body_vx,body_vy,body_vz,body_yawrate
1576107296.8005135,746,354,74,72,1280,720,0.61171875,0.5416666666666666,13.151918984428583,90,86.92609635908144,0.0,-3.6320965251268507,0.11171874999999998,0.07756426510090489,-0.030078449879048938,-3.8480810155714167,0.1225,214,214,1,90.0,50.625,-0.30023048756906157,0.46393579125774886,10.054687499999998,-0.10119852295754783,-0.30023048756906157,0.46393579125774886,10.054687499999998,-0.10119852295754783,-0.007625854384254164,0.1382346996194018,-0.14463198936442642,9.954140624999997,-3.6320965251268507,-0.6777494260566103,86.92609635908144,0.5,0.5,17,0.0254,0.000124,0.298,0.00145,0.99,0.00119,1.43,0.00371,0.03333333333333333,0.01,0.0804486870765686,-0.07549089193344116,-10.000394821166992,-0.06427907198667526,0.06232549622654915,0.0011420052032917738,0.05874318277274421,0.06755457727706109,-0.0017855861456858664,-0.0898175878952627
1576107296.8147418,746,354,74,72,1280,720,0.61171875,0.5416666666666666,13.151918984428583,90,86.92353503814269,0.0,-3.629845550908508,0.11171874999999998,0.0775209313451706,-0.030045968534995984,-3.8480810155714167,0.1225,214,214,1,90.0,50.625,-0.30023048756906157,0.4636765987000858,10.054687499999998,-0.1010892399308276,-0.30023048756906157,0.4636765987000858,10.054687499999998,-0.1010892399308276,-0.007625854384254164,0.13813804349176442,-0.14451706909817028,9.954140624999997,-3.629845550908508,-0.6758067174854177,86.92353503814269,0.5,0.5,17,0.0254,0.000124,0.298,0.00145,0.99,0.00119,1.43,0.00371,0.03333333333333333,0.01,0.0804486870765686,-0.07549089193344116,-10.000394821166992,-0.06427907198667526,0.06232549622654915,0.0011420052032917738,0.05874318277274421,0.06755457727706109,-0.0017855861456858664,0.05871211934244449
1576107296.830039,746,354,74,72,1280,720,0.61171875,0.5416666666666666,13.151918984428583,90,86.92300228338742,0.0,-3.630132845740472,0.11171874999999998,0.07753580597936319,-0.030033986190785386,-3.8480810155714167,0.1225,214,214,1,90.0,50.625,-0.30023048756906157,0.4637655684746957,10.054687499999998,-0.10104892550170784,-0.30023048756906157,0.4637655684746957,10.054687499999998,-0.10104892550170784,-0.007625854384254164,0.13821504002277774,-0.14448500681423876,9.954140624999997,-3.630132845740472,-0.6762399542500375,86.92300228338742,0.5,0.5,17,0.0254,0.000124,0.298,0.00145,0.99,0.00119,1.43,0.00371,0.03333333333333333,0.01,0.0804486870765686,-0.07549089193344116,-10.000394821166992,-0.06427907198667526,0.06232549622654915,0.0011420052032917738,0.05874318277274421,0.06755457727706109,-0.0017855861456858664,-0.02158832531849942
1576107296.838454,746,354,74,72,1280,720,0.61171875,0.5416666666666666,13.151918984428583,90,86.92236707579461,0.0,-3.6301584589498597,0.11171874999999998,0.0775228286199401,-0.030040167090367637,-3.8480810155714167,0.1225,214,214,1,90.0,50.625,-0.30023048756906157,0.46368794688562304,10.054687499999998,-0.1010697210517042,-0.30023048756906157,0.46368794688562304,10.054687499999998,-0.1010697210517042,-0.007625854384254164,0.13816775304150014,-0.14453741625298566,9.954140624999997,-3.6301584589498597,-0.6752012318876666,86.92236707579461,0.5,0.5,17,0.0254,0.000124,0.298,0.00145,0.99,0.00119,1.43,0.00371,0.03333333333333333,0.01,0.08035267889499664,-0.07558149099349976,-10.00025749206543,-0.06293686479330063,0.060380492359399796,0.0005523185827769339,0.05683589511967307,0.06611865102791735,-0.0022721962029339346,-0.13579698064476048
1576107296.8507044,746,354,74,72,1280,720,0.61171875,0.5416666666666666,13.151918984428583,90,86.93613673716136,0.0,-3.5248649030351777,0.11171874999999998,0.07754589948113652,-0.02941243054398192,-3.8480810155714167,0.1225,214,214,1,90.0,50.625,-0.30023048756906157,0.46382594082175116,10.054687499999998,-0.09895771024143449,-0.30023048756906157,0.46382594082175116,10.054687499999998,-0.09895771024143449,-0.007625854384254164,0.13824013948562042,-0.14072596963464126,9.954140624999997,-3.5248649030351777,-0.5635404455626519,86.93613673716136,0.5,0.5,17,0.0254,0.000124,0.298,0.00145,0.99,0.00119,1.43,0.00371,0.03333333333333333,0.01,0.08035267889499664,-0.07558149099349976,-10.00025749206543,-0.06293686479330063,0.060380492359399796,0.0005523185827769339,0.05683589511967307,0.06611865102791735,-0.0022721962029339346,1.0841654251879385
1576107296.8630326,746,354,74,72,1280,720,0.61171875,0.5416666666666666,13.151918984428583,90,86.93613673716136,0.0,-3.5248649030351777,0.11171874999999998,0.07767582485734845,-0.027960294380941816,-3.8480810155714167,0.1225,214,214,1,90.0,50.625,-0.30023048756906157,0.4646030645673178,10.054687499999998,-0.09407201847793509,-0.30023048756906157,0.4646030645673178,10.054687499999998,-0.09407201847793509,-0.007625854384254164,0.13856439618416788,-0.1327103947791889,9.954140624999997,-3.5248649030351777,-0.5635404455626519,86.93613673716136,0.5,0.5,17,0.0254,0.000124,0.298,0.00145,0.99,0.00119,1.43,0.00371,0.03333333333333333,0.01,0.08008502423763275,-0.07544674724340439,-10.001148223876953,-0.06072385609149933,0.06461042910814285,-0.08233467489480972,0.05609445281145515,0.06493264071857059,-0.08531153187752487,1.0841654251879385
1576107296.8793638,746,354,73,72,1280,720,0.611328125,0.5416666666666666,13.241694217637887,90,86.9936605903512,0.0,-3.224603597262482,0.111328125,0.07792435378167997,-0.02202920685950585,-3.758305782362113,0.1225,214,214,1,90.0,50.625,-0.29322614906137734,0.46608959271285216,10.01953125,-0.07411695765815053,-0.29322614906137734,0.46608959271285216,10.01953125,-0.07411695765815053,-0.007361090388663699,0.1391102452095324,-0.09858392188701519,9.91515234375,-3.224603597262482,-0.2406341278444548,86.9936605903512,0.5,0.5,17,0.0254,0.000124,0.298,0.00145,0.99,0.00119,1.43,0.00371,0.03333333333333333,0.01,0.08008502423763275,-0.07544674724340439,-10.001148223876953,-0.06072385609149933,0.06461042910814285,-0.08233467489480972,0.05609445281145515,0.06493264071857059,-0.08531153187752487,3.8980786055591334
1576107296.8870943,746,354,73,72,1280,720,0.611328125,0.5416666666666666,13.241694217637887,90,87.10174150377749,0.0,-2.835359867643329,0.111328125,0.07912525281974989,-0.014340441829991724,-3.758305782362113,0.1225,214,214,1,90.0,50.625,-0.29322614906137734,0.47327254023027965,10.01953125,-0.048248215502775894,-0.29322614906137734,0.47327254023027965,10.01953125,-0.048248215502775894,-0.007447944186158984,0.14207674437865034,-0.059397644829325524,9.9193359375,-2.835359867643329,0.20595884491367353,87.10174150377749,0.5,0.5,17,0.0254,0.000124,0.298,0.00145,0.99,0.00119,1.43,0.00371,0.03333333333333333,0.01,0.08008502423763275,-0.07544674724340439,-10.001148223876953,-0.06072385609149933,0.06461042910814285,-0.08233467489480972,0.05609445281145515,0.06493264071857059,-0.08531153187752487,6.954100327501006
1576107296.8991337,746,354,73,72,1280,720,0.611328125,0.5416666666666666,13.241694217637887,90,87.17040539550362,0.0,-2.674359502301435,0.111328125,0.07988818495004024,-0.01116018769978147,-3.758305782362113,0.1225,214,214,1,90.0,50.625,-0.29322614906137734,0.4778358725983715,10.01953125,-0.03754829506468532,-0.29322614906137734,0.4778358725983715,10.01953125,-0.03754829506468532,-0.007447944186158984,0.143056773227688,-0.0497243914599684,9.9193359375,-2.674359502301435,0.40190020355331846,87.17040539550362,0.5,0.5,17,0.0254,0.000124,0.298,0.00145,0.99,0.00119,1.43,0.00371,0.03333333333333333,0.01,0.07965685427188873,-0.07489140331745148,-10.00626277923584,-0.06169143691658974,0.07079757750034332,-0.23207439482212067,0.05676366278387606,0.06346134743626827,-0.23542981771588722,8.042670691095074
1576107296.913177,746,354,73,72,1280,720,0.611328125,0.5416666666666666,13.241694217637887,90,87.32935755786816,0.0,-2.4898338310239008,0.111328125,0.08165432008742404,-0.007515236168373386,-3.758305782362113,0.1225,214,214,1,90.0,50.625,-0.29322614906137734,0.48839967155094755,10.01953125,-0.025284906734714195,-0.29322614906137734,0.48839967155094755,10.01953125,-0.025284906734714195,-0.007447944186158984,0.14707485297030587,-0.03160769956022201,9.9193359375,-2.4898338310239008,0.6200818720899282,87.32935755786816,0.5,0.5,17,0.0254,0.000124,0.298,0.00145,0.99,0.00119,1.43,0.00371,0.03333333333333333,0.01,0.07965685427188873,-0.07489140331745148,-10.00626277923584,-0.06169143691658974,0.07079757750034332,-0.23207439482212067,0.05676366278387606,0.06346134743626827,-0.23542981771588722,9.90542549475034
1576107296.926846,746,354,73,72,1280,720,0.611328125,0.5416666666666666,13.241694217637887,90,87.50479779688911,0.0,-2.4432702970178086,0.111328125,0.08360365607654564,-0.0065954626571419345,-3.758305782362113,0.1225,214,214,1,90.0,50.625,-0.29322614906137734,0.5000592512989646,10.01953125,-0.022190341650197162,-0.29322614906137734,0.5000592512989646,10.01953125,-0.022190341650197162,-0.007447944186158984,0.1507082959505539,-0.030584104913426117,9.9193359375,-2.4432702970178086,0.6602998401919615,87.50479779688911,0.5,0.5,17,0.0254,0.000124,0.298,0.00145,0.99,0.00119,1.43,0.00371,0.03333333333333333,0.01,0.07965685427188873,-0.07489140331745148,-10.00626277923584,-0.06169143691658974,0.07079757750034332,-0.23207439482212067,0.05676366278387606,0.06346134743626827,-0.23542981771588722,11.041426826375092
1576107296.9367247,746,354,73,72,1280,720,0.611328125,0.5416666666666666,13.241694217637887,90,87.54919402649419,0.0,-2.433216045116138,0.111328125,0.08409694751660213,-0.006396860150442274,-3.758305782362113,0.1225,214,214,1,90.0,50.625,-0.29322614906137734,0.5030097795385547,10.01953125,-0.021522146300553446,-0.29322614906137734,0.5030097795385547,10.01953125,-0.021522146300553446,-0.007447944186158984,0.15032474089722989,-0.030528768735073607,9.9193359375,-2.433216045116138,0.6640974787313415,87.54919402649419,0.5,0.5,17,0.0254,0.000124,0.298,0.00145,0.99,0.00119,1.43,0.00371,0.03333333333333333,0.01,0.07890212535858154,-0.07407046854496002,-10.015270233154297,-0.06824050098657608,0.06844170391559601,-0.29973191022872925,0.05256882533600096,0.06766758643885094,-0.30304763184599487,11.189341403040888
1576107296.9487743,745,354,73,72,1280,720,0.610546875,0.5416666666666666,13.241694217637887,90,87.68639203635223,0.0,-2.3757043582007498,0.11054687500000004,0.08484011984835817,-0.00526082682865682,-3.758305782362113,0.1225,214,214,1,90.0,50.625,-0.29322614906137734,0.5074549224574694,9.949218750000004,-0.017699978115107057,-0.29322614906137734,0.5074549224574694,9.949218750000004,-0.017699978115107057,-0.007447944186158984,0.15186611261556848,-0.02389294430780248,9.841359375000003,-2.3757043582007498,0.711953145790183,87.68639203635223,0.5,0.5,17,0.0254,0.000124,0.298,0.00145,0.99,0.00119,1.43,0.00371,0.03333333333333333,0.01,0.07890212535858154,-0.07407046854496002,-10.015270233154297,-0.06824050098657608,0.06844170391559601,-0.29973191022872925,0.05256882533600096,0.06766758643885094,-0.30304763184599487,11.382228506522987
1576107296.959372,745,354,73,72,1280,720,0.610546875,0.5416666666666666,13.241694217637887,90,87.77624317488376,0.0,-2.3065819900265745,0.11054687500000004,0.08484011984835817,-0.00526082682865682,-3.758305782362113,0.1225,214,214,1,90.0,50.625,-0.29322614906137734,0.5074549224574694,9.949218750000004,-0.017699978115107057,-0.29322614906137734,0.5074549224574694,9.949218750000004,-0.017699978115107057,-0.007447944186158984,0.15186611261556848,-0.02389294430780248,9.841359375000003,-2.3065819900265745,0.7957919035830912,87.77624317488376,0.5,0.5,17,0.0254,0.000124,0.298,0.00145,0.99,0.00119,1.43,0.00371,0.03333333333333333,0.01,0.07890212535858154,-0.07407046854496002,-10.015270233154297,-0.06824050098657608,0.06844170391559601,-0.29973191022872925,0.05256882533600096,0.06766758643885094,-0.30304763184599487,11.307475501151782
1576107296.9701679,745,354,73,72,1280,720,0.610546875,0.5416666666666666,13.241694217637887,90,87.90846197683686,0.0,-2.1643943135364223,0.11054687500000004,0.08730756363152073,-0.0010868012550404801,-3.758305782362113,0.1225,214,214,1,90.0,50.625,-0.29322614906137734,0.5222134647118997,9.949218750000004,-0.003656527587052083,-0.29322614906137734,0.5222134647118997,9.949218750000004,-0.003656527587052083,-0.007447944186158984,0.1568937459027596,-0.001723014936938095,9.849726562500003,-2.1643943135364223,1.0196213114700816,87.90846197683686,0.5,0.5,17,0.0254,0.000124,0.298,0.00145,0.99,0.00119,1.43,0.00371,0.03333333333333333,0.01,0.07898148149251938,-0.07421793788671494,-10.023785591125488,-0.07394686341285706,0.05874462053179741,-0.2140902727842331,0.047169448350368424,0.07316100120328181,-0.21720088626915698,10.784458888099932
1576107296.983832,745,354,73,72,1280,720,0.610546875,0.5416666666666666,13.241694217637887,90,88.12083304870006,0.0,-1.9177126401513032,0.11054687500000004,0.08825938843785733,0.0009879235155108995,-3.758305782362113,0.1225,214,214,1,90.0,50.625,-0.29322614906137734,0.5279066224320438,9.949218750000004,0.0033238548185413443,-0.29322614906137734,0.5279066224320438,9.949218750000004,0.0033238548185413443,-0.007447944186158984,0.15814168135416995,0.007342834262989284,9.849726562500003,-1.9177126401513032,1.554251273823362,88.12083304870006,0.5,0.5,17,0.0254,0.000124,0.298,0.00145,0.99,0.00119,1.43,0.00371,0.03333333333333333,0.01,0.07898148149251938,-0.07421793788671494,-10.023785591125488,-0.07394686341285706,0.05874462053179741,-0.2140902727842331,0.047169448350368424,0.07316100120328181,-0.21720088626915698,10.17408671688456
1576107296.9973445,745,354,73,72,1280,720,0.610546875,0.5416666666666666,13.241694217637887,90,88.24032720822944,0.0,-1.835026370059129,0.11054687500000004,0.08966724220777852,0.003785923157505089,-3.758305782362113,0.1225,214,214,1,90.0,50.625,-0.29322614906137734,0.5363274300278341,9.949218750000004,0.012737685389736747,-0.29322614906137734,0.5363274300278341,9.949218750000004,0.012737685389736747,-0.007447944186158984,0.16104659124968418,0.021707421249237042,9.849726562500003,-1.835026370059129,1.8704122994884955,88.24032720822944,0.5,0.5,17,0.0254,0.000124,0.298,0.00145,0.99,0.00119,1.43,0.00371,0.03333333333333333,0.01,0.07898148149251938,-0.07421793788671494,-10.023785591125488,-0.07394686341285706,0.05874462053179741,-0.2140902727842331,0.047169448350368424,0.07316100120328181,-0.21720088626915698,9.831151456394682
1576107297.0086453,744,354,74,72,1280,720,0.61015625,0.5416666666666666,13.151918984428583,90,88.35258819742778,0.0,-1.8400621404681323,0.11054687500000004,0.09099495509143832,0.005419232196362846,-3.758305782362113,0.1225,214,214,1,90.0,50.625,-0.29322614906137734,0.5442688902665469,9.949218750000004,0.018232930754117985,-0.29322614906137734,0.5442688902665469,9.949218750000004,0.018232930754117985,-0.007447944186158984,0.16334364103404433,0.028111827008574158,9.849726562500003,-1.8400621404681323,2.1103867271086623,88.35258819742778,0.5,0.5,17,0.0254,0.000124,0.298,0.00145,0.99,0.00119,1.43,0.00371,0.03333333333333333,0.01,0.07891866564750671,-0.07498443126678467,-10.028189659118652,-0.08291194587945938,0.040798645466566086,-0.010523238219320774,0.037876827354921795,0.08369758653601522,-0.0144816691585334,9.438315687602337
1576107297.032437,744,354,74,72,1280,720,0.61015625,0.5416666666666666,13.151918984428583,90,88.58617383685304,0.0,-2.116494623773946,0.11015624999999996,0.09370144142508516,0.001783712228642001,-3.8480810155714167,0.1225,214,214,1,90.0,50.625,-0.30023048756906157,0.5604572197388271,9.914062499999996,0.006001274787954395,-0.30023048756906157,0.5604572197388271,9.914062499999996,0.006001274787954395,-0.007625854384254164,0.16794739961075433,0.005455403519640916,9.814921874999996,-2.116494623773946,2.231903049519182,88.58617383685304,0.5,0.5,17,0.0254,0.000124,0.298,0.00145,0.99,0.00119,1.43,0.00371,0.03333333333333333,0.01,0.07821553200483322,-0.07584262639284134,-10.026341438293457,-0.09519149363040924,0.027910135686397552,0.10879357904195786,0.029257901063926416,0.10005018726430061,0.10397294950174288,8.643169823865195
1576107297.0474267,744,354,74,72,1280,720,0.61015625,0.5416666666666666,13.151918984428583,90,88.6502068603219,0.0,-2.205264244539075,0.11015624999999996,0.09444707040947813,-0.00014063454368292566,-3.8480810155714167,0.1225,214,214,1,90.0,50.625,-0.30023048756906157,0.5649170566548224,9.914062499999996,-0.00047316295070890874,-0.30023048756906157,0.5649170566548224,9.914062499999996,-0.00047316295070890874,-0.007625854384254164,0.1689919592359564,-0.0030786394205578253,9.814921874999996,-2.205264244539075,2.183495577880598,88.6502068603219,0.5,0.5,17,0.0254,0.000124,0.298,0.00145,0.99,0.00119,1.43,0.00371,0.03333333333333333,0.01,0.07821553200483322,-0.07584262639284134,-10.026341438293457,-0.09519149363040924,0.027910135686397552,0.10879357904195786,0.029257901063926416,0.10005018726430061,0.10397294950174288,8.555016841116071
1576107297.0542974,744,354,74,72,1280,720,0.61015625,0.5416666666666666,13.151918984428583,90,88.75070626376947,0.0,-2.3011167714735064,0.11015624999999996,0.09444707040947813,-0.00014063454368292566,-3.8480810155714167,0.1225,214,214,1,90.0,50.625,-0.30023048756906157,0.5649170566548224,9.914062499999996,-0.00047316295070890874,-0.30023048756906157,0.5649170566548224,9.914062499999996,-0.00047316295070890874,-0.007625854384254164,0.1689919592359564,-0.0030786394205578253,9.814921874999996,-2.3011167714735064,2.098312233316549,88.75070626376947,0.5,0.5,17,0.0254,0.000124,0.298,0.00145,0.99,0.00119,1.43,0.00371,0.03333333333333333,0.01,0.07821553200483322,-0.07584262639284134,-10.026341438293457,-0.09519149363040924,0.027910135686397552,0.10879357904195786,0.029257901063926416,0.10005018726430061,0.10397294950174288,8.623035279965643
1576107297.067828,744,354,74,72,1280,720,0.61015625,0.5416666666666666,13.151918984428583,90,88.85163596913475,0.0,-2.3461307063116523,0.11015624999999996,0.09627520848632744,-0.003787491782192752,-3.8480810155714167,0.1225,214,214,1,90.0,50.625,-0.30023048756906157,0.5758517143107436,9.914062499999996,-0.012742963005508324,-0.30023048756906157,0.5758517143107436,9.914062499999996,-0.012742963005508324,-0.007625854384254164,0.17318933622471014,-0.022774532918207486,9.814921874999996,-2.3461307063116523,2.0365380814722496,88.85163596913475,0.5,0.5,17,0.0254,0.000124,0.298,0.00145,0.99,0.00119,1.43,0.00371,0.03333333333333333,0.01,0.0768636167049408,-0.0767890214920044,-10.022364616394043,-0.10788090527057648,0.02056395448744297,0.1349918693304062,0.023612399159606893,0.11314286490107536,0.13009656974487288,8.580876791087386
1576107297.0775912,744,354,74,72,1280,720,0.61015625,0.5416666666666666,13.151918984428583,90,88.8852678206079,0.0,-2.3544150854446433,0.11015624999999996,0.0973966496570527,-0.004676655927143787,-3.8480810155714167,0.1225,214,214,1,90.0,50.625,-0.30023048756906157,0.5825593998178853,9.914062499999996,-0.015734543306278163,-0.30023048756906157,0.5825593998178853,9.914062499999996,-0.015734543306278163,-0.007625854384254164,0.17457531554426536,-0.023610273219563382,9.814921874999996,-2.3544150854446433,2.02630773875604,88.8852678206079,0.5,0.5,17,0.0254,0.000124,0.298,0.00145,0.99,0.00119,1.43,0.00371,0.03333333333333333,0.01,0.0768636167049408,-0.0767890214920044,-10.022364616394043,-0.10788090527057648,0.02056395448744297,0.1349918693304062,0.023612399159606893,0.11314286490107536,0.13009656974487288,8.589689442663994
1576107297.0863688,744,354,74,72,1280,720,0.61015625,0.5416666666666666,13.151918984428583,90,88.99036394136688,0.0,-2.3834476582854287,0.11015624999999996,0.09777033689564321,-0.004840297984091753,-3.8480810155714167,0.1225,214,214,1,90.0,50.625,-0.30023048756906157,0.5847945384412304,9.914062499999996,-0.016285114712832064,-0.30023048756906157,0.5847945384412304,9.914062499999996,-0.016285114712832064,-0.007625854384254164,0.1745928675558717,-0.023491976031181347,9.814921874999996,-2.3834476582854287,2.0044462242135332,88.99036394136688,0.5,0.5,17,0.0254,0.000124,0.298,0.00145,0.99,0.00119,1.43,0.00371,0.03333333333333333,0.01,0.0768636167049408,-0.0767890214920044,-10.022364616394043,-0.10788090527057648,0.02056395448744297,0.1349918693304062,0.023612399159606893,0.11314286490107536,0.13009656974487288,8.808690920663992
1576107297.1016448,744,354,74,72,1280,720,0.61015625,0.5416666666666666,13.151918984428583,90,89.05898002176883,0.0,-2.415029172347098,0.11015624999999996,0.09893807157074307,-0.005413780904403566,-3.8480810155714167,0.1225,214,214,1,90.0,50.625,-0.30023048756906157,0.5917791196754725,9.914062499999996,-0.01821458995874097,-0.30023048756906157,0.5917791196754725,9.914062499999996,-0.01821458995874097,-0.007625854384254164,0.17736294194225588,-0.02676269895723179,9.814921874999996,-2.415029172347098,1.9755645558647228,89.05898002176883,0.5,0.5,17,0.0254,0.000124,0.298,0.00145,0.99,0.00119,1.43,0.00371,0.03333333333333333,0.01,0.07481636852025986,-0.07768706977367401,-10.019271850585938,-0.1252967119216919,0.018135474994778633,0.05505551025271416,0.018380897711378803,0.127375920842319,0.049967870374426876,8.833182271480364
1576107297.1127865,744,354,74,72,1280,720,0.61015625,0.5416666666666666,13.151918984428583,90,89.1994975035635,0.0,-2.5241879750017726,0.11015624999999996,0.09970047246409809,-0.0060376132809303665,-3.8480810155714167,0.1225,214,214,1,90.0,50.625,-0.30023048756906157,0.5963392745516147,9.914062499999996,-0.0203134652442517,-0.30023048756906157,0.5963392745516147,9.914062499999996,-0.0203134652442517,-0.007625854384254164,0.1783703262734218,-0.029826938030204416,9.814921874999996,-2.5241879750017726,1.8155041953073514,89.1994975035635,0.5,0.5,17,0.0254,0.000124,0.298,0.00145,0.99,0.00119,1.43,0.00371,0.03333333333333333,0.01,0.07481636852025986,-0.07768706977367401,-10.019271850585938,-0.1252967119216919,0.018135474994778633,0.05505551025271416,0.018380897711378803,0.127375920842319,0.049967870374426876,8.815484397567214
1576107297.1234286,744,354,74,72,1280,720,0.61015625,0.5416666666666666,13.151918984428583,90,89.2368518081343,0.0,-2.5558117508589318,0.11015624999999996,0.10126177781737225,-0.008193836543244931,-3.8480810155714167,0.1225,214,214,1,90.0,50.625,-0.30023048756906157,0.6056779233936284,9.914062499999996,-0.027568048182880143,-0.30023048756906157,0.6056779233936284,9.914062499999996,-0.027568048182880143,-0.007625854384254164,0.18184612525339322,-0.04211375917174976,9.814921874999996,-2.5558117508589318,1.7538054957090397,89.2368518081343,0.5,0.5,17,0.0254,0.000124,0.298,0.00145,0.99,0.00119,1.43,0.00371,0.03333333333333333,0.01,0.07481636852025986,-0.07768706977367401,-10.019271850585938,-0.1252967119216919,0.018135474994778633,0.05505551025271416,0.018380897711378803,0.127375920842319,0.049967870374426876,9.459696741025416
1576107297.134013,744,354,74,72,1280,720,0.61015625,0.5416666666666666,13.151918984428583,90,89.41798159473387,0.0,-2.654031365227596,0.11015624999999996,0.1028910814983834,-0.01024586990755371,-3.8480810155714167,0.1225,214,214,1,90.0,50.625,-0.30023048756906157,0.6154232912052838,9.914062499999996,-0.03447208567027416,-0.30023048756906157,0.6154232912052838,9.914062499999996,-0.03447208567027416,-0.007625854384254164,0.18480921911186463,-0.05185648041631523,9.814921874999996,-2.654031365227596,1.3837356011939936,89.41798159473387,0.5,0.5,17,0.0254,0.000124,0.298,0.00145,0.99,0.00119,1.43,0.00371,0.03333333333333333,0.01,0.07200811803340912,-0.07841121405363083,-10.019862174987793,-0.14209158718585968,0.019146395847201347,-0.07716172933578491,0.013967137169387647,0.14016314853276304,-0.08166851884109035,9.069805637538993
1576107297.1488528,744,354,74,72,1280,720,0.61015625,0.5416666666666666,13.151918984428583,90,89.56412032221546,0.0,-2.6591429080477043,0.11015624999999996,0.10368937883037634,-0.010758644251409342,-3.8480810155714167,0.1225,214,214,1,90.0,50.625,-0.30023048756906157,0.6201981537517837,9.914062499999996,-0.036197307761751056,-0.30023048756906157,0.6201981537517837,9.914062499999996,-0.036197307761751056,-0.007625854384254164,0.185511404887274,-0.05240220749524194,9.814921874999996,-2.6591429080477043,1.1145336201765788,89.56412032221546,0.5,0.5,17,0.0254,0.000124,0.298,0.00145,0.99,0.00119,1.43,0.00371,0.03333333333333333,0.01,0.07200811803340912,-0.07841121405363083,-10.019862174987793,-0.14209158718585968,0.019146395847201347,-0.07716172933578491,0.013967137169387647,0.14016314853276304,-0.08166851884109035,9.168573588031963
1576107297.1587155,744,354,74,72,1280,720,0.61015625,0.5416666666666666,13.151918984428583,90,89.60093504184184,0.0,-2.6578951178637076,0.11015624999999996,0.1057221949093537,-0.010834965291135,-3.8480810155714167,0.1225,214,214,1,90.0,50.625,-0.30023048756906157,0.632357053663424,9.914062499999996,-0.036454088829986915,-0.30023048756906157,0.632357053663424,9.914062499999996,-0.036454088829986915,-0.007625854384254164,0.19020544247888818,-0.05222461280319679,9.814921874999996,-2.6578951178637076,1.0613460833360433,89.60093504184184,0.5,0.5,17,0.0254,0.000124,0.298,0.00145,0.99,0.00119,1.43,0.00371,0.03333333333333333,0.01,0.07200811803340912,-0.07841121405363083,-10.019862174987793,-0.14209158718585968,0.019146395847201347,-0.07716172933578491,0.013967137169387647,0.14016314853276304,-0.08166851884109035,9.222510738133908
1576107297.167599,744,354,74,72,1280,720,0.61015625,0.5416666666666666,13.151918984428583,90,89.7107030119931,0.0,-2.6549177957158165,0.11015624999999996,0.10694183902214556,-0.010776153989448263,-3.8480810155714167,0.1225,214,214,1,90.0,50.625,-0.30023048756906157,0.6396521212539548,9.914062499999996,-0.036256219029919386,-0.30023048756906157,0.6396521212539548,9.914062499999996,-0.036256219029919386,-0.007625854384254164,0.19167411693430547,-0.051772983516959664,9.814921874999996,-2.6549177957158165,0.9341467233709553,89.7107030119931,0.5,0.5,17,0.0254,0.000124,0.298,0.00145,0.99,0.00119,1.43,0.00371,0.03333333333333333,0.01,0.07016856223344803,-0.0806732326745987,-10.024099349975586,-0.15110890567302704,0.01738567277789116,-0.14358830451965332,0.009656683856559368,0.14852954247537573,-0.1469676415249915,9.024973983374322
1576107297.1798973,744,354,74,72,1280,720,0.61015625,0.5416666666666666,13.151918984428583,90,89.77920980936834,0.0,-2.656050539900981,0.11015624999999996,0.10770302565964816,-0.010798529183229287,-3.8480810155714167,0.1225,214,214,1,90.0,50.625,-0.30023048756906157,0.6442050132913535,9.914062499999996,-0.036331500055724705,-0.30023048756906157,0.6442050132913535,9.914062499999996,-0.036331500055724705,-0.007625854384254164,0.19263326330624614,-0.0519819743402601,9.814921874999996,-2.656050539900981,0.8672999821291578,89.77920980936834,0.5,0.5,17,0.0254,0.000124,0.298,0.00145,0.99,0.00119,1.43,0.00371,0.03333333333333333,0.01,0.07016856223344803,-0.0806732326745987,-10.024099349975586,-0.15110890567302704,0.01738567277789116,-0.14358830451965332,0.009656683856559368,0.14852954247537573,-0.1469676415249915,8.680589869006756
1576107297.1960154,744,354,74,72,1280,720,0.61015625,0.5416666666666666,13.151918984428583,90,89.9930015605789,0.0,-2.726475339772513,0.11015624999999996,0.10888176452841074,-0.011235252321993135,-3.8480810155714167,0.1225,214,214,1,90.0,50.625,-0.30023048756906157,0.651255414001709,9.914062499999996,-0.037800848933808674,-0.30023048756906157,0.651255414001709,9.914062499999996,-0.037800848933808674,-0.007625854384254164,0.19509642147551085,-0.05460034240911555,9.814921874999996,-2.726475339772513,0.6631239633312032,89.9930015605789,0.5,0.5,17,0.0254,0.000124,0.298,0.00145,0.99,0.00119,1.43,0.00371,0.03333333333333333,0.01,0.07016856223344803,-0.0806732326745987,-10.024099349975586,-0.15110890567302704,0.01738567277789116,-0.14358830451965332,0.009656683856559368,0.14852954247537573,-0.1469676415249915,9.082344157307844
1576107297.2014513,744,354,74,72,1280,720,0.61015625,0.5416666666666666,13.151918984428583,90,89.9930015605789,0.0,-2.726475339772513,0.11015624999999996,0.11007848956198778,-0.01218963634118548,-3.8480810155714167,0.1225,214,214,1,90.0,50.625,-0.30023048756906157,0.6584133955109549,9.914062499999996,-0.0410118605871661,-0.30023048756906157,0.6584133955109549,9.914062499999996,-0.0410118605871661,-0.007625854384254164,0.1972450991811052,-0.05983824596304312,9.814921874999996,-2.726475339772513,0.6631239633312032,89.9930015605789,0.5,0.5,17,0.0254,0.000124,0.298,0.00145,0.99,0.00119,1.43,0.00371,0.03333333333333333,0.01,0.06710896641016006,-0.08326566219329834,-10.030405044555664,-0.15858013927936554,0.009055211208760738,-0.11226896196603775,0.003685201065197461,0.15726778175961104,-0.11439948146014603,9.082344157307844
1576107297.2141404,744,354,74,72,1280,720,0.61015625,0.5416666666666666,13.151918984428583,90,90.13324583480677,0.0,-2.8228138773550735,0.11015624999999996,0.11085014915621762,-0.013061134749949868,-3.8480810155714167,0.1225,214,214,1,90.0,50.625,-0.30023048756906157,0.6630289295325166,9.914062499999996,-0.04394400476618647,-0.30023048756906157,0.6630289295325166,9.914062499999996,-0.04394400476618647,-0.007625854384254164,0.19825187343381637,-0.0639277523060632,9.814921874999996,-2.8228138773550735,0.5017042884072935,90.13324583480677,0.5,0.5,17,0.0254,0.000124,0.298,0.00145,0.99,0.00119,1.43,0.00371,0.03333333333333333,0.01,0.06710896641016006,-0.08326566219329834,-10.030405044555664,-0.15858013927936554,0.009055211208760738,-0.11226896196603775,0.003685201065197461,0.15726778175961104,-0.11439948146014603,8.964324464865548
1576107297.2249036,744,354,74,72,1280,720,0.61015625,0.5416666666666666,13.151918984428583,90,90.13324583480677,0.0,-2.8228138773550735,0.11015624999999996,0.11163675927563076,-0.01409261979960643,-3.8480810155714167,0.1225,214,214,1,90.0,50.625,-0.30023048756906157,0.6677338872561092,9.914062499999996,-0.047414421755685186,-0.30023048756906157,0.6677338872561092,9.914062499999996,-0.047414421755685186,-0.007625854384254164,0.19966691727224145,-0.06909014781373383,9.814921874999996,-2.8228138773550735,0.5017042884072935,90.13324583480677,0.5,0.5,17,0.0254,0.000124,0.298,0.00145,0.99,0.00119,1.43,0.00371,0.03333333333333333,0.01,0.06710896641016006,-0.08326566219329834,-10.030405044555664,-0.15858013927936554,0.009055211208760738,-0.11226896196603775,0.003685201065197461,0.15726778175961104,-0.11439948146014603,8.964324464865548
1576107297.2351575,744,355,74,72,1280,720,0.61015625,0.5430555555555555,13.151918984428583,90,90.31688230083174,0.0,-2.987434029513663,0.11015624999999996,0.11163675927563076,-0.01409261979960643,-3.8480810155714167,0.1225,214,214,1,90.0,50.625,-0.30023048756906157,0.6677338872561092,9.914062499999996,-0.047414421755685186,-0.30023048756906157,0.6677338872561092,9.914062499999996,-0.047414421755685186,-0.007625854384254164,0.19966691727224145,-0.06909014781373383,9.814921874999996,-2.987434029513663,0.3047738463386793,90.31688230083174,0.5,0.5,17,0.0254,0.000124,0.298,0.00145,0.99,0.00119,1.43,0.00371,0.03333333333333333,0.01,0.06419774889945984,-0.08526401966810226,-10.033591270446777,-0.16153684258460999,0.0022955997847020626,-0.04257924109697342,0.0008857364280711166,0.16126955860925096,-0.04363207535664729,9.33701032183271
1576107297.252571,744,355,74,72,1280,720,0.61015625,0.5430555555555555,13.151918984428583,90,90.53559178824472,0.0,-3.172960750391427,0.11015624999999996,0.11529493270409885,-0.018593639137324182,-3.8480810155714167,0.1225,214,214,1,90.0,50.625,-0.30023048756906157,0.6896145507534884,9.914062499999996,-0.06255803821903463,-0.30023048756906157,0.6896145507534884,9.914062499999996,-0.06255803821903463,-0.007625854384254164,0.20690820989686032,-0.09275100025223998,9.814921874999996,-3.172960750391427,0.20837160923798054,90.53559178824472,0.5,0.5,17,0.0254,0.000124,0.298,0.00145,0.99,0.00119,1.43,0.00371,0.03333333333333333,0.01,0.06419774889945984,-0.08526401966810226,-10.033591270446777,-0.16153684258460999,0.0022955997847020626,-0.04257924109697342,0.0008857364280711166,0.16126955860925096,-0.04363207535664729,9.128158504939352
1576107297.2668142,742,364,74,72,1280,720,0.60859375,0.5555555555555556,13.151918984428583,90,90.64179439964924,0.0,-3.2240808743475644,0.11015624999999996,0.11610726986938569,-0.01962021235341095,-3.8480810155714167,0.1225,214,214,1,90.0,50.625,-0.30023048756906157,0.6944733898729611,9.914062499999996,-0.06601192941334526,-0.30023048756906157,0.6944733898729611,9.914062499999996,-0.06601192941334526,-0.007625854384254164,0.20765760185446594,-0.09567845269417295,9.814921874999996,-3.2240808743475644,0.22371732341549347,90.64179439964924,0.5,0.5,17,0.0254,0.000124,0.298,0.00145,0.99,0.00119,1.43,0.00371,0.03333333333333333,0.01,0.060981400310993195,-0.08718730509281158,-10.034650802612305,-0.16257859766483307,-0.0015906105982139707,0.0020659377332776785,4.36543455401014e-05,0.16259280391195838,0.0014753880174951351,8.94553973710072
1576107297.280046,742,364,74,72,1280,720,0.60859375,0.5555555555555556,13.151918984428583,90,90.71320402742172,0.0,-3.2379997326589924,0.10859375000000004,0.11651823919357476,-0.008404932990794894,-3.8480810155714167,0.1225,214,214,1,90.0,50.625,-0.30023048756906157,0.6969315241484846,9.773437500000004,-0.028278279221366,-0.30023048756906157,0.6969315241484846,9.773437500000004,-0.028278279221366,-0.007625854384254164,0.2080420236661993,-0.02643875506532907,9.658968750000005,-3.2379997326589924,0.24571837658830947,90.71320402742172,0.5,0.5,17,0.0254,0.000124,0.298,0.00145,0.99,0.00119,1.43,0.00371,0.03333333333333333,0.01,0.060981400310993195,-0.08718730509281158,-10.034650802612305,-0.16257859766483307,-0.0015906105982139707,0.0020659377332776785,4.36543455401014e-05,0.16259280391195838,0.0014753880174951351,8.922043886355876
1576107297.2925708,742,364,74,72,1280,720,0.60859375,0.5555555555555556,13.151918984428583,90,90.78255093806487,0.0,-3.244178065650092,0.10859375000000004,0.11728876042294308,-0.00852697413629809,-3.8480810155714167,0.1225,214,214,1,90.0,50.625,-0.30023048756906157,0.7015402492587249,9.773437500000004,-0.02868888494455432,-0.30023048756906157,0.7015402492587249,9.773437500000004,-0.02868888494455432,-0.007625854384254164,0.20972725942008488,-0.04117744019401554,9.675703125000004,-3.244178065650092,0.2592027441550749,90.78255093806487,0.5,0.5,17,0.0254,0.000124,0.298,0.00145,0.99,0.00119,1.43,0.00371,0.03333333333333333,0.01,0.060981400310993195,-0.08718730509281158,-10.034650802612305,-0.16257859766483307,-0.0015906105982139707,0.0020659377332776785,4.36543455401014e-05,0.16259280391195838,0.0014753880174951351,8.778638088315935
1576107297.3028119,740,368,74,72,1280,720,0.60703125,0.5611111111111111,13.151918984428583,90,90.89089139867961,0.0,-3.251589247786379,0.10703125000000002,0.1169300433186624,-0.0031178123019531545,-3.8480810155714167,0.1225,214,214,1,90.0,50.625,-0.30023048756906157,0.6993946516256442,9.632812500000002,-0.010489835782272295,-0.30023048756906157,0.6993946516256442,9.632812500000002,-0.010489835782272295,-0.007625854384254164,0.20810849452764527,-0.00824861792944275,9.519750000000002,-3.251589247786379,0.25675588224577073,90.89089139867961,0.5,0.5,17,0.0254,0.000124,0.298,0.00145,0.99,0.00119,1.43,0.00371,0.03333333333333333,0.01,0.05748409405350685,-0.08894477784633636,-10.035114288330078,-0.16529686748981476,-0.0005455005448311567,-0.016704527661204338,0.0010739125287772718,0.16520845716855326,-0.017532986312678557,8.987077532538153
1576107297.3140059,740,368,74,72,1280,720,0.60703125,0.5611111111111111,13.151918984428583,90,91.03517231470695,0.0,-3.2778899584025707,0.10703125000000002,0.11812987988286133,-0.0035146800220601376,-3.8480810155714167,0.1225,214,214,1,90.0,50.625,-0.30023048756906157,0.7065712441591706,9.632812500000002,-0.01182509166300607,-0.30023048756906157,0.7065712441591706,9.632812500000002,-0.01182509166300607,-0.007625854384254164,0.21159883667679416,-0.01740526100985091,9.536484375000002,-3.2778899584025707,0.2264727711370647,91.03517231470695,0.5,0.5,17,0.0254,0.000124,0.298,0.00145,0.99,0.00119,1.43,0.00371,0.03333333333333333,0.01,0.05748409405350685,-0.08894477784633636,-10.035114288330078,-0.16529686748981476,-0.0005455005448311567,-0.016704527661204338,0.0010739125287772718,0.16520845716855326,-0.017532986312678557,9.0292838327406
1576107297.3251896,740,368,74,72,1280,720,0.60703125,0.5611111111111111,13.151918984428583,90,91.03517231470695,0.0,-3.2778899584025707,0.10703125000000002,0.11853316460785508,-0.003637332511655711,-3.8480810155714167,0.1225,214,214,1,90.0,50.625,-0.30023048756906157,0.7089834144768902,9.632812500000002,-0.012237754244822952,-0.30023048756906157,0.7089834144768902,9.632812500000002,-0.012237754244822952,-0.007625854384254164,0.2116268222101826,-0.017653086387950885,9.536484375000002,-3.2778899584025707,0.2264727711370647,91.03517231470695,0.5,0.5,17,0.0254,0.000124,0.298,0.00145,0.99,0.00119,1.43,0.00371,0.03333333333333333,0.01,0.05748409405350685,-0.08894477784633636,-10.035114288330078,-0.16529686748981476,-0.0005455005448311567,-0.016704527661204338,0.0010739125287772718,0.16520845716855326,-0.017532986312678557,9.0292838327406
1576107297.3386676,734,371,72,73,1280,720,0.6015625,0.5659722222222222,13.241694217637887,90,91.21579666730794,0.0,-3.3153268655736454,0.1015625,0.11507135185897713,0.0004842841368168649,-3.758305782362113,0.1225,214,214,1,90.0,50.625,-0.29322614906137734,0.6882772447639753,9.140625,0.0016293671892903866,-0.29322614906137734,0.6882772447639753,9.140625,0.0016293671892903866,-0.007361090388663699,0.202104224331292,0.007474697132741301,8.990648437499999,-3.3153268655736454,0.2560890583476218,91.21579666730794,0.5,0.5,17,0.0254,0.000124,0.298,0.00145,0.99,0.00119,1.43,0.00371,0.03333333333333333,0.01,0.0537169948220253,-0.09042707085609436,-10.03720760345459,-0.1674613505601883,0.002383874263614416,-0.08756591379642487,0.0007673632968192732,0.16700492822660126,-0.08846208876433097,9.015782256298777
1576107297.3462787,734,371,72,73,1280,720,0.6015625,0.5659722222222222,13.241694217637887,90,91.36013905503782,0.0,-3.326222724847108,0.1015625,0.11507135185897713,0.0004842841368168649,-3.758305782362113,0.1225,214,214,1,90.0,50.625,-0.29322614906137734,0.6882772447639753,9.140625,0.0016293671892903866,-0.29322614906137734,0.6882772447639753,9.140625,0.0016293671892903866,-0.007361090388663699,0.202104224331292,0.007474697132741301,8.990648437499999,-3.326222724847108,0.347872233279754,91.36013905503782,0.5,0.5,17,0.0254,0.000124,0.298,0.00145,0.99,0.00119,1.43,0.00371,0.03333333333333333,0.01,0.0537169948220253,-0.09042707085609436,-10.03720760345459,-0.1674613505601883,0.002383874263614416,-0.08756591379642487,0.0007673632968192732,0.16700492822660126,-0.08846208876433097,9.016382459172092
1576107297.3578353,734,371,72,73,1280,720,0.6015625,0.5659722222222222,13.241694217637887,90,91.43240245645656,0.0,-3.322204652624437,0.1015625,0.11667515616708689,0.0002690572869706864,-3.758305782362113,0.1225,214,214,1,90.0,50.625,-0.29322614906137734,0.697870092962015,9.140625,0.0009052394701817487,-0.29322614906137734,0.697870092962015,9.140625,0.0009052394701817487,-0.007447944186158984,0.20935625069139618,0.0010258410585705958,9.04921875,-3.322204652624437,0.40435768427234786,91.43240245645656,0.5,0.5,17,0.0254,0.000124,0.298,0.00145,0.99,0.00119,1.43,0.00371,0.03333333333333333,0.01,0.0537169948220253,-0.09042707085609436,-10.03720760345459,-0.1674613505601883,0.002383874263614416,-0.08756591379642487,0.0007673632968192732,0.16700492822660126,-0.08846208876433097,9.031144205515782
1576107297.3679516,730,372,72,72,1280,720,0.5984375,0.5666666666666667,13.333333333333334,90,91.54021699250521,0.0,-3.313008443237249,0.1015625,0.1174780828495173,0.0003484266148259252,-3.758305782362113,0.1225,214,214,1,90.0,50.625,-0.29322614906137734,0.702672645081225,9.140625,0.0011722764610965707,-0.29322614906137734,0.702672645081225,9.140625,0.0011722764610965707,-0.007447944186158984,0.21009281829149049,0.0017754260629974951,9.04921875,-3.313008443237249,0.4837395568688377,91.54021699250521,0.5,0.5,17,0.0254,0.000124,0.298,0.00145,0.99,0.00119,1.43,0.00371,0.03333333333333333,0.01,0.050189822912216187,-0.09293921291828156,-10.042015075683594,-0.16977910697460175,0.001732093165628612,-0.10509762167930603,-0.00012493566408173975,0.16893562512206514,-0.10646217333011347,9.00029138726119
1576107297.3808784,730,372,72,72,1280,720,0.5984375,0.5666666666666667,13.333333333333334,90,91.61222767692466,0.0,-3.3079220867397052,0.09843749999999996,0.1155510221389467,0.0012245245780296288,-3.666666666666666,0.1225,214,214,1,90.0,50.625,-0.2860763888888888,0.6911463006441672,8.859374999999996,0.004119895776548283,-0.2860763888888888,0.6911463006441672,8.859374999999996,0.004119895776548283,-0.007177683251638918,0.20429027764858843,0.00698501772649663,8.737312499999996,-3.3079220867397052,0.5267921068372792,91.61222767692466,0.5,0.5,17,0.0254,0.000124,0.298,0.00145,0.99,0.00119,1.43,0.00371,0.03333333333333333,0.01,0.050189822912216187,-0.09293921291828156,-10.042015075683594,-0.16977910697460175,0.001732093165628612,-0.10509762167930603,-0.00012493566408173975,0.16893562512206514,-0.10646217333011347,9.005830670678069
1576107297.3970096,730,372,72,72,1280,720,0.5984375,0.5666666666666667,13.333333333333334,90,91.7545961399844,0.0,-3.3223615335319354,0.09843749999999996,0.1179330126664933,0.0010397721771469443,-3.666666666666666,0.1225,214,214,1,90.0,50.625,-0.2860763888888888,0.705393720622016,8.859374999999996,0.00349829891376542,-0.2860763888888888,0.705393720622016,8.859374999999996,0.00349829891376542,-0.007266340277777775,0.2115792699054795,0.004646544368143828,8.770781249999997,-3.3223615335319354,0.5641270947793325,91.7545961399844,0.5,0.5,17,0.0254,0.000124,0.298,0.00145,0.99,0.00119,1.43,0.00371,0.03333333333333333,0.01,0.050189822912216187,-0.09293921291828156,-10.042015075683594,-0.16977910697460175,0.001732093165628612,-0.10509762167930603,-0.00012493566408173975,0.16893562512206514,-0.10646217333011347,8.95725863416917
1576107297.4084854,726,369,72,72,1280,720,0.5953125,0.5625,13.333333333333334,90,91.86301173268002,0.0,-3.3547167799605204,0.09843749999999996,0.1179330126664933,0.0010397721771469443,-3.666666666666666,0.1225,214,214,1,90.0,50.625,-0.2860763888888888,0.705393720622016,8.859374999999996,0.00349829891376542,-0.2860763888888888,0.705393720622016,8.859374999999996,0.00349829891376542,-0.007266340277777775,0.2115792699054795,0.004646544368143828,8.770781249999997,-3.3547167799605204,0.54568174203889,91.86301173268002,0.5,0.5,17,0.0254,0.000124,0.298,0.00145,0.99,0.00119,1.43,0.00371,0.03333333333333333,0.01,0.04780363291501999,-0.09433799237012863,-10.044517517089844,-0.17200104892253876,-0.0019527762196958065,-0.06163805350661278,-0.0002631348137957937,0.17136411760161144,-0.06341682556067188,9.102561517251083
1576107297.4146442,726,369,72,72,1280,720,0.5953125,0.5625,13.333333333333334,90,91.9686542685726,0.0,-3.4036102622472337,0.09531250000000002,0.11601263036311138,-0.0037660104683559653,-3.666666666666666,0.1225,214,214,1,90.0,50.625,-0.2860763888888888,0.6939073217980494,8.578125000000002,-0.012670689426244369,-0.2860763888888888,0.6939073217980494,8.578125000000002,-0.012670689426244369,-0.007266340277777775,0.20511885406634356,-0.024117780553673078,8.458875000000003,-3.4036102622472337,0.505990979163417,91.9686542685726,0.5,0.5,17,0.0254,0.000124,0.298,0.00145,0.99,0.00119,1.43,0.00371,0.03333333333333333,0.01,0.04780363291501999,-0.09433799237012863,-10.044517517089844,-0.17200104892253876,-0.0019527762196958065,-0.06163805350661278,-0.0002631348137957937,0.17136411760161144,-0.06341682556067188,8.97903327724317
1576107297.4378605,726,369,72,72,1280,720,0.5953125,0.5625,13.333333333333334,90,92.10370076884209,0.0,-3.4854865145925267,0.09531250000000002,0.11868695298713433,-0.006349116337630162,-3.666666666666666,0.1225,214,214,1,90.0,50.625,-0.2860763888888888,0.7099032702034203,8.578125000000002,-0.02136151291165288,-0.2860763888888888,0.7099032702034203,8.578125000000002,-0.02136151291165288,-0.007266340277777775,0.2128525572023438,-0.032565727467491916,8.492343750000002,-3.4854865145925267,0.4711900981251442,92.10370076884209,0.5,0.5,17,0.0254,0.000124,0.298,0.00145,0.99,0.00119,1.43,0.00371,0.03333333333333333,0.01,0.0433923602104187,-0.09664372354745865,-10.045597076416016,-0.17555227875709534,-0.00960911437869072,0.03960489481687546,-0.0008631156851218293,0.1761077135736752,0.03827288335850739,8.512459639945014
1576107297.4454029,722,368,72,72,1280,720,0.5921875,0.5611111111111111,13.333333333333334,90,92.23691677841403,0.0,-3.5554577472144877,0.09218749999999998,0.11556195298713429,-0.007738005226519046,-3.666666666666666,0.1225,214,214,1,90.0,50.625,-0.2860763888888888,0.6912116814183733,8.296874999999998,-0.026034410107914546,-0.2860763888888888,0.6912116814183733,8.296874999999998,-0.026034410107914546,-0.007266340277777775,0.20327080068884343,-0.03896285131413088,8.180437499999996,-3.5554577472144877,0.49009403403532964,92.23691677841403,0.5,0.5,17,0.0254,0.000124,0.298,0.00145,0.99,0.00119,1.43,0.00371,0.03333333333333333,0.01,0.0433923602104187,-0.09664372354745865,-10.045597076416016,-0.17555227875709534,-0.00960911437869072,0.03960489481687546,-0.0008631156851218293,0.1761077135736752,0.03827288335850739,8.40185326407312
1576107297.4560452,722,368,72,72,1280,720,0.5921875,0.5611111111111111,13.333333333333334,90,92.3020631227176,0.0,-3.578778147475027,0.09218749999999998,0.11556195298713429,-0.007738005226519046,-3.666666666666666,0.1225,214,214,1,90.0,50.625,-0.2860763888888888,0.6912116814183733,8.296874999999998,-0.026034410107914546,-0.2860763888888888,0.6912116814183733,8.296874999999998,-0.026034410107914546,-0.007266340277777775,0.20327080068884343,-0.03896285131413088,8.180437499999996,-3.578778147475027,0.5106799040286307,92.3020631227176,0.5,0.5,17,0.0254,0.000124,0.298,0.00145,0.99,0.00119,1.43,0.00371,0.03333333333333333,0.01,0.0433923602104187,-0.09664372354745865,-10.045597076416016,-0.17555227875709534,-0.00960911437869072,0.03960489481687546,-0.0008631156851218293,0.1761077135736752,0.03827288335850739,8.234526436012501
1576107297.4696138,722,368,72,72,1280,720,0.5921875,0.5611111111111111,13.333333333333334,90,92.36685429718435,0.0,-3.5920912533844396,0.09218749999999998,0.11848588107982605,-0.009843777844630905,-3.666666666666666,0.1225,214,214,1,90.0,50.625,-0.2860763888888888,0.7087005971129782,8.296874999999998,-0.033119252561375004,-0.2860763888888888,0.7087005971129782,8.296874999999998,-0.033119252561375004,-0.007266340277777775,0.21181714149008432,-0.047688782862364484,8.213906249999997,-3.5920912533844396,0.5246083139327263,92.36685429718435,0.5,0.5,17,0.0254,0.000124,0.298,0.00145,0.99,0.00119,1.43,0.00371,0.03333333333333333,0.01,0.039499226957559586,-0.0984223261475563,-10.043956756591797,-0.17874492704868317,-0.011651337146759033,0.07743605971336365,0.0003801781171682162,0.17975288494342798,0.0759644770007146,8.167290907596541
1576107297.4811447,718,366,72,72,1280,720,0.5890625,0.5583333333333333,13.333333333333334,90,92.46615158733799,0.0,-3.5891722012879055,0.08906250000000004,0.11646418430375549,-0.012563895334082073,-3.666666666666666,0.1225,214,214,1,90.0,50.625,-0.2860763888888888,0.6966082051813413,8.015625000000004,-0.04227104972214529,-0.2860763888888888,0.6966082051813413,8.015625000000004,-0.04227104972214529,-0.007266340277777775,0.20583584831395232,-0.06384291784931355,7.902000000000005,-3.5891722012879055,0.514773321775584,92.46615158733799,0.5,0.5,17,0.0254,0.000124,0.298,0.00145,0.99,0.00119,1.43,0.00371,0.03333333333333333,0.01,0.039499226957559586,-0.0984223261475563,-10.043956756591797,-0.17874492704868317,-0.011651337146759033,0.07743605971336365,0.0003801781171682162,0.17975288494342798,0.0759644770007146,8.23970628072431
1576107297.4957573,718,366,72,72,1280,720,0.5890625,0.5583333333333333,13.333333333333334,90,92.5935619361154,0.0,-3.5571366930898414,0.08906250000000004,0.11646418430375549,-0.012563895334082073,-3.666666666666666,0.1225,214,214,1,90.0,50.625,-0.2860763888888888,0.6966082051813413,8.015625000000004,-0.04227104972214529,-0.2860763888888888,0.6966082051813413,8.015625000000004,-0.04227104972214529,-0.007266340277777775,0.20583584831395232,-0.06384291784931355,7.902000000000005,-3.5571366930898414,0.4382104763568847,92.5935619361154,0.5,0.5,17,0.0254,0.000124,0.298,0.00145,0.99,0.00119,1.43,0.00371,0.03333333333333333,0.01,0.039499226957559586,-0.0984223261475563,-10.043956756591797,-0.17874492704868317,-0.011651337146759033,0.07743605971336365,0.0003801781171682162,0.17975288494342798,0.0759644770007146,7.976923290144532
1576107297.5071623,718,366,72,72,1280,720,0.5890625,0.5583333333333333,13.333333333333334,90,92.69001786757433,0.0,-3.5197937010198546,0.08906250000000004,0.11787985484572679,-0.011931095172144995,-3.666666666666666,0.1225,214,214,1,90.0,50.625,-0.2860763888888888,0.7050757673015434,8.015625000000004,-0.0401420024483383,-0.2860763888888888,0.7050757673015434,8.015625000000004,-0.0401420024483383,-0.007266340277777775,0.21134037516328927,-0.05661318696254137,7.935468750000004,-3.5197937010198546,0.3619184372666059,92.69001786757433,0.5,0.5,17,0.0254,0.000124,0.298,0.00145,0.99,0.00119,1.43,0.00371,0.03333333333333333,0.01,0.035282112658023834,-0.0999845489859581,-10.042771339416504,-0.18234288692474365,-0.006775861606001854,0.013371732085943222,0.00230900780697552,0.18255875062696197,0.011858118906547513,8.005013296879856
1576107297.52171,713,366,73,72,1280,720,0.585546875,0.5583333333333333,13.241694217637887,90,92.75260289093916,0.0,-3.496111727620128,0.08906250000000004,0.11964697656599069,-0.010725663755459303,-3.666666666666666,0.1225,214,214,1,90.0,50.625,-0.2860763888888888,0.7156454673105985,8.015625000000004,-0.03608634534547055,-0.2860763888888888,0.7156454673105985,8.015625000000004,-0.03608634534547055,-0.007266340277777775,0.21479495575987134,-0.05009882505885894,7.935468750000004,-3.496111727620128,0.32093828942230784,92.75260289093916,0.5,0.5,17,0.0254,0.000124,0.298,0.00145,0.99,0.00119,1.43,0.00371,0.03333333333333333,0.01,0.035282112658023834,-0.0999845489859581,-10.042771339416504,-0.18234288692474365,-0.006775861606001854,0.013371732085943222,0.00230900780697552,0.18255875062696197,0.011858118906547513,7.963100694811718
1576107297.5276427,713,366,73,72,1280,720,0.585546875,0.5583333333333333,13.241694217637887,90,92.87941901325878,0.0,-3.4486397784544236,0.08554687500000002,0.11613135156599066,-0.010725663755459303,-3.758305782362113,0.1225,214,214,1,90.0,50.625,-0.29322614906137734,0.6946174299274208,7.699218750000002,-0.03608634534547055,-0.29322614906137734,0.6946174299274208,7.699218750000002,-0.03608634534547055,-0.007536601212297841,0.20394692869781061,-0.051603473844022876,7.584574218750001,-3.4486397784544236,0.28168740673763953,92.87941901325878,0.5,0.5,17,0.0254,0.000124,0.298,0.00145,0.99,0.00119,1.43,0.00371,0.03333333333333333,0.01,0.035282112658023834,-0.0999845489859581,-10.042771339416504,-0.18234288692474365,-0.006775861606001854,0.013371732085943222,0.00230900780697552,0.18255875062696197,0.011858118906547513,7.927803984728385
1576107297.5419016,713,366,73,72,1280,720,0.585546875,0.5583333333333333,13.241694217637887,90,92.94290562159405,0.0,-3.4267129502279787,0.08554687500000002,0.11824582635104502,-0.009354823708206977,-3.758305782362113,0.1225,214,214,1,90.0,50.625,-0.29322614906137734,0.7072647557445684,7.699218750000002,-0.03147417322387394,-0.29322614906137734,0.7072647557445684,7.699218750000002,-0.03147417322387394,-0.007447944186158984,0.21259875945536777,-0.0432969518530274,7.622226562500002,-3.4267129502279787,0.279807663972858,92.94290562159405,0.5,0.5,17,0.0254,0.000124,0.298,0.00145,0.99,0.00119,1.43,0.00371,0.03333333333333333,0.01,0.02985348179936409,-0.10172930359840393,-10.045364379882812,-0.18560297787189484,0.00047071935841813684,-0.10791629552841187,0.0032844318697778383,0.18481027144968856,-0.10921991524529859,7.888403184727521
1576107297.5509295,709,368,73,72,1280,720,0.582421875,0.5611111111111111,13.241694217637887,90,93.00831834327526,0.0,-3.400063899964116,0.08242187499999998,0.11584763436972512,-0.006050644937562785,-3.758305782362113,0.1225,214,214,1,90.0,50.625,-0.29322614906137734,0.6929204298749914,7.417968749999998,-0.020357310070304696,-0.29322614906137734,0.6929204298749914,7.417968749999998,-0.020357310070304696,-0.007447944186158984,0.20441036085165876,-0.024986597170561523,7.310320312499997,-3.400063899964116,0.28341648513428414,93.00831834327526,0.5,0.5,17,0.0254,0.000124,0.298,0.00145,0.99,0.00119,1.43,0.00371,0.03333333333333333,0.01,0.02985348179936409,-0.10172930359840393,-10.045364379882812,-0.18560297787189484,0.00047071935841813684,-0.10791629552841187,0.0032844318697778383,0.18481027144968856,-0.10921991524529859,8.104492440820152
1576107297.559812,709,368,73,72,1280,720,0.582421875,0.5611111111111111,13.241694217637887,90,93.07130634780113,0.0,-3.3677054518843574,0.08242187499999998,0.11654750108667916,-0.005411465716234215,-3.758305782362113,0.1225,214,214,1,90.0,50.625,-0.29322614906137734,0.697106548555838,7.417968749999998,-0.018206800540601097,-0.29322614906137734,0.697106548555838,7.417968749999998,-0.018206800540601097,-0.007447944186158984,0.20834473867836248,-0.02523788573753953,7.343789062499998,-3.3677054518843574,0.2846280966600209,93.07130634780113,0.5,0.5,17,0.0254,0.000124,0.298,0.00145,0.99,0.00119,1.43,0.00371,0.03333333333333333,0.01,0.02985348179936409,-0.10172930359840393,-10.045364379882812,-0.18560297787189484,0.00047071935841813684,-0.10791629552841187,0.0032844318697778383,0.18481027144968856,-0.10921991524529859,8.042522134480627
1576107297.5703685,709,368,73,72,1280,720,0.582421875,0.5611111111111111,13.241694217637887,90,93.16004416549792,0.0,-3.307743434604227,0.08242187499999998,0.11753347683886578,-0.004227030806997073,-3.758305782362113,0.1225,214,214,1,90.0,50.625,-0.29322614906137734,0.7030039736156458,7.417968749999998,-0.014221785892700432,-0.29322614906137734,0.7030039736156458,7.417968749999998,-0.014221785892700432,-0.007447944186158984,0.21035031077113456,-0.01885871339219047,7.343789062499998,-3.307743434604227,0.268471897828164,93.16004416549792,0.5,0.5,17,0.0254,0.000124,0.298,0.00145,0.99,0.00119,1.43,0.00371,0.03333333333333333,0.01,0.026964781805872917,-0.10316364467144012,-10.048870086669922,-0.187430277466774,0.0027124453336000443,-0.1538795530796051,0.0036893521257673235,0.18624659604725274,-0.15528997800451327,7.388791922414012
1576107297.5823176,704,367,72,71,1280,720,0.578125,0.5590277777777778,13.426901732747025,90,93.25108375694502,0.0,-3.244242739003796,0.078125,0.11424815285494469,-0.005056029412420643,-3.573098267252975,0.1225,214,214,1,90.0,50.625,-0.2787761043929665,0.6833534376370524,7.03125,-0.017010940079172254,-0.2787761043929665,0.6833534376370524,7.03125,-0.017010940079172254,-0.006901732497693055,0.20078999669894554,-0.025360420516397367,6.91491796875,-3.244242739003796,0.22769222670817643,93.25108375694502,0.5,0.5,17,0.0254,0.000124,0.298,0.00145,0.99,0.00119,1.43,0.00371,0.03333333333333333,0.01,0.026964781805872917,-0.10316364467144012,-10.048870086669922,-0.187430277466774,0.0027124453336000443,-0.1538795530796051,0.0036893521257673235,0.18624659604725274,-0.15528997800451327,7.525604880357599
1576107297.592753,704,367,72,71,1280,720,0.578125,0.5590277777777778,13.426901732747025,90,93.39410108797593,0.0,-3.1656712309997306,0.078125,0.11487751684146603,-0.004342270427988154,-3.573098267252975,0.1225,214,214,1,90.0,50.625,-0.2787761043929665,0.6871178577433482,7.03125,-0.014609507982016219,-0.2787761043929665,0.6871178577433482,7.03125,-0.014609507982016219,-0.007080913051581349,0.20530696252293065,-0.020000665106238304,6.9609375,-3.1656712309997306,0.13470137561320814,93.39410108797593,0.5,0.5,17,0.0254,0.000124,0.298,0.00145,0.99,0.00119,1.43,0.00371,0.03333333333333333,0.01,0.026964781805872917,-0.10316364467144012,-10.048870086669922,-0.187430277466774,0.0027124453336000443,-0.1538795530796051,0.0036893521257673235,0.18624659604725274,-0.15528997800451327,7.137124210934784
1576107297.605658,704,367,72,71,1280,720,0.578125,0.5590277777777778,13.426901732747025,90,93.39410108797593,0.0,-3.1656712309997306,0.078125,0.11583723431084363,-0.003503999624686019,-3.573098267252975,0.1225,214,214,1,90.0,50.625,-0.2787761043929665,0.6928582239153264,7.03125,-0.011789157615766044,-0.2787761043929665,0.6928582239153264,7.03125,-0.011789157615766044,-0.007080913051581349,0.20730410382170408,-0.015812145404666626,6.9609375,-3.1656712309997306,0.13470137561320814,93.39410108797593,0.5,0.5,17,0.0254,0.000124,0.298,0.00145,0.99,0.00119,1.43,0.00371,0.03333333333333333,0.01,0.021783074364066124,-0.10525433719158173,-10.055222511291504,-0.1884998083114624,-0.0007710135541856289,-0.12246352434158325,0.003611513397812802,0.18792547386718475,-0.12329257979412968,7.137124210934784
1576107297.621121,698,364,71,70,1280,720,0.573046875,0.5541666666666667,13.617363752703408,90,93.51028260575784,0.0,-3.1383003151179625,0.07304687499999996,0.11205001506397592,-0.007824450668996757,-3.382636247296592,0.1225,214,214,1,90.0,50.625,-0.2639160988776195,0.6702056975789213,6.5742187499999964,-0.026325254587278808,-0.2639160988776195,0.6702056975789213,6.5742187499999964,-0.026325254587278808,-0.006519204843101233,0.19643668155973984,-0.04303800603623993,6.454089843749997,-3.1383003151179625,0.06378302120296989,93.51028260575784,0.5,0.5,17,0.0254,0.000124,0.298,0.00145,0.99,0.00119,1.43,0.00371,0.03333333333333333,0.01,0.021783074364066124,-0.10525433719158173,-10.055222511291504,-0.1884998083114624,-0.0007710135541856289,-0.12246352434158325,0.003611513397812802,0.18792547386718475,-0.12329257979412968,7.189294903362634
1576107297.6295965,698,364,71,70,1280,720,0.573046875,0.5541666666666667,13.617363752703408,90,93.59703283840618,0.0,-3.144862419363052,0.07304687499999996,0.11301390653784638,-0.007954072481245446,-3.382636247296592,0.1225,214,214,1,90.0,50.625,-0.2639160988776195,0.6759710297590811,6.5742187499999964,-0.026761365357461313,-0.2639160988776195,0.6759710297590811,6.5742187499999964,-0.026761365357461313,-0.006703468911491536,0.20227534003432932,-0.03843054955690738,6.508476562499997,-3.144862419363052,0.016843960194658857,93.59703283840618,0.5,0.5,17,0.0254,0.000124,0.298,0.00145,0.99,0.00119,1.43,0.00371,0.03333333333333333,0.01,0.021783074364066124,-0.10525433719158173,-10.055222511291504,-0.1884998083114624,-0.0007710135541856289,-0.12246352434158325,0.003611513397812802,0.18792547386718475,-0.12329257979412968,7.128783269297729
1576107297.6425424,698,364,71,70,1280,720,0.573046875,0.5541666666666667,13.617363752703408,90,93.65338872924795,0.0,-3.1589311149493975,0.07304687499999996,0.11364008310275496,-0.008231972640975721,-3.382636247296592,0.1225,214,214,1,90.0,50.625,-0.2639160988776195,0.6797163849136745,6.5742187499999964,-0.027696356549077192,-0.2639160988776195,0.6797163849136745,6.5742187499999964,-0.027696356549077192,-0.006703468911491536,0.20309855920169104,-0.039952671597269875,6.508476562499997,-3.1589311149493975,-0.012241972665253991,93.65338872924795,0.5,0.5,17,0.0254,0.000124,0.298,0.00145,0.99,0.00119,1.43,0.00371,0.03333333333333333,0.01,0.01736968755722046,-0.10689882189035416,-10.058130264282227,-0.18908248841762543,-0.00813355017453432,-0.033928804099559784,0.0018782916268043524,0.18921025333321267,-0.034138802943506644,7.021396046959027
