time,x_bb,y_bb,w_bb,h_bb,w_im,h_im,f_u,f_v,f_delta,psi_telem_ref,psi_telem,theta_centroid_ref,theta_centroid,delta_f_u_psi,delta_f_u_y,delta_f_v_z,delta_f_delta_x,A_exp,alpha_u,alpha_v,d_exp,FOV_u,FOV_v,delta_x_tme,delta_y_tme,delta_psi_tme,delta_z_tme,prev_delta_x_tme,prev_delta_y_tme,prev_delta_psi_tme,prev_delta_z_tme,v_xr,v_yr,v_zr,yawrate,pitch_angle,roll_angle,yaw_angle,got_initial_frame,f_u_ref,f_v_ref,f_delta_ref,kp_vx,kd_vx,kp_vy,kd_vy,kp_yaw,kd_yaw,kp_vz,kd_vz,camera_period,controller_period,v_xlat,v_ylon,v_zalt,local_x,local_y,local_z,local_vx,local_vy,local_vz
1576047308.18023,698,374,74,74,1280,720,0.57421875,0.5708333333333333,12.972972972972972,90,87.04316580145546,0.0,-3.6495579037399883,0.07421875,0.04135494318106494,-0.001208955467603981,-0.027027027027028083,1225,1280,720,3.0,90.0,50.625,-0.9459459459459829,0.12406482954319481,6.6796875,-0.003626866402811943,-0.9459459459459829,0.12406482954319481,6.6796875,-0.003626866402811943,-0.024027027027027966,-0.036971513647974075,-0.005191082924133975,6.612890625,-3.6495579037399883,-0.6463126799888332,87.04316580145546,False,0.5,0.5,13,0.0254,0.0124,-0.298,-0.145,0.99,0.119,1.43,0.371,0.03333333333333333,0.01,0,0,0,0.037908971309661865,-0.03038572333753109,-10.047210693359375,-0.01965760812163353,-0.008504069410264492,0.03865070268511772
1576047308.186835,698,374,74,74,1280,720,0.57421875,0.5708333333333333,12.972972972972972,90,87.04316580145546,0.0,-3.6495579037399883,0.07421875,0.041365036682838426,-0.0012566993331356024,-0.027027027027028083,1225,1280,720,3.0,90.0,50.625,-0.9459459459459829,0.12409511004851528,6.6796875,-0.0037700979994068073,-0.9459459459459829,0.12409511004851528,6.6796875,-0.0037700979994068073,-0.024027027027027966,-0.03698038670119027,-0.0053917715283751015,6.612890625,-3.6495579037399883,-0.6463126799888332,87.04316580145546,False,0.5,0.5,13,0.0254,0.0124,-0.298,-0.145,0.99,0.119,1.43,0.371,0.03333333333333333,0.01,0,0,0,0.03982027992606163,-0.03203341364860535,-10.047771453857422,-0.022306088358163834,-0.007512823212891817,0.038783010095357895
1576047308.2046337,698,374,74,74,1280,720,0.57421875,0.5708333333333333,12.972972972972972,90,87.04294723540201,0.0,-3.6161501678489865,0.07421875,0.04136260817113345,-0.0005967934389923546,-0.027027027027028083,1225,1280,720,3.0,90.0,50.625,-0.9459459459459829,0.12408782451340035,6.6796875,-0.0017903803169770638,-0.9459459459459829,0.12408782451340035,6.6796875,-0.0017903803169770638,-0.024027027027027966,-0.036978161140967386,-0.002552899100675387,6.612890625,-3.6161501678489865,-0.6341708981612248,87.04294723540201,False,0.5,0.5,13,0.0254,0.0124,-0.298,-0.145,0.99,0.119,1.43,0.371,0.03333333333333333,0.01,0,0,0,0.03982027992606163,-0.03203341364860535,-10.047771453857422,-0.022306088358163834,-0.007512823212891817,0.038783010095357895
1576047308.2131815,698,374,74,74,1280,720,0.57421875,0.5708333333333333,12.972972972972972,90,87.04406055623673,0.0,-3.601421291790677,0.07421875,0.04137497840263033,-0.0003058526773467435,-0.027027027027028083,1225,1280,720,3.0,90.0,50.625,-0.9459459459459829,0.124124935207891,6.6796875,-0.0009175580320402305,-0.9459459459459829,0.124124935207891,6.6796875,-0.0009175580320402305,-0.024027027027027966,-0.03698928450245852,-0.0013088698151404138,6.612890625,-3.601421291790677,-0.6093458819317259,87.04406055623673,False,0.5,0.5,13,0.0254,0.0124,-0.298,-0.145,0.99,0.119,1.43,0.371,0.03333333333333333,0.01,0,0,0,0.03982027992606163,-0.03203341364860535,-10.047771453857422,-0.022306088358163834,-0.007512823212891817,0.038783010095357895
1576047308.2247303,698,374,76,74,1280,720,0.575,0.5708333333333333,12.801137929503959,90,87.04252376367347,0.0,-3.5661085734514764,0.07499999999999996,0.0421391529297052,0.0003916824997238916,-0.1988620704960411,1225,1280,720,3.0,90.0,50.625,-6.9601724673614385,0.1264174587891156,6.7499999999999964,0.0011750474991716747,-6.9601724673614385,0.1264174587891156,6.7499999999999964,0.0011750474991716747,-0.17753414475963603,-0.03767572687834922,0.001688081490336291,6.682583671874997,-3.5661085734514764,-0.5682655490861256,87.04252376367347,False,0.5,0.5,13,0.0254,0.0124,-0.298,-0.145,0.99,0.119,1.43,0.371,0.03333333333333333,0.01,0,0,0,0.04106997326016426,-0.03329448401927948,-10.048001289367676,-0.02429838478565216,-0.0075921001844108105,0.06266403198242188
1576047308.234792,698,374,76,74,1280,720,0.575,0.5708333333333333,12.801137929503959,90,87.04022198992318,0.0,-3.5351631207562644,0.07499999999999996,0.04211357766581309,0.0010029507011107969,-0.1988620704960411,1225,1280,720,3.0,90.0,50.625,-6.9601724673614385,0.12634073299743928,6.7499999999999964,0.0030088521033323906,-6.9601724673614385,0.12634073299743928,6.7499999999999964,0.0030088521033323906,-0.17678838067098052,-0.03764942718083897,0.004309461922846754,6.6824999999999966,-3.5351631207562644,-0.5507908836206181,87.04022198992318,False,0.5,0.5,13,0.0254,0.0124,-0.298,-0.145,0.99,0.119,1.43,0.371,0.03333333333333333,0.01,0,0,0,0.04106997326016426,-0.03329448401927948,-10.048001289367676,-0.02429838478565216,-0.0075921001844108105,0.06266403198242188
1576047308.245697,698,374,76,74,1280,720,0.575,0.5708333333333333,12.801137929503959,90,87.03349425359072,0.0,-3.453696039430937,0.07499999999999996,0.04203882503989682,0.002612176998895044,-0.1988620704960411,1225,1280,720,3.0,90.0,50.625,-6.9601724673614385,0.12611647511969046,6.7499999999999964,0.007836530996685132,-6.9601724673614385,0.12611647511969046,6.7499999999999964,0.007836530996685132,-0.17678838067098052,-0.03758238441174502,0.011224150013954076,6.6824999999999966,-3.453696039430937,-0.5308263473983766,87.03349425359072,False,0.5,0.5,13,0.0254,0.0124,-0.298,-0.145,0.99,0.119,1.43,0.371,0.03333333333333333,0.01,0,0,0,0.04106997326016426,-0.03329448401927948,-10.048001289367676,-0.02429838478565216,-0.0075921001844108105,0.06266403198242188
1576047308.2561533,700,374,74,74,1280,720,0.57578125,0.5708333333333333,12.972972972972972,90,87.03287270637625,0.0,-3.3158250424962334,0.07578125000000002,0.042813168959736164,0.00533555471612375,-0.027027027027028083,1225,1280,720,3.0,90.0,50.625,-0.9459459459459829,0.1284395068792085,6.820312500000002,0.01600666414837125,-0.9459459459459829,0.1284395068792085,6.820312500000002,0.01600666414837125,-0.02328126293837245,-0.03827834144605543,0.02291984092616364,6.752193046875002,-3.3158250424962334,-0.5178175584329998,87.03287270637625,False,0.5,0.5,13,0.0254,0.0124,-0.298,-0.145,0.99,0.119,1.43,0.371,0.03333333333333333,0.01,0,0,0,0.042097076773643494,-0.034638918936252594,-10.045865058898926,-0.026476489380002022,-0.014746466651558876,0.20335839688777924
1576047308.2731328,700,374,74,74,1280,720,0.57578125,0.5708333333333333,12.972972972972972,90,87.0299425552223,0.0,-3.0475674418532783,0.07578125000000002,0.042792223046281386,0.007773805764833677,-0.027027027027028083,1225,1280,720,3.0,90.0,50.625,-0.9459459459459829,0.12837666913884416,6.820312500000002,0.023321417294501032,-0.9459459459459829,0.12837666913884416,6.820312500000002,0.023321417294501032,-0.024027027027027966,-0.038256156288652025,0.033376764465308614,6.752109375000002,-3.0475674418532783,-0.4931103629666836,87.0299425552223,False,0.5,0.5,13,0.0254,0.0124,-0.298,-0.145,0.99,0.119,1.43,0.371,0.03333333333333333,0.01,0,0,0,0.042097076773643494,-0.034638918936252594,-10.045865058898926,-0.026476489380002022,-0.014746466651558876,0.20335839688777924
1576047308.282943,700,374,74,74,1280,720,0.57578125,0.5708333333333333,12.972972972972972,90,87.0283511211457,0.0,-2.8085932100596955,0.07578125000000002,0.04276292912384118,0.015354948937092404,-0.027027027027028083,1225,1280,720,3.0,90.0,50.625,-0.9459459459459829,0.12828878737152355,6.820312500000002,0.04606484681127721,-0.9459459459459829,0.12828878737152355,6.820312500000002,0.04606484681127721,-0.024027027027027966,-0.03822993120815141,0.06595710906363365,6.752109375000002,-2.8085932100596955,-0.478698503735398,87.0283511211457,False,0.5,0.5,13,0.0254,0.0124,-0.298,-0.145,0.99,0.119,1.43,0.371,0.03333333333333333,0.01,0,0,0,0.042097076773643494,-0.034638918936252594,-10.045865058898926,-0.026476489380002022,-0.014746466651558876,0.20335839688777924
1576047308.302626,700,373,75,74,1280,720,0.576171875,0.5694444444444444,12.886196260109267,90,87.02724463050016,0.0,-2.4119619905229395,0.07578125000000002,0.04275063478333518,0.02318963969337401,-0.027027027027028083,1225,1280,720,3.0,90.0,50.625,-0.9459459459459829,0.12825190435000552,6.820312500000002,0.06956891908012203,-0.9459459459459829,0.12825190435000552,6.820312500000002,0.06956891908012203,-0.024027027027027966,-0.03821902953183351,0.09951714804117348,6.752109375000002,-2.4119619905229395,-0.4380698971899441,87.02724463050016,False,0.5,0.5,13,0.0254,0.0124,-0.298,-0.145,0.99,0.119,1.43,0.371,0.03333333333333333,0.01,0,0,0,0.04288990795612335,-0.03632982075214386,-10.03740406036377,-0.02990506775677204,-0.028279878199100494,0.4276387691497803
1576047308.312303,700,373,75,74,1280,720,0.576171875,0.5694444444444444,12.886196260109267,90,87.0260971587196,0.0,-2.2118077792073585,0.076171875,0.04312851009688438,0.025754414237879317,-0.11380373989073256,1225,1280,720,3.0,90.0,50.625,-3.9831308961756395,0.12938553029065314,6.85546875,0.07726324271363795,-3.9831308961756395,0.12938553029065314,6.85546875,0.07726324271363795,-0.10154813569668972,-0.03855853178422857,0.11051498302118261,6.7869558984375,-2.2118077792073585,-0.4060443141105179,87.0260971587196,False,0.5,0.5,13,0.0254,0.0124,-0.298,-0.145,0.99,0.119,1.43,0.371,0.03333333333333333,0.01,0,0,0,0.04288990795612335,-0.03632982075214386,-10.03740406036377,-0.02990506775677204,-0.028279878199100494,0.4276387691497803
1576047308.3207614,700,373,75,74,1280,720,0.576171875,0.5694444444444444,12.886196260109267,90,87.02933466838618,0.0,-2.0976793736012653,0.076171875,0.04312851009688438,0.025754414237879317,-0.11380373989073256,1225,1280,720,3.0,90.0,50.625,-3.9831308961756395,0.12938553029065314,6.85546875,0.07726324271363795,-3.9831308961756395,0.12938553029065314,6.85546875,0.07726324271363795,-0.10154813569668972,-0.03855853178422857,0.11051498302118261,6.7869558984375,-2.0976793736012653,-0.38420070213415597,87.02933466838618,False,0.5,0.5,13,0.0254,0.0124,-0.298,-0.145,0.99,0.119,1.43,0.371,0.03333333333333333,0.01,0,0,0,0.04341732710599899,-0.03838861361145973,-10.022801399230957,-0.03373906388878822,-0.03836561739444733,0.5606216192245483
1576047308.3335178,701,372,75,74,1280,720,0.576953125,0.5680555555555555,12.886196260109267,90,87.03255168748525,0.0,-1.9963020774019393,0.076171875,0.043164482426513155,0.028008802496765108,-0.11380373989073256,1225,1280,720,3.0,90.0,50.625,-3.9831308961756395,0.12949344727953946,6.85546875,0.08402640749029533,-3.9831308961756395,0.12949344727953946,6.85546875,0.08402640749029533,-0.10117152476286125,-0.03858920376893664,0.12018285405244371,6.7869140625,-1.9963020774019393,-0.3638102129037143,87.03255168748525,False,0.5,0.5,13,0.0254,0.0124,-0.298,-0.145,0.99,0.119,1.43,0.371,0.03333333333333333,0.01,0,0,0,0.04341732710599899,-0.03838861361145973,-10.022801399230957,-0.03373906388878822,-0.03836561739444733,0.5606216192245483
1576047308.3511553,701,372,75,74,1280,720,0.576953125,0.5680555555555555,12.886196260109267,90,87.03726451801256,0.0,-1.8505048593788471,0.07695312499999996,0.044033841866806214,0.03150237314807214,-0.11380373989073256,1225,1280,720,3.0,90.0,50.625,-3.9831308961756395,0.13210152560041866,6.9257812499999964,0.09450711944421641,-3.9831308961756395,0.13210152560041866,6.9257812499999964,0.09450711944421641,-0.10117152476286125,-0.039366482415733574,0.1351772345936067,6.856523437499996,-1.8505048593788471,-0.3472673079709583,87.03726451801256,False,0.5,0.5,13,0.0254,0.0124,-0.298,-0.145,0.99,0.119,1.43,0.371,0.03333333333333333,0.01,0,0,0,0.04341732710599899,-0.03838861361145973,-10.022801399230957,-0.03373906388878822,-0.03836561739444733,0.5606216192245483
1576047308.3706572,702,372,74,74,1280,720,0.57734375,0.5680555555555555,12.972972972972972,90,87.04343900902225,0.0,-1.6076038024210357,0.07695312499999996,0.04410244732246941,0.036300418717609154,-0.11380373989073256,1225,1280,720,3.0,90.0,50.625,-3.9831308961756395,0.13230734196740823,6.9257812499999964,0.10890125615282746,-3.9831308961756395,0.13230734196740823,6.9257812499999964,0.10890125615282746,-0.10117152476286125,-0.039427886340019785,0.15578219854573222,6.856523437499996,-1.6076038024210357,-0.34222660168306246,87.04343900902225,False,0.5,0.5,13,0.0254,0.0124,-0.298,-0.145,0.99,0.119,1.43,0.371,0.03333333333333333,0.01,0,0,0,0.04369218647480011,-0.04073483869433403,-10.005361557006836,-0.03791319578886032,-0.04775096848607063,0.6071879267692566
1576047308.3734677,702,372,74,74,1280,720,0.57734375,0.5680555555555555,12.972972972972972,90,87.04944957549186,0.0,-1.5251206237349635,0.07734375000000004,0.0444930723224695,0.036300418717609154,-0.027027027027028083,1225,1280,720,3.0,90.0,50.625,-0.9459459459459829,0.1334792169674085,6.9609375000000036,0.10890125615282746,-0.9459459459459829,0.1334792169674085,6.9609375000000036,0.10890125615282746,-0.02365041609319949,-0.03977850587503773,0.15572879629854328,6.891369960937504,-1.5251206237349635,-0.3363336158527959,87.04944957549186,False,0.5,0.5,13,0.0254,0.0124,-0.298,-0.145,0.99,0.119,1.43,0.371,0.03333333333333333,0.01,0,0,0,0.04369218647480011,-0.04073483869433403,-10.005361557006836,-0.03791319578886032,-0.04775096848607063,0.6071879267692566
1576047308.3849924,702,372,74,74,1280,720,0.57734375,0.5680555555555555,12.972972972972972,90,87.05714719868648,0.0,-1.4625082796134565,0.07734375000000004,0.044645385540960925,0.03916650311874652,-0.027027027027028083,1225,1280,720,3.0,90.0,50.625,-0.9459459459459829,0.13393615662288277,6.9609375000000036,0.11749950935623955,-0.9459459459459829,0.13393615662288277,6.9609375000000036,0.11749950935623955,-0.024027027027027966,-0.03991363723611951,0.1680561978988072,6.891328125000004,-1.4625082796134565,-0.32618651606709576,87.05714719868648,False,0.5,0.5,13,0.0254,0.0124,-0.298,-0.145,0.99,0.119,1.43,0.371,0.03333333333333333,0.01,0,0,0,0.04369218647480011,-0.04073483869433403,-10.005361557006836,-0.03791319578886032,-0.04775096848607063,0.6071879267692566
1576047308.3982267,702,372,74,74,1280,720,0.57734375,0.5680555555555555,12.972972972972972,90,87.06588301063492,0.0,-1.4074760580884886,0.07734375000000004,0.04474245011816582,0.04025355934640021,-0.027027027027028083,1225,1280,720,3.0,90.0,50.625,-0.9459459459459829,0.13422735035449745,6.9609375000000036,0.12076067803920063,-0.9459459459459829,0.13422735035449745,6.9609375000000036,0.12076067803920063,-0.024027027027027966,-0.040000172636551076,0.17269986853187067,6.891328125000004,-1.4074760580884886,-0.29738835745305925,87.06588301063492,False,0.5,0.5,13,0.0254,0.0124,-0.298,-0.145,0.99,0.119,1.43,0.371,0.03333333333333333,0.01,0,0,0,0.04468437284231186,-0.04424674063920975,-9.985419273376465,-0.039989836513996124,-0.057117100805044174,0.4933677017688751
1576047308.4079397,702,372,74,74,1280,720,0.57734375,0.5680555555555555,12.972972972972972,90,87.07573214341808,0.0,-1.371839652815653,0.07734375000000004,0.04474245011816582,0.04025355934640021,-0.027027027027028083,1225,1280,720,3.0,90.0,50.625,-0.9459459459459829,0.13422735035449745,6.9609375000000036,0.12076067803920063,-0.9459459459459829,0.13422735035449745,6.9609375000000036,0.12076067803920063,-0.024027027027027966,-0.040000172636551076,0.17269986853187067,6.891328125000004,-1.371839652815653,-0.26053737912715125,87.07573214341808,False,0.5,0.5,13,0.0254,0.0124,-0.298,-0.145,0.99,0.119,1.43,0.371,0.03333333333333333,0.01,0,0,0,0.04468437284231186,-0.04424674063920975,-9.985419273376465,-0.039989836513996124,-0.057117100805044174,0.4933677017688751
1576047308.4208689,702,372,74,74,1280,720,0.57734375,0.5680555555555555,12.972972972972972,90,87.08691316308939,0.0,-1.2444409367041651,0.07734375000000004,0.04494932895902639,0.04213935560349304,-0.027027027027028083,1225,1280,720,3.0,90.0,50.625,-0.9459459459459829,0.13484798687707916,6.9609375000000036,0.12641806681047912,-0.9459459459459829,0.13484798687707916,6.9609375000000036,0.12641806681047912,-0.024027027027027966,-0.04018512397090948,0.180790989721634,6.891328125000004,-1.2444409367041651,-0.23476176598383053,87.08691316308939,False,0.5,0.5,13,0.0254,0.0124,-0.298,-0.145,0.99,0.119,1.43,0.371,0.03333333333333333,0.01,0,0,0,0.045225657522678375,-0.047295454889535904,-9.973505020141602,-0.042696092277765274,-0.06476808339357376,0.37276753783226013
1576047308.4363186,702,372,74,74,1280,720,0.57734375,0.5680555555555555,12.972972972972972,90,87.09831957900332,0.0,-1.0992216167178797,0.07734375000000004,0.04497611847877107,0.04347400618855968,-0.027027027027028083,1225,1280,720,3.0,90.0,50.625,-0.9459459459459829,0.1349283554363132,6.9609375000000036,0.13042201856567903,-0.9459459459459829,0.1349283554363132,6.9609375000000036,0.13042201856567903,-0.024027027027027966,-0.04020876645443223,0.1865183412099328,6.891328125000004,-1.0992216167178797,-0.25533829782787576,87.09831957900332,False,0.5,0.5,13,0.0254,0.0124,-0.298,-0.145,0.99,0.119,1.43,0.371,0.03333333333333333,0.01,0,0,0,0.045225657522678375,-0.047295454889535904,-9.973505020141602,-0.042696092277765274,-0.06476808339357376,0.37276753783226013
1576047308.4539676,703,372,75,74,1280,720,0.578515625,0.5680555555555555,12.886196260109267,90,87.1103270515642,0.0,-0.9071730256781055,0.07851562499999998,0.046408147795157735,0.05013608838166703,-0.11380373989073256,1225,1280,720,3.0,90.0,50.625,-3.9831308961756395,0.1392244433854732,7.066406249999998,0.15040826514500108,-3.9831308961756395,0.1392244433854732,7.066406249999998,0.15040826514500108,-0.10154813569668972,-0.04149422013595575,0.21510326828917492,6.995867695312499,-0.9071730256781055,-0.2890214824414994,87.1103270515642,False,0.5,0.5,13,0.0254,0.0124,-0.298,-0.145,0.99,0.119,1.43,0.371,0.03333333333333333,0.01,0,0,0,0.04551294445991516,-0.05054743215441704,-9.965507507324219,-0.045693717896938324,-0.0722755566239357,0.24827086925506592
1576047308.4652944,703,372,75,74,1280,720,0.578515625,0.5680555555555555,12.886196260109267,90,87.1170889388425,0.0,-0.8475345352490516,0.07851562499999998,0.046408147795157735,0.05013608838166703,-0.11380373989073256,1225,1280,720,3.0,90.0,50.625,-3.9831308961756395,0.1392244433854732,7.066406249999998,0.15040826514500108,-3.9831308961756395,0.1392244433854732,7.066406249999998,0.15040826514500108,-0.10154813569668972,-0.04149422013595575,0.21510326828917492,6.995867695312499,-0.8475345352490516,-0.293737354537423,87.1170889388425,False,0.5,0.5,13,0.0254,0.0124,-0.298,-0.145,0.99,0.119,1.43,0.371,0.03333333333333333,0.01,0,0,0,0.04551294445991516,-0.05054743215441704,-9.965507507324219,-0.045693717896938324,-0.0722755566239357,0.24827086925506592
1576047308.4701936,703,372,75,74,1280,720,0.578515625,0.5680555555555555,12.886196260109267,90,87.1170889388425,0.0,-0.8475345352490516,0.07851562499999998,0.04648327987602775,0.051314132637055754,-0.11380373989073256,1225,1280,720,3.0,90.0,50.625,-3.9831308961756395,0.13944983962808327,7.066406249999998,0.15394239791116726,-3.9831308961756395,0.13944983962808327,7.066406249999998,0.15394239791116726,-0.10117152476286125,-0.04155637903372059,0.22015074064553167,6.9957421874999985,-0.8475345352490516,-0.293737354537423,87.1170889388425,False,0.5,0.5,13,0.0254,0.0124,-0.298,-0.145,0.99,0.119,1.43,0.371,0.03333333333333333,0.01,0,0,0,0.04551294445991516,-0.05054743215441704,-9.965507507324219,-0.045693717896938324,-0.0722755566239357,0.24827086925506592
1576047308.4811492,704,372,74,74,1280,720,0.57890625,0.5680555555555555,12.972972972972972,90,87.1380439592161,0.0,-0.8452081621455747,0.07851562499999998,0.0466226157350961,0.05172224803442094,-0.11380373989073256,1225,1280,720,3.0,90.0,50.625,-3.9831308961756395,0.1398678472052883,7.066406249999998,0.1551667441032628,-3.9831308961756395,0.1398678472052883,7.066406249999998,0.1551667441032628,-0.10117152476286125,-0.04168122457816286,0.22189298639203847,6.9957421874999985,-0.8452081621455747,-0.2462787989457943,87.1380439592161,False,0.5,0.5,13,0.0254,0.0124,-0.298,-0.145,0.99,0.119,1.43,0.371,0.03333333333333333,0.01,0,0,0,0.04551294445991516,-0.05054743215441704,-9.965507507324219,-0.045693717896938324,-0.0722755566239357,0.24827086925506592
1576047308.489354,704,372,74,74,1280,720,0.57890625,0.5680555555555555,12.972972972972972,90,87.1380439592161,0.0,-0.8452081621455747,0.07890624999999996,0.04710673843573446,0.051360085686013315,-0.027027027027028083,1225,1280,720,3.0,90.0,50.625,-0.9459459459459829,0.14132021530720337,7.1015624999999964,0.15408025705803996,-0.9459459459459829,0.14132021530720337,7.1015624999999964,0.15408025705803996,-0.02365041609319949,-0.04211553009529438,0.22033073672605935,7.030588710937496,-0.8452081621455747,-0.2462787989457943,87.1380439592161,False,0.5,0.5,13,0.0254,0.0124,-0.298,-0.145,0.99,0.119,1.43,0.371,0.03333333333333333,0.01,0,0,0,0.04555781930685043,-0.0540660060942173,-9.961615562438965,-0.04844755306839943,-0.08294811844825745,0.11739686876535416
1576047308.5029337,704,372,74,74,1280,720,0.57890625,0.5680555555555555,12.972972972972972,90,87.15947026264243,0.0,-0.8585518971845467,0.07890624999999996,0.04724258330922685,0.05089047434316263,-0.027027027027028083,1225,1280,720,3.0,90.0,50.625,-0.9459459459459829,0.14172774992768056,7.1015624999999964,0.15267142302948788,-0.9459459459459829,0.14172774992768056,7.1015624999999964,0.15267142302948788,-0.024027027027027966,-0.04223546040364849,0.21831490815792176,7.030546874999996,-0.8585518971845467,-0.18130311598997043,87.15947026264243,False,0.5,0.5,13,0.0254,0.0124,-0.298,-0.145,0.99,0.119,1.43,0.371,0.03333333333333333,0.01,0,0,0,0.04555781930685043,-0.0540660060942173,-9.961615562438965,-0.04844755306839943,-0.08294811844825745,0.11739686876535416
1576047308.5169184,704,372,74,74,1280,720,0.57890625,0.5680555555555555,12.972972972972972,90,87.17379316933194,0.0,-0.790421987513286,0.07890624999999996,0.047503951881466,0.0524422817281326,-0.027027027027028083,1225,1280,720,3.0,90.0,50.625,-0.9459459459459829,0.142511855644398,7.1015624999999964,0.15732684518439782,-0.9459459459459829,0.142511855644398,7.1015624999999964,0.15732684518439782,-0.024027027027027966,-0.04246966993531984,0.2249946602298836,7.030546874999996,-0.790421987513286,-0.18419516749494194,87.17379316933194,False,0.5,0.5,13,0.0254,0.0124,-0.298,-0.145,0.99,0.119,1.43,0.371,0.03333333333333333,0.01,0,0,0,0.04555781930685043,-0.0540660060942173,-9.961615562438965,-0.04844755306839943,-0.08294811844825745,0.11739686876535416
1576047308.5265715,704,372,74,74,1280,720,0.57890625,0.5680555555555555,12.972972972972972,90,87.18028867923263,0.0,-0.7201118067537632,0.07890624999999996,0.047576124213695864,0.05383112480486392,-0.027027027027028083,1225,1280,720,3.0,90.0,50.625,-0.9459459459459829,0.1427283726410876,7.1015624999999964,0.16149337441459177,-0.9459459459459829,0.1427283726410876,7.1015624999999964,0.16149337441459177,-0.024027027027027966,-0.042533368996689296,0.23095098323631025,7.030546874999996,-0.7201118067537632,-0.20818159124083668,87.18028867923263,False,0.5,0.5,13,0.0254,0.0124,-0.298,-0.145,0.99,0.119,1.43,0.371,0.03333333333333333,0.01,0,0,0,0.04538096487522125,-0.05789445340633392,-9.961874961853027,-0.05173935368657112,-0.09341848641633987,-0.008865348994731903
1576047308.5374722,704,372,74,74,1280,720,0.57890625,0.5680555555555555,12.972972972972972,90,87.19439301986871,0.0,-0.592608343288051,0.07890624999999996,0.047576124213695864,0.05383112480486392,-0.027027027027028083,1225,1280,720,3.0,90.0,50.625,-0.9459459459459829,0.1427283726410876,7.1015624999999964,0.16149337441459177,-0.9459459459459829,0.1427283726410876,7.1015624999999964,0.16149337441459177,-0.024027027027027966,-0.042533368996689296,0.23095098323631025,7.030546874999996,-0.592608343288051,-0.27598222442912196,87.19439301986871,False,0.5,0.5,13,0.0254,0.0124,-0.298,-0.145,0.99,0.119,1.43,0.371,0.03333333333333333,0.01,0,0,0,0.04538096487522125,-0.05789445340633392,-9.961874961853027,-0.05173935368657112,-0.09341848641633987,-0.008865348994731903
1576047308.5543604,704,372,74,74,1280,720,0.57890625,0.5680555555555555,12.972972972972972,90,87.20105928449864,0.0,-0.5583646562756631,0.07890624999999996,0.04780690871665152,0.05702613024640663,-0.027027027027028083,1225,1280,720,3.0,90.0,50.625,-0.9459459459459829,0.14342072614995455,7.1015624999999964,0.1710783907392199,-0.9459459459459829,0.14342072614995455,7.1015624999999964,0.1710783907392199,-0.024027027027027966,-0.042739698595476903,0.24464962729508835,7.030546874999996,-0.5583646562756631,-0.3000264379786973,87.20105928449864,False,0.5,0.5,13,0.0254,0.0124,-0.298,-0.145,0.99,0.119,1.43,0.371,0.03333333333333333,0.01,0,0,0,0.04511679708957672,-0.06305226683616638,-9.966252326965332,-0.055202048271894455,-0.10891178250312805,-0.046962134540081024
1576047308.561771,704,372,74,74,1280,720,0.57890625,0.5680555555555555,12.972972972972972,90,87.21247253060173,0.0,-0.5445070028625006,0.07890624999999996,0.04788211668851241,0.057347110137860306,-0.027027027027028083,1225,1280,720,3.0,90.0,50.625,-0.9459459459459829,0.14364635006553722,7.1015624999999964,0.1720413304135809,-0.9459459459459829,0.14364635006553722,7.1015624999999964,0.1720413304135809,-0.024027027027027966,-0.04280693947420768,0.24602267499761257,7.030546874999996,-0.5445070028625006,-0.3010674548577425,87.21247253060173,False,0.5,0.5,13,0.0254,0.0124,-0.298,-0.145,0.99,0.119,1.43,0.371,0.03333333333333333,0.01,0,0,0,0.04511679708957672,-0.06305226683616638,-9.966252326965332,-0.055202048271894455,-0.10891178250312805,-0.046962134540081024
1576047308.5721984,704,372,74,74,1280,720,0.57890625,0.5680555555555555,12.972972972972972,90,87.2163520780503,0.0,-0.5484088017867234,0.07890624999999996,0.0479337225622414,0.05729986167185182,-0.027027027027028083,1225,1280,720,3.0,90.0,50.625,-0.9459459459459829,0.14380116768672419,7.1015624999999964,0.17189958501555547,-0.9459459459459829,0.14380116768672419,7.1015624999999964,0.17189958501555547,-0.024027027027027966,-0.04285297245619452,0.24581588069681762,7.030546874999996,-0.5484088017867234,-0.27849821532334607,87.2163520780503,False,0.5,0.5,13,0.0254,0.0124,-0.298,-0.145,0.99,0.119,1.43,0.371,0.03333333333333333,0.01,0,0,0,0.04511679708957672,-0.06305226683616638,-9.966252326965332,-0.055202048271894455,-0.10891178250312805,-0.046962134540081024
1576047308.5839083,706,372,74,74,1280,720,0.58046875,0.5680555555555555,12.972972972972972,90,87.22339400308458,0.0,-0.5476181006685886,0.08046874999999998,0.049617572256495296,0.05723840788802786,-0.027027027027028083,1225,1280,720,3.0,90.0,50.625,-0.9459459459459829,0.1488527167694859,7.242187499999998,0.17171522366408357,-0.9459459459459829,0.1488527167694859,7.242187499999998,0.17171522366408357,-0.024027027027027966,-0.0443654343434768,0.24555208585902555,7.169932968749999,-0.5476181006685886,-0.2416939544241439,87.22339400308458,False,0.5,0.5,13,0.0254,0.0124,-0.298,-0.145,0.99,0.119,1.43,0.371,0.03333333333333333,0.01,0,0,0,0.04511679708957672,-0.06305226683616638,-9.966252326965332,-0.055202048271894455,-0.10891178250312805,-0.046962134540081024
1576047308.5997992,706,372,74,74,1280,720,0.58046875,0.5680555555555555,12.972972972972972,90,87.23098917344164,0.0,-0.5173908850532856,0.08046874999999998,0.049670240604095264,0.057617156634086605,-0.027027027027028083,1225,1280,720,3.0,90.0,50.625,-0.9459459459459829,0.1490107218122858,7.242187499999998,0.1728514699022598,-0.9459459459459829,0.1490107218122858,7.242187499999998,0.1728514699022598,-0.024027027027027966,-0.04440542420737323,0.24718181743377513,7.169765624999998,-0.5173908850532856,-0.19051552039601025,87.23098917344164,False,0.5,0.5,13,0.0254,0.0124,-0.298,-0.145,0.99,0.119,1.43,0.371,0.03333333333333333,0.01,0,0,0,0.04543544352054596,-0.06740876287221909,-9.967472076416016,-0.05900486931204796,-0.12397325783967972,0.11473621428012848
1576047308.6157844,706,372,74,74,1280,720,0.58046875,0.5680555555555555,12.972972972972972,90,87.23098917344164,0.0,-0.5173908850532856,0.08046874999999998,0.049701963038240454,0.05783548869030545,-0.027027027027028083,1225,1280,720,3.0,90.0,50.625,-0.9459459459459829,0.14910588911472136,7.242187499999998,0.17350646607091635,-0.9459459459459829,0.14910588911472136,7.242187499999998,0.17350646607091635,-0.024027027027027966,-0.04443369294877549,0.24811667651719607,7.169765624999998,-0.5173908850532856,-0.19051552039601025,87.23098917344164,False,0.5,0.5,13,0.0254,0.0124,-0.298,-0.145,0.99,0.119,1.43,0.371,0.03333333333333333,0.01,0,0,0,0.04543544352054596,-0.06740876287221909,-9.967472076416016,-0.05900486931204796,-0.12397325783967972,0.11473621428012848
1576047308.619258,706,372,74,74,1280,720,0.58046875,0.5680555555555555,12.972972972972972,90,87.23804475885426,0.0,-0.47447408509459804,0.08046874999999998,0.04978035843171395,0.05868322794874866,-0.027027027027028083,1225,1280,720,3.0,90.0,50.625,-0.9459459459459829,0.14934107529514185,7.242187499999998,0.17604968384624597,-0.9459459459459829,0.14934107529514185,7.242187499999998,0.17604968384624597,-0.024027027027027966,-0.04450398145791388,0.2517604832380782,7.169765624999998,-0.47447408509459804,-0.16091058570690567,87.23804475885426,False,0.5,0.5,13,0.0254,0.0124,-0.298,-0.145,0.99,0.119,1.43,0.371,0.03333333333333333,0.01,0,0,0,0.04543544352054596,-0.06740876287221909,-9.967472076416016,-0.05900486931204796,-0.12397325783967972,0.11473621428012848
1576047308.6346614,706,372,74,74,1280,720,0.58046875,0.5680555555555555,12.972972972972972,90,87.24667128777598,0.0,-0.357442235441441,0.08046874999999998,0.04979872405148217,0.059390700102424275,-0.027027027027028083,1225,1280,720,3.0,90.0,50.625,-0.9459459459459829,0.1493961721544465,7.242187499999998,0.17817210030727282,-0.9459459459459829,0.1493961721544465,7.242187499999998,0.17817210030727282,-0.024027027027027966,-0.04452013919247105,0.25479397760447053,7.169765624999998,-0.357442235441441,-0.13828601096806156,87.24667128777598,False,0.5,0.5,13,0.0254,0.0124,-0.298,-0.145,0.99,0.119,1.43,0.371,0.03333333333333333,0.01,0,0,0,0.045419447124004364,-0.07226294279098511,-9.96191692352295,-0.06424600630998611,-0.13961395621299744,0.3556104898452759
1576047308.642892,706,372,74,74,1280,720,0.58046875,0.5680555555555555,12.972972972972972,90,87.24859057093276,0.0,-0.32709012874994725,0.08046874999999998,0.049897534121475115,0.06159451597530966,-0.027027027027028083,1225,1280,720,3.0,90.0,50.625,-0.9459459459459829,0.14969260236442533,7.242187499999998,0.184783547925929,-0.9459459459459829,0.14969260236442533,7.242187499999998,0.184783547925929,-0.024027027027027966,-0.04460882532840322,0.2642650020047436,7.169765624999998,-0.32709012874994725,-0.14137145554412225,87.24859057093276,False,0.5,0.5,13,0.0254,0.0124,-0.298,-0.145,0.99,0.119,1.43,0.371,0.03333333333333333,0.01,0,0,0,0.045419447124004364,-0.07226294279098511,-9.96191692352295,-0.06424600630998611,-0.13961395621299744,0.3556104898452759
1576047308.656147,706,377,74,73,1280,720,0.58046875,0.5743055555555555,13.061526717521245,90,87.25059181635957,0.0,-0.2947648444402603,0.08046874999999998,0.049919770181773016,0.06848304010982198,0.061526717521244834,1225,1280,720,3.0,90.0,50.625,2.153435113243569,0.14975931054531905,7.242187499999998,0.20544912032946594,2.153435113243569,0.14975931054531905,7.242187499999998,0.20544912032946594,0.05508157512772616,-0.04462837126936737,0.2938689113447534,7.169765624999998,-0.2947648444402603,-0.15228853909682238,87.25059181635957,False,0.5,0.5,13,0.0254,0.0124,-0.298,-0.145,0.99,0.119,1.43,0.371,0.03333333333333333,0.01,0,0,0,0.0450693778693676,-0.07762230187654495,-9.949111938476562,-0.06986572593450546,-0.15559269487857819,0.5453006625175476
1576047308.668369,706,377,74,73,1280,720,0.58046875,0.5743055555555555,13.061526717521245,90,87.25091283525056,0.0,-0.2890665456817656,0.08046874999999998,0.04992333705833953,0.0685955990976441,0.061526717521244834,1225,1280,720,3.0,90.0,50.625,2.153435113243569,0.1497700111750186,7.242187499999998,0.20578679729293228,2.153435113243569,0.1497700111750186,7.242187499999998,0.20578679729293228,0.05469725187638665,-0.0446314788460686,0.29427637291042763,7.169765624999998,-0.2890665456817656,-0.15510509833516672,87.25091283525056,False,0.5,0.5,13,0.0254,0.0124,-0.298,-0.145,0.99,0.119,1.43,0.371,0.03333333333333333,0.01,0,0,0,0.0450693778693676,-0.07762230187654495,-9.949111938476562,-0.06986572593450546,-0.15559269487857819,0.5453006625175476
1576047308.680653,706,377,74,73,1280,720,0.58046875,0.5743055555555555,13.061526717521245,90,87.25685509982847,0.0,-0.28467105214659794,0.08046874999999998,0.049989362220316316,0.06868242366130173,0.061526717521244834,1225,1280,720,3.0,90.0,50.625,2.153435113243569,0.14996808666094896,7.242187499999998,0.20604727098390518,2.153435113243569,0.14996808666094896,7.242187499999998,0.20604727098390518,0.05469725187638665,-0.04469077703441739,0.2946485638643779,7.169765624999998,-0.28467105214659794,-0.15943733257923243,87.25685509982847,False,0.5,0.5,13,0.0254,0.0124,-0.298,-0.145,0.99,0.119,1.43,0.371,0.03333333333333333,0.01,0,0,0,0.0450693778693676,-0.07762230187654495,-9.949111938476562,-0.06986572593450546,-0.15559269487857819,0.5453006625175476
1576047308.6892922,707,380,75,74,1280,720,0.581640625,0.5791666666666667,12.886196260109267,90,87.2604477793319,0.0,-0.28566006887450107,0.08164062500000002,0.05120115588146555,0.07352399863951609,-0.11380373989073256,1225,1280,720,3.0,90.0,50.625,-3.9831308961756395,0.15360346764439664,7.347656250000002,0.22057199591854826,-3.9831308961756395,0.15360346764439664,7.347656250000002,0.22057199591854826,-0.10193245894802923,-0.0457791046604562,0.3154718408930315,7.274305195312502,-0.28566006887450107,-0.15585321749269468,87.2604477793319,False,0.5,0.5,13,0.0254,0.0124,-0.298,-0.145,0.99,0.119,1.43,0.371,0.03333333333333333,0.01,0,0,0,0.04438420757651329,-0.08346454799175262,-9.932450294494629,-0.0749158039689064,-0.16878217458724976,0.5759063959121704
1576047308.704705,707,380,75,74,1280,720,0.581640625,0.5791666666666667,12.886196260109267,90,87.26740774209614,0.0,-0.2653168573597206,0.08164062500000002,0.051237052320103615,0.07361728289674291,-0.11380373989073256,1225,1280,720,3.0,90.0,50.625,-3.9831308961756395,0.15371115696031085,7.347656250000002,0.22085184869022872,-3.9831308961756395,0.15371115696031085,7.347656250000002,0.22085184869022872,-0.10117152476286125,-0.04580608092368071,0.31581918188081,7.274179687500002,-0.2653168573597206,-0.14893127433613634,87.26740774209614,False,0.5,0.5,13,0.0254,0.0124,-0.298,-0.145,0.99,0.119,1.43,0.371,0.03333333333333333,0.01,0,0,0,0.04438420757651329,-0.08346454799175262,-9.932450294494629,-0.0749158039689064,-0.16878217458724976,0.5759063959121704
1576047308.7099898,707,380,75,74,1280,720,0.581640625,0.5791666666666667,12.886196260109267,90,87.26740774209614,0.0,-0.2653168573597206,0.08164062500000002,0.05127848880106824,0.07392583985462285,-0.11380373989073256,1225,1280,720,3.0,90.0,50.625,-3.9831308961756395,0.15383546640320472,7.347656250000002,0.22177751956386854,-3.9831308961756395,0.15383546640320472,7.347656250000002,0.22177751956386854,-0.10117152476286125,-0.0458431492368472,0.31714528721527324,7.274179687500002,-0.2653168573597206,-0.14893127433613634,87.26740774209614,False,0.5,0.5,13,0.0254,0.0124,-0.298,-0.145,0.99,0.119,1.43,0.371,0.03333333333333333,0.01,0,0,0,0.04438420757651329,-0.08346454799175262,-9.932450294494629,-0.0749158039689064,-0.16878217458724976,0.5759063959121704
1576047308.72021,708,382,74,74,1280,720,0.58203125,0.5819444444444445,12.972972972972972,90,87.27082966687033,0.0,-0.2152693132271133,0.08203125,0.05170713518744807,0.07769221109674843,-0.027027027027028083,1225,1280,720,3.0,90.0,50.625,-0.9459459459459829,0.15512140556234422,7.3828125,0.23307663329024528,-0.9459459459459829,0.15512140556234422,7.3828125,0.23307663329024528,-0.02365041609319949,-0.04622804346935933,0.3333415053169756,7.3090262109375,-0.2152693132271133,-0.15019644681796218,87.27082966687033,False,0.5,0.5,13,0.0254,0.0124,-0.298,-0.145,0.99,0.119,1.43,0.371,0.03333333333333333,0.01,0,0,0,0.04438420757651329,-0.08346454799175262,-9.932450294494629,-0.0749158039689064,-0.16878217458724976,0.5759063959121704
1576047308.7329733,708,382,74,74,1280,720,0.58203125,0.5819444444444445,12.972972972972972,90,87.27890978065845,0.0,-0.12243096744970666,0.08203125,0.05170713518744807,0.07769221109674843,-0.027027027027028083,1225,1280,720,3.0,90.0,50.625,-0.9459459459459829,0.15512140556234422,7.3828125,0.23307663329024528,-0.9459459459459829,0.15512140556234422,7.3828125,0.23307663329024528,-0.02365041609319949,-0.04622804346935933,0.3333415053169756,7.3090262109375,-0.12243096744970666,-0.17353429607739662,87.27890978065845,False,0.5,0.5,13,0.0254,0.0124,-0.298,-0.145,0.99,0.119,1.43,0.371,0.03333333333333333,0.01,0,0,0,0.043157536536455154,-0.0913500040769577,-9.914104461669922,-0.07897014170885086,-0.1857583373785019,0.44901546835899353
1576047308.7441971,708,382,74,74,1280,720,0.58203125,0.5819444444444445,12.972972972972972,90,87.28172381859649,0.0,-0.11779181492002673,0.08203125,0.05179691422953836,0.07952605496395646,-0.027027027027028083,1225,1280,720,3.0,90.0,50.625,-0.9459459459459829,0.15539074268861508,7.3828125,0.23857816489186937,-0.9459459459459829,0.15539074268861508,7.3828125,0.23857816489186937,-0.024027027027027966,-0.046306831860040386,0.3411871864776152,7.308984375,-0.11779181492002673,-0.18548063044107949,87.28172381859649,False,0.5,0.5,13,0.0254,0.0124,-0.298,-0.145,0.99,0.119,1.43,0.371,0.03333333333333333,0.01,0,0,0,0.043157536536455154,-0.0913500040769577,-9.914104461669922,-0.07897014170885086,-0.1857583373785019,0.44901546835899353
1576047308.7546828,708,382,74,74,1280,720,0.58203125,0.5819444444444445,12.972972972972972,90,87.29134755513704,0.0,-0.20386844684189262,0.08203125,0.051828181317738774,0.07961769254478963,-0.027027027027028083,1225,1280,720,3.0,90.0,50.625,-0.9459459459459829,0.15548454395321631,7.3828125,0.23885307763436892,-0.9459459459459829,0.15548454395321631,7.3828125,0.23885307763436892,-0.024027027027027966,-0.04633453010989213,0.3415609209434222,7.308984375,-0.20386844684189262,-0.19579373584012272,87.29134755513704,False,0.5,0.5,13,0.0254,0.0124,-0.298,-0.145,0.99,0.119,1.43,0.371,0.03333333333333333,0.01,0,0,0,0.04224138706922531,-0.09806078672409058,-9.903644561767578,-0.0816766545176506,-0.19932416081428528,0.32683616876602173
1576047308.7701826,708,384,74,74,1280,720,0.58203125,0.5847222222222223,12.972972972972972,90,87.29601940452933,0.0,-0.2720589744420372,0.08203125,0.051987021161437025,0.0793482177887993,-0.027027027027028083,1225,1280,720,3.0,90.0,50.625,-0.9459459459459829,0.15596106348431107,7.3828125,0.2380446533663979,-0.9459459459459829,0.15596106348431107,7.3828125,0.2380446533663979,-0.024027027027027966,-0.046477087871644784,0.3404008550599148,7.308984375,-0.2720589744420372,-0.19182651651025603,87.29601940452933,False,0.5,0.5,13,0.0254,0.0124,-0.298,-0.145,0.99,0.119,1.43,0.371,0.03333333333333333,0.01,0,0,0,0.04224138706922531,-0.09806078672409058,-9.903644561767578,-0.0816766545176506,-0.19932416081428528,0.32683616876602173
1576047308.7773662,708,384,74,74,1280,720,0.58203125,0.5847222222222223,12.972972972972972,90,87.30311597107698,0.0,-0.35293876622044895,0.08203125,0.0520658719008553,0.0777505922721887,-0.027027027027028083,1225,1280,720,3.0,90.0,50.625,-0.9459459459459829,0.1561976157025659,7.3828125,0.2332517768165661,-0.9459459459459829,0.1561976157025659,7.3828125,0.2332517768165661,-0.024027027027027966,-0.04654723248008111,0.3335322592756896,7.308984375,-0.35293876622044895,-0.17241051651551795,87.30311597107698,False,0.5,0.5,13,0.0254,0.0124,-0.298,-0.145,0.99,0.119,1.43,0.371,0.03333333333333333,0.01,0,0,0,0.04224138706922531,-0.09806078672409058,-9.903644561767578,-0.0816766545176506,-0.19932416081428528,0.32683616876602173
1576047308.7883065,708,384,74,74,1280,720,0.58203125,0.5847222222222223,12.972972972972972,90,87.31013057535458,0.0,-0.3647160934228137,0.08203125,0.05214381194838419,0.07751795371016668,-0.027027027027028083,1225,1280,720,3.0,90.0,50.625,-0.9459459459459829,0.15643143584515257,7.3828125,0.23255386113050003,-0.9459459459459829,0.15643143584515257,7.3828125,0.23255386113050003,-0.024027027027027966,-0.04661690692106221,0.33254943214941973,7.308984375,-0.3647160934228137,-0.16086321460975192,87.31013057535458,False,0.5,0.5,13,0.0254,0.0124,-0.298,-0.145,0.99,0.119,1.43,0.371,0.03333333333333333,0.01,0,0,0,0.042033061385154724,-0.10493844747543335,-9.897760391235352,-0.08444711565971375,-0.20959320664405823,0.19894665479660034
1576047308.8008797,708,384,74,72,1280,720,0.58203125,0.5833333333333334,13.151918984428583,90,87.32140721767426,0.0,-0.23057619404393498,0.08203125,0.05221666729953098,0.07731937074188484,0.15191898442858331,1225,1280,720,3.0,90.0,50.625,5.317164455000416,0.15665000189859293,7.3828125,0.23195811222565454,5.317164455000416,0.15665000189859293,7.3828125,0.23195811222565454,0.1358326028467279,-0.04668201748655818,0.331697890254249,7.308984375,-0.23057619404393498,-0.16556974855641962,87.32140721767426,False,0.5,0.5,13,0.0254,0.0124,-0.298,-0.145,0.99,0.119,1.43,0.371,0.03333333333333333,0.01,0,0,0,0.042033061385154724,-0.10493844747543335,-9.897760391235352,-0.08444711565971375,-0.20959320664405823,0.19894665479660034
1576047308.8118591,708,384,74,72,1280,720,0.58203125,0.5833333333333334,13.151918984428583,90,87.32140721767426,0.0,-0.23057619404393498,0.08203125,0.052269107974158485,0.07877874184604576,0.15191898442858331,1225,1280,720,3.0,90.0,50.625,5.317164455000416,0.15680732392247546,7.3828125,0.23633622553813727,5.317164455000416,0.15680732392247546,7.3828125,0.23633622553813727,0.13505597715701056,-0.046728810645832314,0.33797704531992556,7.308984375,-0.23057619404393498,-0.16556974855641962,87.32140721767426,False,0.5,0.5,13,0.0254,0.0124,-0.298,-0.145,0.99,0.119,1.43,0.371,0.03333333333333333,0.01,0,0,0,0.042033061385154724,-0.10493844747543335,-9.897760391235352,-0.08444711565971375,-0.20959320664405823,0.19894665479660034
1576047308.8216224,708,384,74,72,1280,720,0.58203125,0.5833333333333334,13.151918984428583,90,87.32705578411786,0.0,-0.0928514458667913,0.08203125,0.05228641112005587,0.08090800298931378,0.15191898442858331,1225,1280,720,3.0,90.0,50.625,5.317164455000416,0.1568592333601676,7.3828125,0.24272400896794133,5.317164455000416,0.1568592333601676,7.3828125,0.24272400896794133,0.13505597715701056,-0.046744126810014594,0.3471190315006807,7.308984375,-0.0928514458667913,-0.20884303903305687,87.32705578411786,False,0.5,0.5,13,0.0254,0.0124,-0.298,-0.145,0.99,0.119,1.43,0.371,0.03333333333333333,0.01,0,0,0,0.04152247682213783,-0.11216350644826889,-9.895883560180664,-0.08742823451757431,-0.22097112238407135,0.06733391433954239
1576047308.8340585,708,386,74,74,1280,720,0.58203125,0.5875,12.972972972972972,90,87.33339419966764,0.0,-0.14180146397714216,0.08203125,0.052331869823531774,0.08566589736559427,-0.027027027027028083,1225,1280,720,3.0,90.0,50.625,-0.9459459459459829,0.15699560947059532,7.3828125,0.2569976920967828,-0.9459459459459829,0.15699560947059532,7.3828125,0.2569976920967828,-0.02480365271674532,-0.046784889367597525,0.3675596550628074,7.308984375,-0.14180146397714216,-0.22186706252193403,87.33339419966764,False,0.5,0.5,13,0.0254,0.0124,-0.298,-0.145,0.99,0.119,1.43,0.371,0.03333333333333333,0.01,0,0,0,0.04152247682213783,-0.11216350644826889,-9.895883560180664,-0.08742823451757431,-0.22097112238407135,0.06733391433954239
1576047308.8470764,708,386,74,74,1280,720,0.58203125,0.5875,12.972972972972972,90,87.3393706151914,0.0,-0.2179538710556192,0.08203125,0.052402296662973746,0.08469898342761203,-0.027027027027028083,1225,1280,720,3.0,90.0,50.625,-0.9459459459459829,0.15720688998892124,7.3828125,0.2540969502828361,-0.9459459459459829,0.15720688998892124,7.3828125,0.2540969502828361,-0.024027027027027966,-0.0468479595734501,0.36334787715232586,7.308984375,-0.2179538710556192,-0.21624777784635726,87.3393706151914,False,0.5,0.5,13,0.0254,0.0124,-0.298,-0.145,0.99,0.119,1.43,0.371,0.03333333333333333,0.01,0,0,0,0.04152247682213783,-0.11216350644826889,-9.895883560180664,-0.08742823451757431,-0.22097112238407135,0.06733391433954239
1576047308.8588698,708,386,74,74,1280,720,0.58203125,0.5875,12.972972972972972,90,87.34482793633823,0.0,-0.323009410885982,0.08203125,0.05246870127990443,0.08319473834951865,-0.027027027027028083,1225,1280,720,3.0,90.0,50.625,-0.9459459459459829,0.1574061038397133,7.3828125,0.24958421504855596,-0.9459459459459829,0.1574061038397133,7.3828125,0.24958421504855596,-0.024027027027027966,-0.04690730780431821,0.3568886852717158,7.308984375,-0.323009410885982,-0.1874479783860944,87.34482793633823,False,0.5,0.5,13,0.0254,0.0124,-0.298,-0.145,0.99,0.119,1.43,0.371,0.03333333333333333,0.01,0,0,0,0.04073265194892883,-0.1197955533862114,-9.898058891296387,-0.08917583525180817,-0.2332707643508911,-0.06467920541763306
1576047308.87069,708,386,74,72,1280,720,0.58203125,0.5861111111111111,13.151918984428583,90,87.35010767256666,0.0,-0.3516568250906022,0.08203125,0.05258800191740739,0.07916480345500047,0.15191898442858331,1225,1280,720,3.0,90.0,50.625,5.317164455000416,0.15776400575222216,7.3828125,0.2374944103650014,5.317164455000416,0.15776400575222216,7.3828125,0.2374944103650014,0.1358326028467279,-0.04701419267193534,0.339572153646576,7.308984375,-0.3516568250906022,-0.16290828263700216,87.35010767256666,False,0.5,0.5,13,0.0254,0.0124,-0.298,-0.145,0.99,0.119,1.43,0.371,0.03333333333333333,0.01,0,0,0,0.04073265194892883,-0.1197955533862114,-9.898058891296387,-0.08917583525180817,-0.2332707643508911,-0.06467920541763306
1576047308.88074,708,386,74,72,1280,720,0.58203125,0.5861111111111111,13.151918984428583,90,87.35804435238221,0.0,-0.2254188942924729,0.08203125,0.052676187248691206,0.08165839221150674,0.15191898442858331,1225,1280,720,3.0,90.0,50.625,5.317164455000416,0.1580285617460736,7.3828125,0.24497517663452023,5.317164455000416,0.1580285617460736,7.3828125,0.24497517663452023,0.13505597715701056,-0.047092895006521016,0.3503422562302238,7.308984375,-0.2254188942924729,-0.12839065434608657,87.35804435238221,False,0.5,0.5,13,0.0254,0.0124,-0.298,-0.145,0.99,0.119,1.43,0.371,0.03333333333333333,0.01,0,0,0,0.04073265194892883,-0.1197955533862114,-9.898058891296387,-0.08917583525180817,-0.2332707643508911,-0.06467920541763306
1576047308.8915544,708,386,74,72,1280,720,0.58203125,0.5861111111111111,13.151918984428583,90,87.36192389983078,0.0,-0.07878305043524347,0.08203125,0.052676187248691206,0.08165839221150674,0.15191898442858331,1225,1280,720,3.0,90.0,50.625,5.317164455000416,0.1580285617460736,7.3828125,0.24497517663452023,5.317164455000416,0.1580285617460736,7.3828125,0.24497517663452023,0.13505597715701056,-0.04709251140032993,0.3503145025873639,7.308984375,-0.07878305043524347,-0.13807619609449523,87.36192389983078,False,0.5,0.5,13,0.0254,0.0124,-0.298,-0.145,0.99,0.119,1.43,0.371,0.03333333333333333,0.01,0,0,0,0.039380256086587906,-0.1298883557319641,-9.903826713562012,-0.09320979565382004,-0.24787382781505585,-0.07389845699071884
1576047308.9015532,708,388,74,74,1280,720,0.58203125,0.5902777777777778,12.972972972972972,90,87.3650862774165,0.0,0.0043949132358924725,0.08203125,0.052676187248691206,0.08165839221150674,0.15191898442858331,1225,1280,720,3.0,90.0,50.625,5.317164455000416,0.1580285617460736,7.3828125,0.24497517663452023,5.317164455000416,0.1580285617460736,7.3828125,0.24497517663452023,0.13505597715701056,-0.04709251140032993,0.3503145025873639,7.308984375,0.0043949132358924725,-0.15267695274501397,87.3650862774165,False,0.5,0.5,13,0.0254,0.0124,-0.298,-0.145,0.99,0.119,1.43,0.371,0.03333333333333333,0.01,0,0,0,0.039380256086587906,-0.1298883557319641,-9.903826713562012,-0.09320979565382004,-0.24787382781505585,-0.07389845699071884
1576047308.9119732,708,388,74,74,1280,720,0.58203125,0.5902777777777778,12.972972972972972,90,87.36924586262104,0.0,0.06069089985019123,0.08203125,0.05275443086018328,0.09036459087873369,-0.027027027027028083,1225,1280,720,3.0,90.0,50.625,-0.9459459459459829,0.15826329258054983,7.3828125,0.27109377263620105,-0.9459459459459829,0.15826329258054983,7.3828125,0.27109377263620105,-0.02480365271674532,-0.04716280154871384,0.38776099486093374,7.308984375,0.06069089985019123,-0.17175814006828918,87.36924586262104,False,0.5,0.5,13,0.0254,0.0124,-0.298,-0.145,0.99,0.119,1.43,0.371,0.03333333333333333,0.01,0,0,0,0.039380256086587906,-0.1298883557319641,-9.903826713562012,-0.09320979565382004,-0.24787382781505585,-0.07389845699071884
1576047308.9237423,708,388,74,74,1280,720,0.58203125,0.5902777777777778,12.972972972972972,90,87.37400650447253,0.0,0.09664008643235257,0.08203125,0.052800648473567136,0.0914766103674112,-0.027027027027028083,1225,1280,720,3.0,90.0,50.625,-0.9459459459459829,0.1584019454207014,7.3828125,0.2744298311022336,-0.9459459459459829,0.1584019454207014,7.3828125,0.2744298311022336,-0.024027027027027966,-0.04720398078198724,0.39244703525310304,7.308984375,0.09664008643235257,-0.1873851593220288,87.37400650447253,False,0.5,0.5,13,0.0254,0.0124,-0.298,-0.145,0.99,0.119,1.43,0.371,0.03333333333333333,0.01,0,0,0,0.038359325379133224,-0.13625562191009521,-9.906108856201172,-0.0963653177022934,-0.2587616741657257,0.019041825085878372
1576047308.939433,708,388,74,74,1280,720,0.58203125,0.5902777777777778,12.972972972972972,90,87.38173827861299,0.0,0.1235099105549439,0.08203125,0.052939453095699834,0.09271747971466557,-0.027027027027028083,1225,1280,720,3.0,90.0,50.625,-0.9459459459459829,0.1588183592870995,7.3828125,0.2781524391439967,-0.9459459459459829,0.1588183592870995,7.3828125,0.2781524391439967,-0.024027027027027966,-0.04732824476997244,0.3977638953565075,7.308984375,0.1235099105549439,-0.21773134295885166,87.38173827861299,False,0.5,0.5,13,0.0254,0.0124,-0.298,-0.145,0.99,0.119,1.43,0.371,0.03333333333333333,0.01,0,0,0,0.038359325379133224,-0.13625562191009521,-9.906108856201172,-0.0963653177022934,-0.2587616741657257,0.019041825085878372
1576047308.950364,708,388,74,74,1280,720,0.58203125,0.5902777777777778,12.972972972972972,90,87.3877010337584,0.0,0.12499096770735241,0.08203125,0.05300570593064893,0.09274673516458969,-0.027027027027028083,1225,1280,720,3.0,90.0,50.625,-0.9459459459459829,0.1590171177919468,7.3828125,0.27824020549376904,-0.9459459459459829,0.1590171177919468,7.3828125,0.27824020549376904,-0.024027027027027966,-0.04738738930183217,0.3978838194692474,7.308984375,0.12499096770735241,-0.22916277177256547,87.3877010337584,False,0.5,0.5,13,0.0254,0.0124,-0.298,-0.145,0.99,0.119,1.43,0.371,0.03333333333333333,0.01,0,0,0,0.038359325379133224,-0.13625562191009521,-9.906108856201172,-0.0963653177022934,-0.2587616741657257,0.019041825085878372
1576047308.9573944,708,388,74,74,1280,720,0.58203125,0.5902777777777778,12.972972972972972,90,87.39229092088065,0.0,0.12317633852331075,0.08203125,0.05300570593064893,0.09274673516458969,-0.027027027027028083,1225,1280,720,3.0,90.0,50.625,-0.9459459459459829,0.1590171177919468,7.3828125,0.27824020549376904,-0.9459459459459829,0.1590171177919468,7.3828125,0.27824020549376904,-0.024027027027027966,-0.04738738930183217,0.3978838194692474,7.308984375,0.12317633852331075,-0.23731924494117718,87.39229092088065,False,0.5,0.5,13,0.0254,0.0124,-0.298,-0.145,0.99,0.119,1.43,0.371,0.03333333333333333,0.01,0,0,0,0.036756500601768494,-0.1451730579137802,-9.90407943725586,-0.10065284371376038,-0.27401861548423767,0.23449665307998657
1576047308.9686332,708,388,74,72,1280,720,0.58203125,0.5888888888888889,13.151918984428583,90,87.39488639276526,0.0,0.12332158676487931,0.08203125,0.05305670467645172,0.09132200174860862,0.15191898442858331,1225,1280,720,3.0,90.0,50.625,5.317164455000416,0.15917011402935516,7.3828125,0.27396600524582587,5.317164455000416,0.15917011402935516,7.3828125,0.27396600524582587,0.1358326028467279,-0.04743291582529208,0.3917555302186111,7.308984375,0.12332158676487931,-0.23807435437043384,87.39488639276526,False,0.5,0.5,13,0.0254,0.0124,-0.298,-0.145,0.99,0.119,1.43,0.371,0.03333333333333333,0.01,0,0,0,0.036756500601768494,-0.1451730579137802,-9.90407943725586,-0.10065284371376038,-0.27401861548423767,0.23449665307998657
1576047308.9819736,708,388,74,72,1280,720,0.58203125,0.5888888888888889,13.151918984428583,90,87.40310311033679,0.0,0.1271251216785037,0.08203125,0.05314989881312708,0.09138190003063203,0.15191898442858331,1225,1280,720,3.0,90.0,50.625,5.317164455000416,0.15944969643938123,7.3828125,0.2741457000918961,5.317164455000416,0.15944969643938123,7.3828125,0.2741457000918961,0.13505597715701056,-0.04751641493343014,0.3920290177992903,7.308984375,0.1271251216785037,-0.22919345426297763,87.40310311033679,False,0.5,0.5,13,0.0254,0.0124,-0.298,-0.145,0.99,0.119,1.43,0.371,0.03333333333333333,0.01,0,0,0,0.036756500601768494,-0.1451730579137802,-9.90407943725586,-0.10065284371376038,-0.27401861548423767,0.23449665307998657
1576047308.9896572,708,388,74,72,1280,720,0.58203125,0.5888888888888889,13.151918984428583,90,87.40310311033679,0.0,0.1271251216785037,0.08203125,0.053176840114853186,0.09140000240352601,0.15191898442858331,1225,1280,720,3.0,90.0,50.625,5.317164455000416,0.15953052034455956,7.3828125,0.274200007210578,5.317164455000416,0.15953052034455956,7.3828125,0.274200007210578,0.13505597715701056,-0.04754021225734126,0.3921062117905369,7.308984375,0.1271251216785037,-0.22919345426297763,87.40310311033679,False,0.5,0.5,13,0.0254,0.0124,-0.298,-0.145,0.99,0.119,1.43,0.371,0.03333333333333333,0.01,0,0,0,0.03563834726810455,-0.15734107792377472,-9.891515731811523,-0.10573995113372803,-0.29261136054992676,0.46385324001312256
1576047309.004129,708,386,74,74,1280,720,0.58203125,0.5875,12.972972972972972,90,87.40771348802654,0.0,0.10454000062026568,0.08203125,0.05320400908955176,0.09133550059508286,0.15191898442858331,1225,1280,720,3.0,90.0,50.625,5.317164455000416,0.15961202726865528,7.3828125,0.27400650178524855,5.317164455000416,0.15961202726865528,7.3828125,0.27400650178524855,0.13505597715701056,-0.04756450231109922,0.39182857964777745,7.308984375,0.10454000062026568,-0.2225700650783429,87.40771348802654,False,0.5,0.5,13,0.0254,0.0124,-0.298,-0.145,0.99,0.119,1.43,0.371,0.03333333333333333,0.01,0,0,0,0.03563834726810455,-0.15734107792377472,-9.891515731811523,-0.10573995113372803,-0.29261136054992676,0.46385324001312256
1576047309.011914,708,386,74,74,1280,720,0.58203125,0.5875,12.972972972972972,90,87.40771348802654,0.0,0.10454000062026568,0.08203125,0.05322806653362827,0.08956498766657317,-0.027027027027028083,1225,1280,720,3.0,90.0,50.625,-0.9459459459459829,0.1596841996008848,7.3828125,0.2686949629997195,-0.9459459459459829,0.1596841996008848,7.3828125,0.2686949629997195,-0.02480365271674532,-0.047585996130945406,0.38421409128070455,7.308984375,0.10454000062026568,-0.2225700650783429,87.40771348802654,False,0.5,0.5,13,0.0254,0.0124,-0.298,-0.145,0.99,0.119,1.43,0.371,0.03333333333333333,0.01,0,0,0,0.03563834726810455,-0.15734107792377472,-9.891515731811523,-0.10573995113372803,-0.29261136054992676,0.46385324001312256
1576047309.0212176,708,386,74,74,1280,720,0.58203125,0.5875,12.972972972972972,90,87.40765884651319,0.0,0.07677762952169104,0.08203125,0.05323937429125418,0.08907917662756082,-0.027027027027028083,1225,1280,720,3.0,90.0,50.625,-0.9459459459459829,0.15971812287376252,7.3828125,0.26723752988268246,-0.9459459459459829,0.15971812287376252,7.3828125,0.26723752988268246,-0.024027027027027966,-0.047596049805126904,0.3821442606553717,7.308984375,0.07677762952169104,-0.2268522468423971,87.40765884651319,False,0.5,0.5,13,0.0254,0.0124,-0.298,-0.145,0.99,0.119,1.43,0.371,0.03333333333333333,0.01,0,0,0,0.03438032045960426,-0.1675780862569809,-9.878401756286621,-0.10817954689264297,-0.3057767450809479,0.4236817955970764
1576047309.035885,708,385,74,73,1280,720,0.58203125,0.5854166666666667,13.061526717521245,90,87.40953031834577,0.0,0.10129971618932931,0.08203125,0.053227459405702074,0.08901659515104578,-0.027027027027028083,1225,1280,720,3.0,90.0,50.625,-0.9459459459459829,0.15968237821710624,7.3828125,0.26704978545313734,-0.9459459459459829,0.15968237821710624,7.3828125,0.26704978545313734,-0.024027027027027966,-0.047585296878945506,0.3818804966661528,7.308984375,0.10129971618932931,-0.232097538640276,87.40953031834577,False,0.5,0.5,13,0.0254,0.0124,-0.298,-0.145,0.99,0.119,1.43,0.371,0.03333333333333333,0.01,0,0,0,0.03438032045960426,-0.1675780862569809,-9.878401756286621,-0.10817954689264297,-0.3057767450809479,0.4236817955970764
1576047309.044422,708,385,74,73,1280,720,0.58203125,0.5854166666666667,13.061526717521245,90,87.41115590336824,0.0,0.14174632887589284,0.08203125,0.05324825353717526,0.08741764871485098,0.061526717521244834,1225,1280,720,3.0,90.0,50.625,2.153435113243569,0.15974476061152576,7.3828125,0.26225294614455297,2.153435113243569,0.15974476061152576,7.3828125,0.26225294614455297,0.05508157512772616,-0.04760402911670658,0.37500391671287586,7.308984375,0.14174632887589284,-0.23308580831623865,87.41115590336824,False,0.5,0.5,13,0.0254,0.0124,-0.298,-0.145,0.99,0.119,1.43,0.371,0.03333333333333333,0.01,0,0,0,0.03438032045960426,-0.1675780862569809,-9.878401756286621,-0.10817954689264297,-0.3057767450809479,0.4236817955970764
1576047309.0601795,708,385,74,73,1280,720,0.58203125,0.5854166666666667,13.061526717521245,90,87.42406496089956,0.0,0.24509832347771923,0.08203125,0.05326631559298044,0.08821659415063494,0.061526717521244834,1225,1280,720,3.0,90.0,50.625,2.153435113243569,0.1597989467789413,7.3828125,0.26464978245190485,2.153435113243569,0.1597989467789413,7.3828125,0.26464978245190485,0.05469725187638665,-0.047620164710067255,0.3784580811689242,7.308984375,0.24509832347771923,-0.21145486601907273,87.42406496089956,False,0.5,0.5,13,0.0254,0.0124,-0.298,-0.145,0.99,0.119,1.43,0.371,0.03333333333333333,0.01,0,0,0,0.032849568873643875,-0.17819064855575562,-9.867918014526367,-0.11065421998500824,-0.317699670791626,0.3153345584869385
1576047309.066403,708,385,74,73,1280,720,0.58203125,0.5854166666666667,13.061526717521245,90,87.42406496089956,0.0,0.24509832347771923,0.08203125,0.05340974956555063,0.09025811503165868,0.061526717521244834,1225,1280,720,3.0,90.0,50.625,2.153435113243569,0.1602292486966519,7.3828125,0.270774345094976,2.153435113243569,0.1602292486966519,7.3828125,0.270774345094976,0.05469725187638665,-0.04774894004938294,0.38723003561322145,7.308984375,0.24509832347771923,-0.21145486601907273,87.42406496089956,False,0.5,0.5,13,0.0254,0.0124,-0.298,-0.145,0.99,0.119,1.43,0.371,0.03333333333333333,0.01,0,0,0,0.032849568873643875,-0.17819064855575562,-9.867918014526367,-0.11065421998500824,-0.317699670791626,0.3153345584869385
1576047309.0769396,708,384,74,72,1280,720,0.58203125,0.5833333333333334,13.151918984428583,90,87.42806062156401,0.0,0.22375653030215492,0.08203125,0.05345414579515572,0.08775321541337594,0.15191898442858331,1225,1280,720,3.0,90.0,50.625,5.317164455000416,0.16036243738546715,7.3828125,0.2632596462401278,5.317164455000416,0.16036243738546715,7.3828125,0.2632596462401278,0.1354482795953884,-0.04778819946446799,0.3764334145906313,7.308984375,0.22375653030215492,-0.2050650372875407,87.42806062156401,False,0.5,0.5,13,0.0254,0.0124,-0.298,-0.145,0.99,0.119,1.43,0.371,0.03333333333333333,0.01,0,0,0,0.032849568873643875,-0.17819064855575562,-9.867918014526367,-0.11065421998500824,-0.317699670791626,0.3153345584869385
