time,x_bb,y_bb,w_bb,h_bb,f_u,f_v,f_delta,delta_f_u_psi,delta_f_u_y,delta_f_v_z,delta_f_delta_x,delta_x_tme,delta_y_tme,delta_psi_tme,delta_z_tme,prev_delta_x_tme,prev_delta_y_tme,prev_delta_psi_tme,prev_delta_z_tme,v_xr,v_yr,v_zr,yawrate,pitch_angle,roll_angle,yaw_angle,f_delta_ref,f_v_ref,vx_measured,vz_measured
1575494844.4434962,534,350,7,6,0.419921875,0.49027777777777776,148.13121596360824,-0.080078125,-0.08770616319444445,-2.278830246714805,135.33121596360823,315.7728372484192,-5.262369791666667,-7.20703125,-76.91052082662468,315.7728372484192,-5.262369791666667,-7.20703125,-76.91052082662468,8.15114950550586,-1.5936209852430556,-110.93317155629587,-7.163548828125,-2.325334072113037,-1.1189593076705933,89.3134765625,12.8,0.5,-0.21979844570159912,0.01463428046554327
1575494844.4812944,534,350,6,6,0.41953125,0.49027777777777776,160.0,-0.08046874999999998,-0.0877675374348958,-2.254869245012332,147.2,343.46666666666664,-5.266052246093748,-7.242187499999998,-76.10183701916621,343.46666666666664,-5.266052246093748,-7.242187499999998,-76.10183701916621,8.73550011615954,-1.5693013678656678,-108.81562621432211,-7.169905078124998,-2.300779342651367,-1.0977519750595093,89.34310913085938,12.8,0.5,-0.22032757103443146,0.015597295016050339
1575494844.5170896,532,350,8,6,0.41875,0.49027777777777776,138.5640646055102,-0.08124999999999999,-0.08891974555121526,-4.091331708790866,125.7640646055102,293.4494840795238,-5.335184733072915,-7.312499999999999,-138.08244517169175,293.4494840795238,-5.335184733072915,-7.312499999999999,-138.08244517169175,7.432943126817219,-1.5902191908094614,-198.22439011633872,-7.239653906249999,-4.1827473640441895,-1.4119923114776611,89.30972290039062,12.8,0.5,-0.22089916467666626,-0.08266046643257141
1575494844.5531008,533,350,7,7,0.419140625,0.4909722222222222,137.14285714285714,-0.08085937500000001,-0.09102325439453127,-7.236543460895359,124.34285714285714,290.1333333333333,-5.461395263671875,-7.277343750000001,-244.2333418052184,290.1333333333333,-5.461395263671875,-7.277343750000001,-244.2333418052184,7.368015991024907,-1.6281058061387803,-350.56641153649696,-7.204430859375001,-7.4066057205200195,-1.5416536331176758,89.08525085449219,12.8,0.5,-0.3048248291015625,-2.0057108402252197
1575494844.5890641,532,351,6,7,0.41796875,0.49236111111111114,148.13121596360824,-0.08203125,-0.1002152336968316,-0.3481581903117841,135.33121596360823,315.7728372484192,-6.0129140218098955,-7.3828125,-11.750338923022712,315.7728372484192,-6.0129140218098955,-7.3828125,-11.750338923022712,8.031227727728082,-1.794514052497016,-13.927944857612657,-7.309402734374999,-0.34895700216293335,-1.5169934034347534,88.36344146728516,12.8,0.5,-0.4155285954475403,-3.0599021911621094
1575494844.6260285,532,351,6,7,0.41796875,0.49236111111111114,148.13121596360824,-0.08203125,-0.11087917751736111,8.502717975502176,135.33121596360823,315.7728372484192,-6.652750651041667,-7.3828125,286.9667316731984,315.7728372484192,-6.652750651041667,-7.3828125,286.9667316731984,8.020630066109847,-1.9856122377183703,414.0565607323803,-7.308984375,8.721234321594238,-1.8862824440002441,87.4036865234375,12.8,0.5,-0.3841555416584015,-2.9417777061462402
1575494844.6620486,530,351,8,7,0.4171875,0.49236111111111114,128.2853961179637,-0.08281250000000001,-0.11166042751736112,8.502717975502176,115.4853961179637,269.46592427524865,-6.699625651041668,-7.453125000000001,286.9667316731984,269.46592427524865,-6.699625651041668,-7.453125000000001,286.9667316731984,6.825294285895739,-1.996715006510417,410.3624262926737,-7.378872656250001,8.721234321594238,-1.8862824440002441,87.4036865234375,12.8,0.5,-0.3436194658279419,-2.7870821952819824
1575494844.6978552,530,352,6,6,0.41640625,0.4930555555555556,160.0,-0.08359375000000002,-0.1189626905653212,10.686457663317002,147.2,343.46666666666664,-7.137761433919271,-7.523437500000002,360.66794613694884,343.46666666666664,-7.137761433919271,-7.523437500000002,360.66794613694884,8.754640306855118,-2.129170563591851,516.6666013280385,-7.448482031250002,10.958373069763184,-2.0885157585144043,86.8167953491211,12.8,0.5,-0.27777278423309326,-2.5940330028533936
1575494844.7339363,530,340,6,8,0.41640625,0.4777777777777778,138.5640646055102,-0.08359375000000002,-0.12634065416124135,7.6887617509996575,125.7640646055102,293.4494840795238,-7.580439249674481,-7.523437500000002,259.49570909623844,293.4494840795238,-7.580439249674481,-7.523437500000002,259.49570909623844,7.432943126817219,-2.2611105058458123,369.8277006762175,-7.448203125000002,7.9020538330078125,-2.451077938079834,86.15277862548828,12.8,0.5,-0.23898524045944214,-2.4805948734283447
1575494844.7701378,534,318,8,7,0.4203125,0.4465277777777778,128.2853961179637,-0.07968750000000002,-0.12578743828667538,2.159382005555685,115.4853961179637,269.46592427524865,-7.547246297200523,-7.171875000000002,72.87914268750438,269.46592427524865,-7.547246297200523,-7.171875000000002,72.87914268750438,6.834521271872215,-2.2489189639621316,101.90934917187658,-7.098761718750001,2.267686367034912,-2.6104650497436523,85.85100555419922,12.8,0.5,-0.19512011110782623,-2.3167688846588135
1575494844.8065476,542,418,6,6,0.42578125,0.5847222222222223,160.0,-0.07421875,-0.12285503811306424,-1.1467470506677233,147.2,343.46666666666664,-7.371302286783854,-6.6796875,-38.70271296003566,343.46666666666664,-7.371302286783854,-6.6796875,-38.70271296003566,8.754640306855118,-2.195797685411241,-56.72477514769224,-6.61093828125,-1.2619837522506714,-2.9641404151916504,85.62273406982422,12.8,0.5,-0.1556491255760193,-2.0940582752227783
1575494844.8429804,544,477,8,7,0.428125,0.6673611111111111,128.2853961179637,-0.07187500000000002,-0.1213689168294271,-2.1444067560280287,115.4853961179637,269.46592427524865,-7.282135009765627,-6.468750000000002,-72.37372801594597,269.46592427524865,-7.282135009765627,-6.468750000000002,-72.37372801594597,6.813847503069529,-2.169645257737902,-103.91082928232748,-6.403225781250002,-2.369050979614258,-3.012125015258789,85.54554748535156,12.8,0.5,-0.1396605521440506,-1.903407335281372
1575494844.8790243,548,504,6,8,0.43046875,0.7055555555555556,138.5640646055102,-0.06953124999999999,-0.12102796766493054,-4.468128677770866,125.7640646055102,293.4494840795238,-7.261678059895833,-6.257812499999999,-150.79934287476672,293.4494840795238,-7.261678059895833,-6.257812499999999,-150.79934287476672,7.463530100339005,-2.163881186591254,-216.61292374800382,-6.19439765625,-4.789493083953857,-3.0450336933135986,85.36529541015625,12.8,0.5,-0.13708744943141937,-1.706658124923706
1575494844.9149382,550,507,8,7,0.4328125,0.7090277777777778,128.2853961179637,-0.06718750000000001,-0.12100228203667536,-6.3003325499150575,115.4853961179637,269.46592427524865,-7.260136922200521,-6.046875000000001,-212.63622355963318,269.46592427524865,-7.260136922200521,-6.046875000000001,-212.63622355963318,6.834521271872215,-2.163513353983561,-304.8345157814116,-5.985569531250001,-6.670655250549316,-3.0993900299072266,85.15666961669922,12.8,0.5,-0.13984844088554382,-1.511297345161438
1575494844.9506023,556,486,6,8,0.43671875,0.6805555555555556,138.5640646055102,-0.06328125000000001,-0.11825010511610244,-6.910235613390754,125.7640646055102,293.4494840795238,-7.095006306966146,-5.695312500000001,-233.22045195193797,293.4494840795238,-7.095006306966146,-5.695312500000001,-233.22045195193797,7.463530100339005,-2.113513748168945,-333.75980458238945,-5.636964843750001,-7.266493320465088,-3.137000799179077,85.05280303955078,12.8,0.5,-0.1500660628080368,-1.2720319032669067
1575494844.9861903,560,444,8,6,0.440625,0.6208333333333333,138.5640646055102,-0.05937500000000001,-0.11643837822808162,-7.8156702199086325,125.7640646055102,293.4494840795238,-6.986302693684897,-5.343750000000001,-263.77886992191634,293.4494840795238,-6.986302693684897,-5.343750000000001,-263.77886992191634,7.453616895619905,-2.081392801920573,-377.5816897572358,-5.288917968750001,-8.133161544799805,-3.2155838012695312,84.86429595947266,12.8,0.5,-0.15826231241226196,-1.1303287744522095
1575494845.0217605,564,402,8,8,0.44375,0.5638888888888889,120.0,-0.05625000000000002,-0.115415276421441,-8.626064512469075,107.2,250.13333333333333,-6.924916585286461,-5.062500000000002,-291.12967729583124,250.13333333333333,-6.924916585286461,-5.062500000000002,-291.12967729583124,6.335482657691574,-2.0633284428914394,-416.6536768508961,-5.010759375000002,-8.905281066894531,-3.2486917972564697,84.67512512207031,12.8,0.5,-0.17827463150024414,-0.9113474488258362
1575494845.0575984,570,356,6,8,0.44765625,0.5,138.5640646055102,-0.05234375000000002,-0.11258561876085071,-8.973612203452438,125.7640646055102,293.4494840795238,-6.755137125651043,-4.710937500000002,-302.8594118665198,293.4494840795238,-6.755137125651043,-4.710937500000002,-302.8594118665198,7.471520904594997,-2.0122102627224394,-433.23401668664746,-4.662433593750002,-9.195968627929688,-3.2632672786712646,84.57823181152344,12.8,0.5,-0.24123574793338776,-0.9413853287696838
1575494845.0935886,572,334,6,7,0.44921875,0.46875,148.13121596360824,-0.05078125,-0.11332032945421007,-9.52964234082642,135.33121596360823,315.7728372484192,-6.7992197672526045,-4.5703125,-321.6254290028917,315.7728372484192,-6.7992197672526045,-4.5703125,-321.6254290028917,8.029857052086324,-2.0263805567423505,-460.1564365527215,-4.5240515624999995,-9.733752250671387,-3.197996139526367,84.3714828491211,12.8,0.5,-0.2833612263202667,-1.0847971439361572
1575494845.1332433,574,324,6,8,0.45078125,0.45555555555555555,138.5640646055102,-0.04921874999999998,-0.11347563001844616,-9.88358414545596,125.7640646055102,293.4494840795238,-6.808537801106769,-4.429687499999998,-333.57096490913864,293.4494840795238,-6.808537801106769,-4.429687499999998,-333.57096490913864,7.444389909643428,-2.028989301893445,-477.1542062807755,-4.384832812499998,-10.082942962646484,-3.406273126602173,84.21688079833984,12.8,0.5,-0.31558457016944885,-1.1358345746994019
1575494845.170786,576,310,6,6,0.45234375,0.43472222222222223,160.0,-0.04765625000000001,-0.11273668077256946,-9.980050395785637,147.2,343.46666666666664,-6.764200846354167,-4.289062500000001,-336.8267008577652,343.46666666666664,-6.764200846354167,-4.289062500000001,-336.8267008577652,8.744727102136018,-2.015517556932237,-481.70244482783556,-4.2456140625000005,-10.160449981689453,-3.4990622997283936,84.14276123046875,12.8,0.5,-0.342398464679718,-1.0618950128555298
1575494845.2074294,578,300,7,8,0.454296875,0.4222222222222222,128.2853961179637,-0.04570312500000001,-0.1124604966905382,-10.122966738288195,115.4853961179637,269.46592427524865,-6.747629801432292,-4.113281250000001,-341.6501274172266,269.46592427524865,-6.747629801432292,-4.113281250000001,-341.6501274172266,6.813847503069529,-2.0107135874430337,-488.61933191508604,-4.071451171875001,-10.294097900390625,-3.4031760692596436,83.99183654785156,12.8,0.5,-0.3748003840446472,-0.9061725735664368
1575494845.2428002,580,294,6,8,0.45546875,0.41388888888888886,138.5640646055102,-0.04453125000000002,-0.114115227593316,-10.424190571429898,125.7640646055102,293.4494840795238,-6.84691365559896,-4.007812500000002,-351.8164317857591,293.4494840795238,-6.84691365559896,-4.007812500000002,-351.8164317857591,7.463530100339005,-2.040860141330296,-503.22322075099305,-3.967316015625002,-10.594245910644531,-3.2595863342285156,83.73744201660156,12.8,0.5,-0.4051973521709442,-0.8549129366874695
1575494845.2790387,582,292,6,7,0.45703125,0.41041666666666665,148.13121596360824,-0.04296875,-0.11412896050347222,-10.653852416248217,135.33121596360823,315.7728372484192,-6.847737630208334,-3.8671875,-359.56751904837733,315.7728372484192,-6.847737630208334,-3.8671875,-359.56751904837733,8.029857052086324,-2.0406297963460287,-514.2774073516606,-3.8279578125000002,-10.826040267944336,-2.976144313812256,83.5955810546875,12.8,0.5,-0.44516754150390625,-0.9125622510910034
1575494845.3143861,583,290,7,6,0.458203125,0.40694444444444444,148.13121596360824,-0.04179687500000001,-0.11295708550347223,-10.657324638470438,135.33121596360823,315.7728372484192,-6.777425130208334,-3.761718750000001,-359.6847065483773,315.7728372484192,-6.777425130208334,-3.761718750000001,-359.6847065483773,8.020630066109847,-2.0193328450520833,-514.3505795829295,-3.723683203125001,-10.826040267944336,-2.976144313812256,83.5955810546875,12.8,0.5,-0.48966607451438904,-1.0146743059158325
1575494845.3496537,584,288,6,6,0.45859375,0.4041666666666667,160.0,-0.04140624999999998,-0.11441853841145831,-10.658138819254635,147.2,343.46666666666664,-6.865112304687498,-3.7265624999999982,-359.71218514984395,343.46666666666664,-6.865112304687498,-3.7265624999999982,-359.71218514984395,8.73550011615954,-2.0462272881401904,-514.3887645829816,-3.6891574218749983,-10.824028015136719,-3.3741860389709473,83.42889404296875,12.8,0.5,-0.5185902714729309,-1.0598359107971191
1575494845.3875031,586,285,6,7,0.46015625,0.40069444444444446,148.13121596360824,-0.03984375000000001,-0.11437208387586807,-10.813133725123684,135.33121596360823,315.7728372484192,-6.862325032552085,-3.585937500000001,-364.9432632229244,315.7728372484192,-6.862325032552085,-3.585937500000001,-364.9432632229244,8.009183283283638,-2.0449593878852,-521.933557407619,-3.5495203125000008,-10.979305267333984,-3.0133230686187744,83.29244995117188,12.8,0.5,-0.5562485456466675,-0.993679940700531
1575494845.4236042,588,282,6,6,0.46171875,0.3958333333333333,160.0,-0.03828124999999999,-0.11389668782552083,-10.83632236191801,147.2,343.46666666666664,-6.83380126953125,-3.445312499999999,-365.72587971473286,343.46666666666664,-6.83380126953125,-3.445312499999999,-365.72587971473286,8.73550011615954,-2.0363349134657116,-522.99768634935,-3.410301562499999,-10.998086929321289,-3.016937732696533,83.19461059570312,12.8,0.5,-0.5853779911994934,-0.9072281122207642
1575494845.4593058,588,282,8,6,0.4625,0.3958333333333333,138.5640646055102,-0.03749999999999998,-0.11373443603515623,-10.857735805909616,125.7640646055102,293.4494840795238,-6.824066162109375,-3.3749999999999982,-366.4485834494496,293.4494840795238,-6.824066162109375,-3.3749999999999982,-366.4485834494496,7.432943126817219,-2.0335246632893877,-524.0304117688988,-3.340971093749998,-11.020030975341797,-3.0060384273529053,83.13890075683594,12.8,0.5,-0.6120964884757996,-0.8728153705596924
1575494845.4950376,590,282,6,8,0.46328125,0.3972222222222222,138.5640646055102,-0.03671875000000002,-0.11434495713975697,-11.001716376344543,125.7640646055102,293.4494840795238,-6.860697428385418,-3.3046875000000018,-371.3079277016283,293.4494840795238,-6.860697428385418,-3.3046875000000018,-371.3079277016283,7.453616895619905,-2.0446648847791886,-531.0304305039136,-3.2713617187500015,-11.169002532958984,-2.825003147125244,83.01364135742188,12.8,0.5,-0.6501018404960632,-0.9073470830917358
1575494845.530806,590,282,7,6,0.463671875,0.3958333333333333,148.13121596360824,-0.03632812499999999,-0.11515969170464409,-10.927404413364796,135.33121596360823,315.7728372484192,-6.9095815022786455,-3.269531249999999,-368.79989895106183,315.7728372484192,-6.9095815022786455,-3.269531249999999,-368.79989895106183,8.029857052086324,-2.059291560702854,-527.3528395444697,-3.236696484374999,-11.091425895690918,-3.056908130645752,82.90515899658203,12.8,0.5,-0.7210400700569153,-1.0025830268859863
1575494845.5675132,592,282,6,6,0.46484375,0.3958333333333333,160.0,-0.03515625,-0.11458841959635417,-10.986256486290882,147.2,343.46666666666664,-6.87530517578125,-3.1640625,-370.78615641231727,343.46666666666664,-6.87530517578125,-3.1640625,-370.78615641231727,8.73550011615954,-2.0486752734714084,-530.2487670535512,-3.132003515625,-11.15173625946045,-2.908982038497925,82.85110473632812,12.8,0.5,-0.7432346940040588,-0.9738153219223022
1575494845.603483,592,282,8,6,0.465625,0.3958333333333333,138.5640646055102,-0.03437499999999999,-0.1149915059407552,-11.027535762046456,125.7640646055102,293.4494840795238,-6.8994903564453125,-3.093749999999999,-372.1793319690679,293.4494840795238,-6.8994903564453125,-3.093749999999999,-372.1793319690679,7.432943126817219,-2.056165021260579,-532.2336736534857,-3.062533593749999,-11.194038391113281,-2.892990827560425,82.74451446533203,12.8,0.5,-0.7691478133201599,-0.9105252027511597
1575494845.639797,593,282,7,6,0.466015625,0.3958333333333333,148.13121596360824,-0.03398437500000001,-0.1163625929090712,-11.044453406475983,135.33121596360823,315.7728372484192,-6.981755574544271,-3.058593750000001,-372.7503024685644,315.7728372484192,-6.981755574544271,-3.058593750000001,-372.7503024685644,8.029857052086324,-2.0809607764350044,-533.0399935318909,-3.0278683593750007,-11.21137523651123,-2.9098474979400635,82.5859603881836,12.8,0.5,-0.796206533908844,-0.8836283087730408
1575494845.677336,594,282,6,6,0.46640625,0.3958333333333333,160.0,-0.03359374999999998,-0.11717563205295137,-11.024236732974302,147.2,343.46666666666664,-7.030537923177082,-3.0234374999999982,-372.06798973788267,343.46666666666664,-7.030537923177082,-3.0234374999999982,-372.06798973788267,8.73550011615954,-2.0953360824584957,-532.0487873910695,-2.993063671874998,-11.190657615661621,-3.0009148120880127,82.47763061523438,12.8,0.5,-0.8277710676193237,-0.9065647721290588
1575494845.7126029,594,283,6,7,0.46640625,0.39791666666666664,148.13121596360824,-0.03359374999999998,-0.11717563205295137,-11.022153399640969,135.33121596360823,315.7728372484192,-7.030537923177082,-3.0234374999999982,-371.99767723788267,315.7728372484192,-7.030537923177082,-3.0234374999999982,-371.99767723788267,8.009183283283638,-2.0951003011067706,-531.9558089189221,-2.993203124999998,-11.190657615661621,-3.0009148120880127,82.47763061523438,12.8,0.5,-0.860927164554596,-0.9596251845359802
1575494845.7478266,596,284,6,6,0.46796875,0.39861111111111114,160.0,-0.03203125000000001,-0.11729888916015627,-11.095698742003588,147.2,343.46666666666664,-7.037933349609375,-2.882812500000001,-374.47983254262107,343.46666666666664,-7.037933349609375,-2.882812500000001,-374.47983254262107,8.73550011615954,-2.097339882744683,-535.5368565232167,-2.853426562500001,-11.26673698425293,-2.938959836959839,82.32591247558594,12.8,0.5,-0.8815312385559082,-0.9688600897789001
1575494845.7832665,596,284,6,6,0.46796875,0.39861111111111114,160.0,-0.03203125000000001,-0.11835310194227432,-11.069748551403588,147.2,343.46666666666664,-7.101186116536459,-2.882812500000001,-373.60401360987106,343.46666666666664,-7.101186116536459,-2.882812500000001,-373.60401360987106,8.724053333333332,-2.116459184434679,-534.242908501314,-2.853984375000001,-11.240143775939941,-2.971768856048584,82.23103332519531,12.8,0.5,-0.9048011302947998,-0.9502013325691223
1575494845.8195846,596,284,8,6,0.46875,0.39861111111111114,138.5640646055102,-0.03125,-0.11872312757703993,-11.070985338325137,125.7640646055102,293.4494840795238,-7.123387654622395,-2.8125,-373.6457551684734,293.4494840795238,-7.123387654622395,-2.8125,-373.6457551684734,7.432943126817219,-2.1228768285115556,-534.3139460948584,-2.7840960937499997,-11.241411209106445,-2.996128797531128,82.1274185180664,12.8,0.5,-0.9304222464561462,-0.9048807621002197
1575494845.8562038,596,284,8,6,0.46875,0.39861111111111114,138.5640646055102,-0.03125,-0.11941697862413195,-11.105134244334351,125.7640646055102,293.4494840795238,-7.165018717447918,-2.8125,-374.7982807462844,293.4494840795238,-7.165018717447918,-2.8125,-374.7982807462844,7.453616895619905,-2.135376794603136,-535.9757943668322,-2.784375,-11.276406288146973,-2.926701068878174,82.06497192382812,12.8,0.5,-0.9543063640594482,-0.8859360218048096
1575494845.8923283,596,284,7,6,0.468359375,0.39861111111111114,148.13121596360824,-0.03164062499999998,-0.12087164984809026,-11.104273425747119,135.33121596360823,315.7728372484192,-7.252298990885415,-2.8476562499999982,-374.76922811896526,315.7728372484192,-7.252298990885415,-2.8476562499999982,-374.76922811896526,8.029857052086324,-2.1616069539388016,-535.9196369259624,-2.8193191406249984,-11.275524139404297,-2.936886787414551,81.96920776367188,12.8,0.5,-0.9796234369277954,-0.9007187485694885
1575494845.932045,598,286,6,6,0.46953125,0.4013888888888889,160.0,-0.03046874999999999,-0.12084291246202256,-11.115004450793425,147.2,343.46666666666664,-7.250574747721354,-2.742187499999999,-375.13140021427813,343.46666666666664,-7.250574747721354,-2.742187499999999,-375.13140021427813,8.73550011615954,-2.1606629409790035,-536.4423811679965,-2.7143472656249994,-11.28936767578125,-3.0150094032287598,81.86632537841797,12.8,0.5,-1.0293999910354614,-0.948556125164032
1575494845.9707732,598,286,6,6,0.46953125,0.4013888888888889,160.0,-0.03046874999999999,-0.12124260796440971,-11.105861161474975,147.2,343.46666666666664,-7.274556477864582,-2.742187499999999,-374.8228141997804,343.46666666666664,-7.274556477864582,-2.742187499999999,-374.8228141997804,8.724053333333332,-2.1679337420993376,-535.9928081253066,-2.714765624999999,-11.279997825622559,-3.082350730895996,81.83035278320312,12.8,0.5,-1.0435131788253784,-0.9397370219230652
1575494846.0083876,598,286,7,6,0.469921875,0.4013888888888889,148.13121596360824,-0.03007812500000001,-0.12187618679470487,-11.069246126540172,135.33121596360823,315.7728372484192,-7.312571207682293,-2.707031250000001,-373.5870567707308,315.7728372484192,-7.312571207682293,-2.707031250000001,-373.5870567707308,8.009183283283638,-2.1793299577501086,-534.2142089819391,-2.6798214843750006,-11.242475509643555,-3.153876781463623,81.73817443847656,12.8,0.5,-1.068442702293396,-0.9053295254707336
1575494846.0465724,598,286,7,8,0.469921875,0.4027777777777778,128.2853961179637,-0.03007812500000001,-0.12383346557617189,-11.076024312161076,115.4853961179637,269.46592427524865,-7.4300079345703125,-2.707031250000001,-373.81582053543633,269.46592427524865,-7.4300079345703125,-2.707031250000001,-373.81582053543633,6.825294285895739,-2.2147099753485784,-534.5594524108974,-2.6799609375000006,-11.250844955444336,-3.14939546585083,81.56201934814453,12.8,0.5,-1.0867812633514404,-0.891769289970398
1575494846.0846188,600,288,6,6,0.47109375,0.4041666666666667,160.0,-0.028906250000000022,-0.12375869750976565,-11.126131917697203,147.2,343.46666666666664,-7.425521850585939,-2.6015625000000018,-375.50695222228063,343.46666666666664,-7.425521850585939,-2.6015625000000018,-375.50695222228063,8.754640306855118,-2.212783828735352,-536.9958553397219,-2.575128515625002,-11.303617477416992,-3.0246667861938477,81.4632797241211,12.8,0.5,-1.1085110902786255,-0.8989571332931519
1575494846.1210291,600,288,6,8,0.47109375,0.40555555555555556,138.5640646055102,-0.028906250000000022,-0.12459640502929689,-11.105559337611313,125.7640646055102,293.4494840795238,-7.4757843017578125,-2.6015625000000018,-374.81262764438185,293.4494840795238,-7.4757843017578125,-2.6015625000000018,-374.81262764438185,7.432943126817219,-2.228026657104492,-535.9734710508527,-2.575546875000002,-11.283958435058594,-3.18951153755188,81.38788604736328,12.8,0.5,-1.127593755722046,-0.9209413528442383
1575494846.157705,600,290,6,6,0.47109375,0.40694444444444444,160.0,-0.028906250000000022,-0.12505357530381947,-11.042968573706862,147.2,343.46666666666664,-7.503214518229169,-2.6015625000000018,-372.70018936260664,343.46666666666664,-7.503214518229169,-2.6015625000000018,-372.70018936260664,8.744727102136018,-2.236090505811904,-532.9351469684428,-2.575546875000002,-11.221240043640137,-3.325955629348755,81.34674072265625,12.8,0.5,-1.1412177085876465,-0.9403187036514282
1575494846.193547,600,290,8,6,0.471875,0.40694444444444444,138.5640646055102,-0.02812500000000001,-0.12538299560546876,-11.015136680205906,125.7640646055102,293.4494840795238,-7.522979736328126,-2.531250000000001,-371.7608629569493,293.4494840795238,-7.522979736328126,-2.531250000000001,-371.7608629569493,7.432943126817219,-2.24194349331326,-531.6064176918875,-2.5056585937500007,-11.192718505859375,-3.4014711380004883,81.24678039550781,12.8,0.5,-1.1556657552719116,-0.9364668726921082
1575494846.2290921,602,291,6,7,0.47265625,0.40902777777777777,148.13121596360824,-0.02734375,-0.12557186550564237,-11.042517538537862,135.33121596360823,315.7728372484192,-7.534311930338542,-2.4609375,-372.6849669256528,315.7728372484192,-7.534311930338542,-2.4609375,-372.6849669256528,8.029857052086324,-2.2452797275119356,-532.9509307894298,-2.43604921875,-11.222912788391113,-3.4038727283477783,81.15946960449219,12.8,0.5,-1.1769667863845825,-0.9098682403564453
1575494846.2646747,602,292,6,6,0.47265625,0.4097222222222222,160.0,-0.02734375,-0.12604132758246528,-11.022418847215148,147.2,343.46666666666664,-7.562479654947917,-2.4609375,-372.00663609351125,343.46666666666664,-7.562479654947917,-2.4609375,-372.00663609351125,8.73550011615954,-2.2537550811767577,-531.9611009224302,-2.436328125,-11.203027725219727,-3.40925931930542,81.11721801757812,12.8,0.5,-1.20499849319458,-0.900380551815033
1575494846.3008175,602,292,6,6,0.47265625,0.4097222222222222,160.0,-0.02734375,-0.12686648898654512,-11.08071534317196,147.2,343.46666666666664,-7.611989339192707,-2.4609375,-373.97414283205364,343.46666666666664,-7.611989339192707,-2.4609375,-373.97414283205364,8.724053333333332,-2.2686121198866096,-534.8073557498367,-2.436328125,-11.262768745422363,-3.3453586101531982,81.04295349121094,12.8,0.5,-1.2213304042816162,-0.916581928730011
1575494846.3372078,602,292,6,8,0.47265625,0.4111111111111111,138.5640646055102,-0.02734375,-0.12825664944118925,-11.019580991255639,125.7640646055102,293.4494840795238,-7.695398966471355,-2.4609375,-371.9108584548778,293.4494840795238,-7.695398966471355,-2.4609375,-371.9108584548778,7.432943126817219,-2.29363203854031,-531.8070116403442,-2.436328125,-11.201542854309082,-3.434903860092163,80.91783905029297,12.8,0.5,-1.236122727394104,-0.9258030652999878
1575494846.3733397,603,295,7,7,0.473828125,0.41458333333333336,137.14285714285714,-0.02617187500000001,-0.12708477444118926,-11.016108769033417,124.34285714285714,290.1333333333333,-7.625086466471355,-2.355468750000001,-371.7936709548779,290.1333333333333,-7.625086466471355,-2.355468750000001,-371.7936709548779,7.368015991024907,-2.271935923258464,-531.6635002467253,-2.331495703125001,-11.201542854309082,-3.434903860092163,80.91783905029297,12.8,0.5,-1.2535609006881714,-0.916577935218811
1575494846.4091086,604,295,6,7,0.47421875,0.41458333333333336,148.13121596360824,-0.025781249999999978,-0.1277245415581597,-11.121249616585429,135.33121596360823,315.7728372484192,-7.663472493489582,-2.3203124999999982,-375.3421745597582,315.7728372484192,-7.663472493489582,-2.3203124999999982,-375.3421745597582,8.031227727728082,-2.2839003355238168,-536.7831927817011,-2.296969921874998,-11.30928897857666,-3.273252248764038,80.82510375976562,12.8,0.5,-1.2661350965499878,-0.9028031826019287
1575494846.4448113,604,296,6,6,0.47421875,0.4152777777777778,160.0,-0.025781249999999978,-0.1290917290581597,-11.102105735933526,147.2,343.46666666666664,-7.745503743489581,-2.3203124999999982,-374.6960685877565,343.46666666666664,-7.745503743489581,-2.3203124999999982,-374.6960685877565,8.73550011615954,-2.308556599934895,-535.8073879033046,-2.297109374999998,-11.290382385253906,-3.29376482963562,80.70205688476562,12.8,0.5,-1.2845882177352905,-0.8873605728149414
1575494846.4807758,604,296,6,8,0.47421875,0.4166666666666667,138.5640646055102,-0.025781249999999978,-0.12987738715277775,-11.072467107548364,125.7640646055102,293.4494840795238,-7.792643229166664,-2.3203124999999982,-373.69576487975735,293.4494840795238,-7.792643229166664,-2.3203124999999982,-373.69576487975735,7.432943126817219,-2.3224355231391054,-534.3725733555307,-2.297109374999998,-11.261432647705078,-3.500469923019409,80.63134765625,12.8,0.5,-1.2926768064498901,-0.8906911015510559
1575494846.520079,604,296,6,8,0.47421875,0.4166666666666667,138.5640646055102,-0.025781249999999978,-0.1309014214409722,-11.072892398461192,125.7640646055102,293.4494840795238,-7.854085286458332,-2.3203124999999982,-373.71011844806526,293.4494840795238,-7.854085286458332,-2.3203124999999982,-373.71011844806526,7.453616895619905,-2.340814385308159,-534.4056468865281,-2.297109374999998,-11.261868476867676,-3.3799009323120117,80.5391845703125,12.8,0.5,-1.3068625926971436,-0.9054317474365234
1575494846.556599,604,298,6,6,0.47421875,0.41805555555555557,160.0,-0.025781249999999978,-0.1314631144205729,-11.101245024414883,147.2,343.46666666666664,-7.887786865234374,-2.3203124999999982,-374.6670195740023,343.46666666666664,-7.887786865234374,-2.3203124999999982,-374.6670195740023,8.744727102136018,-2.3507233768039275,-535.7856716680807,-2.297109374999998,-11.292346954345703,-3.284437656402588,80.48863220214844,12.8,0.5,-1.3232815265655518,-0.9095907211303711
1575494846.5924926,604,298,7,6,0.474609375,0.41805555555555557,148.13121596360824,-0.025390625,-0.13182288275824652,-11.076119358429251,135.33121596360823,315.7728372484192,-7.909372965494792,-2.28515625,-373.8190283469872,315.7728372484192,-7.909372965494792,-2.28515625,-373.8190283469872,8.009183283283638,-2.3570974765353734,-534.5507237113509,-2.262165234375,-11.26659870147705,-3.5273332595825195,80.42109680175781,12.8,0.5,-1.3346836566925049,-0.9085468053817749
1575494846.6305482,604,298,8,8,0.475,0.41944444444444445,120.0,-0.025000000000000022,-0.13230955335828995,-11.047046543774941,107.2,250.13333333333333,-7.938573201497396,-2.2500000000000018,-372.8378208524043,250.13333333333333,-7.938573201497396,-2.2500000000000018,-372.8378208524043,6.3262556717150975,-2.3658359485202367,-533.1459495529218,-2.2273605468750017,-11.238228797912598,-3.5746004581451416,80.3421401977539,12.8,0.5,-1.3549749851226807,-0.8854058980941772
1575494846.666399,605,300,7,6,0.475390625,0.42083333333333334,148.13121596360824,-0.02460937499999999,-0.13248672485351562,-11.092710464171567,135.33121596360823,315.7728372484192,-7.949203491210937,-2.214843749999999,-374.3789781657904,315.7728372484192,-7.949203491210937,-2.214843749999999,-374.3789781657904,8.047761061061417,-2.3689140201144743,-535.3809977558558,-2.192555859374999,-11.286447525024414,-3.439171314239502,80.2910385131836,12.8,0.5,-1.3709404468536377,-0.882686197757721
1575494846.702978,606,300,6,8,0.47578125,0.4222222222222222,138.5640646055102,-0.02421875000000001,-0.1329104953342014,-11.078707093174627,125.7640646055102,293.4494840795238,-7.974629720052084,-2.179687500000001,-373.9063643946436,293.4494840795238,-7.974629720052084,-2.179687500000001,-373.9063643946436,7.444389909643428,-2.37656255001492,-534.6802564273704,-2.1577511718750007,-11.273520469665527,-3.552988052368164,80.21774291992188,12.8,0.5,-1.3802324533462524,-0.8959680199623108
1575494846.7402675,606,301,6,7,0.47578125,0.42291666666666666,148.13121596360824,-0.02421875000000001,-0.13380906846788196,-11.054802187774307,135.33121596360823,315.7728372484192,-8.028544108072918,-2.179687500000001,-373.0995738373829,315.7728372484192,-8.028544108072918,-2.179687500000001,-373.0995738373829,8.029857052086324,-2.392766730414497,-533.522413277566,-2.1578906250000007,-11.249734878540039,-3.6424176692962646,80.13687133789062,12.8,0.5,-1.3931653499603271,-0.9038487672805786
1575494846.7806518,606,302,6,6,0.47578125,0.4236111111111111,160.0,-0.02421875000000001,-0.13419596354166669,-10.90898210505454,147.2,343.46666666666664,-8.051757812500002,-2.179687500000001,-368.17814604559067,343.46666666666664,-8.051757812500002,-2.179687500000001,-368.17814604559067,8.73550011615954,-2.399536027696398,-526.4338871881695,-2.1578906250000007,-11.10101318359375,-4.079991340637207,80.10205078125,12.8,0.5,-1.394465446472168,-0.9189954400062561
1575494846.8161528,606,304,8,6,0.4765625,0.4263888888888889,138.5640646055102,-0.0234375,-0.13403557671440972,-11.063295809221971,125.7640646055102,293.4494840795238,-8.042134602864584,-2.109375,-373.38623356124157,293.4494840795238,-8.042134602864584,-2.109375,-373.38623356124157,7.432943126817219,-2.3965095994737413,-534.0067206748523,-2.08800234375,-11.26199722290039,-3.736572027206421,80.04617309570312,12.8,0.5,-1.4042223691940308,-0.9103119373321533
1575494846.8520195,606,304,8,6,0.4765625,0.4263888888888889,138.5640646055102,-0.0234375,-0.13427259657118057,-11.024684605779477,125.7640646055102,293.4494840795238,-8.056355794270834,-2.109375,-372.08310544505736,293.4494840795238,-8.056355794270834,-2.109375,-372.08310544505736,7.453616895619905,-2.400862762451172,-532.0627254353952,-2.08828125,-11.222429275512695,-3.809262275695801,80.02484130859375,12.8,0.5,-1.4183305501937866,-0.8930272459983826
1575494846.8906567,606,304,8,8,0.4765625,0.42777777777777776,120.0,-0.0234375,-0.13463626437717013,-11.031429289271582,107.2,250.13333333333333,-8.078175862630207,-2.109375,-372.31073851291586,250.13333333333333,-8.078175862630207,-2.109375,-372.31073851291586,6.335482657691574,-2.407401870727538,-532.4071711357421,-2.08828125,-11.230764389038086,-3.7979516983032227,79.99211120605469,12.8,0.5,-1.4261023998260498,-0.8923609852790833
1575494846.926379,606,306,8,6,0.4765625,0.42916666666666664,138.5640646055102,-0.0234375,-0.13517396714952257,-11.101247313918625,125.7640646055102,293.4494840795238,-8.110438028971354,-2.109375,-374.6670968447536,293.4494840795238,-8.110438028971354,-2.109375,-374.6670968447536,7.471520904594997,-2.4170664664374453,-535.8030887860347,-2.08828125,-11.303735733032227,-3.649902820587158,79.94371795654297,12.8,0.5,-1.4435641765594482,-0.88334721326828
1575494846.96189,608,306,6,8,0.47734375,0.4305555555555556,138.5640646055102,-0.02265624999999999,-0.1345781962076823,-10.999528855419342,125.7640646055102,293.4494840795238,-8.074691772460938,-2.039062499999999,-371.2340988704028,293.4494840795238,-8.074691772460938,-2.039062499999999,-371.2340988704028,7.453616895619905,-2.4060853746202255,-530.82230664306,-2.018392968749999,-11.200920104980469,-3.9549014568328857,79.9270248413086,12.8,0.5,-1.4504356384277344,-0.8954164981842041
1575494846.9971693,608,308,6,8,0.47734375,0.43333333333333335,138.5640646055102,-0.02265624999999999,-0.1349708557128906,-10.928684058065983,125.7640646055102,293.4494840795238,-8.098251342773438,-2.039062499999999,-368.8430869597269,293.4494840795238,-8.098251342773438,-2.039062499999999,-368.8430869597269,7.453616895619905,-2.4133927714029944,-527.4160455051142,-2.018671874999999,-11.131166458129883,-4.194698810577393,79.89168548583984,12.8,0.5,-1.4521381855010986,-0.9086565971374512
1575494847.0329988,607,308,7,6,0.476953125,0.43194444444444446,148.13121596360824,-0.023046875000000022,-0.13639619615342885,-10.935848341714191,135.33121596360823,315.7728372484192,-8.18377176920573,-2.0742187500000018,-369.08488153285396,315.7728372484192,-8.18377176920573,-2.0742187500000018,-369.08488153285396,8.029857052086324,-2.4391773359510633,-527.7943707848688,-2.0536160156250016,-11.1370849609375,-4.070144176483154,79.7985610961914,12.8,0.5,-1.4702399969100952,-0.8858124017715454
1575494847.073668,606,310,7,6,0.476171875,0.43472222222222223,148.13121596360824,-0.023828124999999978,-0.13811170789930555,-10.9260872313109,135.33121596360823,315.7728372484192,-8.286702473958332,-2.1445312499999982,-368.7554440567429,315.7728372484192,-8.286702473958332,-2.1445312499999982,-368.7554440567429,8.020630066109847,-2.4699348356458874,-527.3162109576878,-2.1233648437499983,-11.129928588867188,-4.111876487731934,79.7144775390625,12.8,0.5,-1.4743990898132324,-0.8843743801116943
1575494847.1093764,606,310,7,6,0.476171875,0.43472222222222223,148.13121596360824,-0.023828124999999978,-0.13844256930881074,-10.943999702842863,135.33121596360823,315.7728372484192,-8.306554158528645,-2.1445312499999982,-369.3599899709467,315.7728372484192,-8.306554158528645,-2.1445312499999982,-369.3599899709467,8.020630066109847,-2.4754490890502927,-528.1922618762594,-2.123085937499998,-11.148284912109375,-4.078110218048096,79.68470001220703,12.8,0.5,-1.4743990898132324,-0.8843743801116943
1575494847.1460516,606,310,7,6,0.476171875,0.43472222222222223,148.13121596360824,-0.023828124999999978,-0.1397998385959201,-10.95982573624231,135.33121596360823,315.7728372484192,-8.387990315755205,-2.1445312499999982,-369.894118598178,315.7728372484192,-8.387990315755205,-2.1445312499999982,-369.894118598178,8.020630066109847,-2.500014722188313,-528.9551949860846,-2.123085937499998,-11.16450309753418,-3.99393630027771,79.56254577636719,12.8,0.5,-1.4887163639068604,-0.88411545753479
1575494847.1815586,606,312,8,6,0.4765625,0.4375,138.5640646055102,-0.0234375,-0.13940921359592012,-10.957047958464532,125.7640646055102,293.4494840795238,-8.364552815755207,-2.109375,-369.800368598178,293.4494840795238,-8.364552815755207,-2.109375,-369.800368598178,7.444389909643428,-2.4925234578450515,-528.8133677203945,-2.088141796875,-11.16450309753418,-3.99393630027771,79.56254577636719,12.8,0.5,-1.4963881969451904,-0.8822537660598755
1575494847.217694,606,312,7,7,0.476171875,0.43819444444444444,137.14285714285714,-0.023828124999999978,-0.14070629543728297,-11.009567923160812,124.34285714285714,290.1333333333333,-8.442377726236979,-2.1445312499999982,-371.5729174066774,290.1333333333333,-8.442377726236979,-2.1445312499999982,-371.5729174066774,7.368015991024907,-2.5162047161526147,-531.3711924118137,-2.1232253906249983,-11.219036102294922,-3.862046957015991,79.48096466064453,12.8,0.5,-1.5040068626403809,-0.8754557371139526
1575494847.2542245,606,314,8,6,0.4765625,0.44027777777777777,138.5640646055102,-0.0234375,-0.14155375162760417,-11.003356383067516,125.7640646055102,293.4494840795238,-8.49322509765625,-2.109375,-371.3632779285287,293.4494840795238,-8.49322509765625,-2.109375,-371.3632779285287,7.454987571261664,-2.5312268413967556,-531.0468948962497,-2.088141796875,-11.214805603027344,-3.855630874633789,79.36953735351562,12.8,0.5,-1.5102806091308594,-0.869966447353363
1575494847.2905502,608,314,6,6,0.47734375,0.44027777777777777,160.0,-0.02265624999999999,-0.14159698486328123,-10.97875000007829,147.2,343.46666666666664,-8.495819091796875,-2.039062499999999,-370.53281250264223,343.46666666666664,-8.495819091796875,-2.039062499999999,-370.53281250264223,8.744727102136018,-2.531766626993815,-529.8516517896783,-2.018392968749999,-11.189589500427246,-3.9340662956237793,79.29533386230469,12.8,0.5,-1.5164026021957397,-0.8675554394721985
1575494847.3265836,606,314,8,7,0.4765625,0.4409722222222222,128.2853961179637,-0.0234375,-0.14317855834960938,-10.938318308417783,115.4853961179637,269.46592427524865,-8.590713500976562,-2.109375,-369.1682429091002,269.46592427524865,-8.590713500976562,-2.109375,-369.1682429091002,6.813847503069529,-2.5604912796020507,-527.8937121827064,-2.0885601562500002,-11.1488676071167,-4.055839538574219,79.22330474853516,12.8,0.5,-1.5175985097885132,-0.8723139762878418
1575494847.365522,608,316,6,6,0.47734375,0.44305555555555554,160.0,-0.02265624999999999,-0.14239730834960937,-10.93623497508445,147.2,343.46666666666664,-8.543838500976562,-2.039062499999999,-369.09793040910023,343.46666666666664,-8.543838500976562,-2.039062499999999,-369.09793040910023,8.754640306855118,-2.5458373107910157,-527.8091709537633,-2.018392968749999,-11.1488676071167,-4.055839538574219,79.22330474853516,12.8,0.5,-1.5206294059753418,-0.8744455575942993
1575494847.4008343,608,316,6,6,0.47734375,0.44305555555555554,160.0,-0.02265624999999999,-0.14386350843641493,-10.968094568958968,147.2,343.46666666666664,-8.631810506184896,-2.039062499999999,-370.17319170236516,343.46666666666664,-8.631810506184896,-2.039062499999999,-370.17319170236516,8.724053333333332,-2.5727047288682727,-529.3609615323755,-2.018671874999999,-11.181516647338867,-3.9352564811706543,79.09134674072266,12.8,0.5,-1.524550437927246,-0.8739792108535767
1575494847.43727,608,316,6,8,0.47734375,0.4444444444444444,138.5640646055102,-0.02265624999999999,-0.14459313286675346,-10.913120886283169,125.7640646055102,293.4494840795238,-8.675587972005207,-2.039062499999999,-368.317829912057,293.4494840795238,-8.675587972005207,-2.039062499999999,-368.317829912057,7.432943126817219,-2.5855368067423496,-526.6715521334346,-2.018671874999999,-11.126604080200195,-4.126437664031982,79.02568054199219,12.8,0.5,-1.5310009717941284,-0.8729984760284424
1575494847.4730074,608,317,7,7,0.477734375,0.44513888888888886,137.14285714285714,-0.02226562500000001,-0.14452268812391494,-10.882804976291013,124.34285714285714,290.1333333333333,-8.671361287434896,-2.003906250000001,-367.2946679498217,290.1333333333333,-8.671361287434896,-2.003906250000001,-367.2946679498217,7.368015991024907,-2.584045234680176,-525.218722065312,-1.9837277343750008,-11.096248626708984,-4.222874641418457,78.99686431884766,12.8,0.5,-1.5299433469772339,-0.8852697610855103
1575494847.5117128,608,318,8,7,0.478125,0.4465277777777778,128.2853961179637,-0.021874999999999978,-0.14498638576931422,-10.982482703846129,115.4853961179637,269.46592427524865,-8.699183146158854,-1.968749999999998,-370.65879125480683,269.46592427524865,-8.699183146158854,-1.968749999999998,-370.65879125480683,6.835891947513974,-2.5924910498725042,-530.0836744859121,-1.9489230468749978,-11.199819564819336,-3.7419466972351074,78.91997528076172,12.8,0.5,-1.5377304553985596,-0.8766845464706421
1575494847.5470862,608,320,8,6,0.478125,0.4486111111111111,138.5640646055102,-0.021874999999999978,-0.1453211466471354,-10.866115233642333,125.7640646055102,293.4494840795238,-8.719268798828125,-1.968749999999998,-366.73138913542874,293.4494840795238,-8.719268798828125,-1.968749999999998,-366.73138913542874,7.463530100339005,-2.5984391827053495,-524.3773175907868,-1.949062499999998,-11.082703590393066,-4.140657424926758,78.88984680175781,12.8,0.5,-1.544965386390686,-0.8727813363075256
1575494847.5822742,608,320,8,6,0.478125,0.4486111111111111,138.5640646055102,-0.021874999999999978,-0.14545745849609373,-10.817896364151627,125.7640646055102,293.4494840795238,-8.727447509765625,-1.968749999999998,-365.1040022901174,293.4494840795238,-8.727447509765625,-1.968749999999998,-365.1040022901174,7.453616895619905,-2.600818888346354,-522.0785979242143,-1.949062499999998,-11.033289909362793,-4.323575973510742,78.87757873535156,12.8,0.5,-1.5390331745147705,-0.8882256746292114
1575494847.6210823,608,320,8,8,0.478125,0.45,120.0,-0.021874999999999978,-0.14616656833224823,-10.83108555436437,107.2,250.13333333333333,-8.769994099934893,-1.968749999999998,-365.54913745979746,250.13333333333333,-8.769994099934893,-1.968749999999998,-365.54913745979746,6.335482657691574,-2.6136638836330826,-522.7407714057755,-1.949062499999998,-11.048229217529297,-4.12996244430542,78.81375885009766,12.8,0.5,-1.5450081825256348,-0.8776206970214844
1575494847.6595347,610,322,6,7,0.47890625,0.45208333333333334,148.13121596360824,-0.021093750000000022,-0.1460271199544271,-10.7749251320737,135.33121596360823,315.7728372484192,-8.761627197265627,-1.898437500000002,-363.65372320748736,315.7728372484192,-8.761627197265627,-1.898437500000002,-363.65372320748736,8.047761061061417,-2.6109244647555885,-520.0013842304534,-1.879174218750002,-10.992812156677246,-4.457781791687012,78.75599670410156,12.8,0.5,-1.541715383529663,-0.8838323354721069
1575494847.7004724,610,322,6,8,0.47890625,0.4527777777777778,138.5640646055102,-0.021093750000000022,-0.14644317626953127,-10.793713106141393,125.7640646055102,293.4494840795238,-8.786590576171875,-1.898437500000002,-364.28781733227197,293.4494840795238,-8.786590576171875,-1.898437500000002,-364.28781733227197,7.444389909643428,-2.618524648030599,-520.9394204158253,-1.879453125000002,-11.012777328491211,-4.41642427444458,78.71855163574219,12.8,0.5,-1.5459398031234741,-0.8816885948181152
1575494847.7365007,610,323,6,7,0.47890625,0.4534722222222222,148.13121596360824,-0.021093750000000022,-0.14722298516167537,-10.712276670058538,135.33121596360823,315.7728372484192,-8.833379109700521,-1.898437500000002,-361.53933761447564,315.7728372484192,-8.833379109700521,-1.898437500000002,-361.53933761447564,8.029857052086324,-2.6325731192694772,-516.9672632561901,-1.879453125000002,-10.930034637451172,-4.4652934074401855,78.64836883544922,12.8,0.5,-1.5360705852508545,-0.9059838056564331
1575494847.7736204,610,325,6,7,0.47890625,0.45625,148.13121596360824,-0.021093750000000022,-0.1480852762858073,-10.652457795539274,135.33121596360823,315.7728372484192,-8.88511657714844,-1.898437500000002,-359.5204505994505,315.7728372484192,-8.88511657714844,-1.898437500000002,-359.5204505994505,8.020630066109847,-2.648014804416233,-514.0892774544617,-1.879453125000002,-10.871580123901367,-4.617908000946045,78.57076263427734,12.8,0.5,-1.534507393836975,-0.908530056476593
1575494847.8094168,609,326,7,6,0.478515625,0.45694444444444443,148.13121596360824,-0.021484375,-0.14907591078016494,-10.686344062319694,135.33121596360823,315.7728372484192,-8.944554646809896,-1.93359375,-360.6641121032897,315.7728372484192,-8.944554646809896,-1.93359375,-360.6641121032897,8.020630066109847,-2.6657645687527127,-515.7638235883018,-1.9143972656250001,-10.907017707824707,-4.492752552032471,78.51676177978516,12.8,0.5,-1.5449097156524658,-0.88946533203125
1575494847.844678,610,326,6,8,0.47890625,0.4583333333333333,138.5640646055102,-0.021093750000000022,-0.1487560696072049,-10.720437650289215,125.7640646055102,293.4494840795238,-8.925364176432293,-1.898437500000002,-361.814770697261,293.4494840795238,-8.925364176432293,-1.898437500000002,-361.814770697261,7.444389909643428,-2.6596657706366647,-517.409351908362,-1.8793136718750019,-10.943379402160645,-4.592922687530518,78.51039123535156,12.8,0.5,-1.5373364686965942,-0.902237594127655
1575494847.8803248,610,328,6,7,0.47890625,0.46041666666666664,148.13121596360824,-0.021093750000000022,-0.14907608032226566,-10.830433827628339,135.33121596360823,315.7728372484192,-8.94456481933594,-1.898437500000002,-365.52714168245643,315.7728372484192,-8.94456481933594,-1.898437500000002,-365.52714168245643,8.029857052086324,-2.6655731192694776,-522.7497222604296,-1.879453125000002,-11.058236122131348,-4.171637535095215,78.4815902709961,12.8,0.5,-1.54756498336792,-0.874610960483551
1575494847.9157283,610,328,6,8,0.47890625,0.46111111111111114,138.5640646055102,-0.021093750000000022,-0.14959377712673613,-10.788364254115365,125.7640646055102,293.4494840795238,-8.975626627604168,-1.898437500000002,-364.10729357639354,293.4494840795238,-8.975626627604168,-1.898437500000002,-364.10729357639354,7.444389909643428,-2.6748868670993384,-520.6558710259977,-1.879453125000002,-11.015835762023926,-4.321998119354248,78.43499755859375,12.8,0.5,-1.5526773929595947,-0.8640177249908447
1575494847.9514914,610,330,6,8,0.47890625,0.4638888888888889,138.5640646055102,-0.021093750000000022,-0.15028737386067711,-10.855832995514575,125.7640646055102,293.4494840795238,-9.017242431640627,-1.898437500000002,-366.3843635986169,293.4494840795238,-9.017242431640627,-1.898437500000002,-366.3843635986169,7.453616895619905,-2.6873393876817495,-523.9577997119636,-1.879453125000002,-11.087822914123535,-4.239747524261475,78.37257385253906,12.8,0.5,-1.547136664390564,-0.8752260208129883
1575494847.9881935,610,332,8,6,0.4796875,0.4652777777777778,138.5640646055102,-0.02031250000000001,-0.14994905259874133,-10.906351002128504,125.7640646055102,293.4494840795238,-8.99694315592448,-1.8281250000000009,-368.08934632183707,293.4494840795238,-8.99694315592448,-1.8281250000000009,-368.08934632183707,7.453616895619905,-2.6809909472995335,-526.3888501932374,-1.809564843750001,-11.141016006469727,-3.9941940307617188,78.33271026611328,12.8,0.5,-1.5544710159301758,-0.8586796522140503
1575494848.0239077,610,332,6,8,0.47890625,0.4666666666666667,138.5640646055102,-0.021093750000000022,-0.15125232272677955,-10.833100977577386,125.7640646055102,293.4494840795238,-9.075139363606773,-1.898437500000002,-365.6171579932368,293.4494840795238,-9.075139363606773,-1.898437500000002,-365.6171579932368,7.453616895619905,-2.7047694786919494,-522.8019632013315,-1.8797320312500019,-11.067374229431152,-4.346089839935303,78.28572845458984,12.8,0.5,-1.5534170866012573,-0.8645094633102417
1575494848.0592954,610,333,6,7,0.47890625,0.4673611111111111,148.13121596360824,-0.021093750000000022,-0.15206697252061635,-10.899038544858238,135.33121596360823,315.7728372484192,-9.12401835123698,-1.898437500000002,-367.84255088896555,315.7728372484192,-9.12401835123698,-1.898437500000002,-367.84255088896555,8.029857052086324,-2.7191937171088325,-526.0423684633646,-1.879453125000002,-11.13565731048584,-4.2169318199157715,78.21240997314453,12.8,0.5,-1.5502452850341797,-0.8723565340042114
1575494848.0948846,609,332,7,8,0.478515625,0.4666666666666667,128.2853961179637,-0.021484375,-0.15292231241861978,-10.904368381068098,115.4853961179637,269.46592427524865,-9.175338745117188,-1.93359375,-368.02243286104834,269.46592427524865,-9.175338745117188,-1.93359375,-368.02243286104834,6.825294285895739,-2.734498994615343,-526.2743035316871,-1.9143972656250001,-11.14040756225586,-4.130817413330078,78.17058563232422,12.8,0.5,-1.55344557762146,-0.8605821132659912
1575494848.1303825,609,334,7,6,0.478515625,0.46805555555555556,148.13121596360824,-0.021484375,-0.15351342095269097,-10.848575757466069,135.33121596360823,315.7728372484192,-9.210805257161459,-1.93359375,-366.13943181447985,315.7728372484192,-9.210805257161459,-1.93359375,-366.13943181447985,8.039770256805424,-2.7449913881089953,-523.5561010484303,-1.9142578125,-11.08465576171875,-4.47050666809082,78.11738586425781,12.8,0.5,-1.552697777748108,-0.8586848974227905
1575494848.1658204,610,334,6,8,0.47890625,0.46944444444444444,138.5640646055102,-0.021093750000000022,-0.15427212185329864,-10.968981065987071,125.7640646055102,293.4494840795238,-9.256327311197918,-1.898437500000002,-370.20311097706366,293.4494840795238,-9.256327311197918,-1.898437500000002,-370.20311097706366,7.444389909643428,-2.7586055619981558,-529.440702862845,-1.8793136718750019,-11.209467887878418,-4.03956937789917,78.01394653320312,12.8,0.5,-1.5604299306869507,-0.8471609354019165
1575494848.201482,610,334,6,8,0.47890625,0.46944444444444444,138.5640646055102,-0.021093750000000022,-0.15427212185329864,-10.968981065987071,125.7640646055102,293.4494840795238,-9.256327311197918,-1.898437500000002,-370.20311097706366,293.4494840795238,-9.256327311197918,-1.898437500000002,-370.20311097706366,7.453616895619905,-2.7583855387369796,-529.390448697201,-1.879453125000002,-11.209467887878418,-4.03956937789917,78.01394653320312,12.8,0.5,-1.5550950765609741,-0.8620808124542236
1575494848.2375393,610,336,6,6,0.47890625,0.4708333333333333,160.0,-0.021093750000000022,-0.15483542548285592,-10.852153147398795,147.2,343.46666666666664,-9.290125528971355,-1.898437500000002,-366.26016872470933,343.46666666666664,-9.290125528971355,-1.898437500000002,-366.26016872470933,8.744727102136018,-2.7686207656860353,-523.7032802238135,-1.879453125000002,-11.091168403625488,-4.533405780792236,77.96324920654297,12.8,0.5,-1.553537368774414,-0.862268328666687
1575494848.2751386,610,336,6,7,0.47890625,0.47152777777777777,148.13121596360824,-0.021093750000000022,-0.155647701687283,-10.902809090873205,135.33121596360823,315.7728372484192,-9.33886210123698,-1.898437500000002,-367.9698068169707,315.7728372484192,-9.33886210123698,-1.898437500000002,-367.9698068169707,8.009183283283638,-2.7832164662679038,-526.2179662726757,-1.879453125000002,-11.143791198730469,-4.317181587219238,77.89014434814453,12.8,0.5,-1.5565361976623535,-0.8529140949249268
1575494848.3145738,610,336,6,8,0.47890625,0.4722222222222222,138.5640646055102,-0.021093750000000022,-0.15642022026909724,-10.857563329427014,125.7640646055102,293.4494840795238,-9.385213216145834,-1.898437500000002,-366.4427623681617,293.4494840795238,-9.385213216145834,-1.898437500000002,-366.4427623681617,7.444389909643428,-2.797017568800184,-523.9942657367876,-1.879453125000002,-11.098135948181152,-4.447644233703613,77.82061767578125,12.8,0.5,-1.5565361976623535,-0.8529140949249268
1575494848.350058,610,338,8,6,0.4796875,0.4736111111111111,138.5640646055102,-0.02031250000000001,-0.15652041965060765,-10.989884228424703,125.7640646055102,293.4494840795238,-9.391225179036459,-1.8281250000000009,-370.9085927093338,293.4494840795238,-9.391225179036459,-1.8281250000000009,-370.9085927093338,7.453616895619905,-2.7986141611735027,-530.4545150095665,-1.809564843750001,-11.235158920288086,-4.084153652191162,77.74128723144531,12.8,0.5,-1.557541012763977,-0.851159930229187
1575494848.3866913,610,338,8,6,0.4796875,0.4736111111111111,138.5640646055102,-0.02031250000000001,-0.15652041965060765,-10.989884228424703,125.7640646055102,293.4494840795238,-9.391225179036459,-1.8281250000000009,-370.9085927093338,293.4494840795238,-9.391225179036459,-1.8281250000000009,-370.9085927093338,7.453616895619905,-2.7985851033528646,-530.3992875743473,-1.8098437500000009,-11.235158920288086,-4.084153652191162,77.74128723144531,12.8,0.5,-1.5636471509933472,-0.8401645421981812
1575494848.4231505,610,340,8,6,0.4796875,0.47638888888888886,138.5640646055102,-0.02031250000000001,-0.15722630818684896,-10.962518679951476,125.7640646055102,293.4494840795238,-9.433578491210938,-1.8281250000000009,-369.98500544836236,293.4494840795238,-9.433578491210938,-1.8281250000000009,-369.98500544836236,7.453616895619905,-2.811411098056369,-529.067136095364,-1.8098437500000009,-11.209961891174316,-4.239730358123779,77.6777572631836,12.8,0.5,-1.5617095232009888,-0.8437815308570862
1575494848.4605303,611,340,7,8,0.480078125,0.4777777777777778,128.2853961179637,-0.019921874999999978,-0.1577123853895399,-10.911598754860533,115.4853961179637,269.46592427524865,-9.462743123372395,-1.792968749999998,-368.26645797654294,269.46592427524865,-9.462743123372395,-1.792968749999998,-368.26645797654294,6.834521271872215,-2.8200384131537537,-526.5997822027216,-1.774899609374998,-11.15920352935791,-4.217126846313477,77.5988540649414,12.8,0.5,-1.5593130588531494,-0.8426039218902588
1575494848.4971364,610,340,8,8,0.4796875,0.4777777777777778,120.0,-0.02031250000000001,-0.15868996514214412,-10.871184950765638,107.2,250.13333333333333,-9.521397908528646,-1.8281250000000009,-366.9024920883403,250.13333333333333,-9.521397908528646,-1.8281250000000009,-366.9024920883403,6.345395862410674,-2.8376600748697918,-524.6536959748424,-1.809983203125001,-11.117788314819336,-4.289945125579834,77.54602813720703,12.8,0.5,-1.558500051498413,-0.8402740955352783
1575494848.5324655,610,342,8,8,0.4796875,0.48055555555555557,120.0,-0.02031250000000001,-0.15951139662000868,-10.866326318543477,107.2,250.13333333333333,-9.570683797200521,-1.8281250000000009,-366.73851325084235,250.13333333333333,-9.570683797200521,-1.8281250000000009,-366.73851325084235,6.353386666666666,-2.8523019866943358,-524.4340460770809,-1.8098437500000009,-11.115655899047852,-4.458363056182861,77.47209930419922,12.8,0.5,-1.5517492294311523,-0.8480748534202576
1575494848.568513,610,342,8,8,0.4796875,0.48055555555555557,120.0,-0.02031250000000001,-0.16038945515950523,-10.728998300746452,107.2,250.13333333333333,-9.623367309570314,-1.8281250000000009,-362.1036926501927,250.13333333333333,-9.623367309570314,-1.8281250000000009,-362.1036926501927,6.353386666666666,-2.868018095228407,-517.7509632083476,-1.8098437500000009,-10.97492504119873,-4.612335205078125,77.39307403564453,12.8,0.5,-1.5484323501586914,-0.8544058799743652
1575494848.6042264,611,342,7,8,0.480078125,0.48055555555555557,128.2853961179637,-0.019921874999999978,-0.16043523152669267,-10.594964658948138,115.4853961179637,269.46592427524865,-9.626113891601559,-1.792968749999998,-357.5800572394997,269.46592427524865,-9.626113891601559,-1.792968749999998,-357.5800572394997,6.852425280847307,-2.8685952148437486,-511.28353956123897,-1.774899609374998,-10.837570190429688,-4.95048189163208,77.35379791259766,12.8,0.5,-1.5271010398864746,-0.8873757719993591
1575494848.641089,610,344,8,8,0.4796875,0.48333333333333334,120.0,-0.02031250000000001,-0.16154852973090278,-10.490018416934697,107.2,250.13333333333333,-9.692911783854166,-1.8281250000000009,-354.03812157154607,250.13333333333333,-9.692911783854166,-1.8281250000000009,-354.03812157154607,6.345395862410674,-2.8888105680677625,-506.2307119095505,-1.809983203125001,-10.732870101928711,-5.276234149932861,77.28875732421875,12.8,0.5,-1.517249584197998,-0.8888348340988159
1575494848.6763632,610,345,8,7,0.4796875,0.4840277777777778,128.2853961179637,-0.02031250000000001,-0.16264758639865454,-10.29333372716368,115.4853961179637,269.46592427524865,-9.758855183919273,-1.8281250000000009,-347.4000132917742,269.46592427524865,-9.758855183919273,-1.8281250000000009,-347.4000132917742,6.852425280847307,-2.908457571241591,-496.69992773484387,-1.8098437500000009,-10.532023429870605,-5.473078727722168,77.1898422241211,12.8,0.5,-1.5039222240447998,-0.8945428729057312
1575494848.7118049,610,346,8,8,0.4796875,0.4861111111111111,120.0,-0.02031250000000001,-0.1640396965874566,-10.289000167512583,107.2,250.13333333333333,-9.842381795247396,-1.8281250000000009,-347.25375565354966,250.13333333333333,-9.842381795247396,-1.8281250000000009,-347.25375565354966,6.345395862410674,-2.9334334869384766,-496.5710618651166,-1.8098437500000009,-10.529717445373535,-5.59437370300293,77.0645523071289,12.8,0.5,-1.4908044338226318,-0.8944859504699707
1575494848.7473109,612,347,6,7,0.48046875,0.48680555555555555,148.13121596360824,-0.01953125,-0.16325844658745658,-10.288305723068138,135.33121596360823,315.7728372484192,-9.795506795247395,-1.7578125,-347.23031815354966,315.7728372484192,-9.795506795247395,-1.7578125,-347.23031815354966,8.047761061061417,-2.9188344624837237,-496.53906511582596,-1.73995546875,-10.529717445373535,-5.59437370300293,77.0645523071289,12.8,0.5,-1.4847837686538696,-0.8948081731796265
1575494848.7836943,612,350,8,8,0.48125,0.49166666666666664,120.0,-0.01874999999999999,-0.16369086371527777,-10.228897562581794,107.2,250.13333333333333,-9.821451822916668,-1.6874999999999991,-345.2252927371356,250.13333333333333,-9.821451822916668,-1.6874999999999991,-345.2252927371356,6.3262556717150975,-2.9269180441962352,-493.64737313312094,-1.6703460937499992,-10.4738187789917,-5.7537736892700195,76.955322265625,12.8,0.5,-1.4723082780838013,-0.9064501523971558
1575494848.8205645,612,352,8,8,0.48125,0.49444444444444446,120.0,-0.01874999999999999,-0.16425832112630206,-10.219527310347846,107.2,250.13333333333333,-9.855499267578123,-1.6874999999999991,-344.90904672423983,250.13333333333333,-9.855499267578123,-1.6874999999999991,-344.90904672423983,6.353386666666666,-2.937103344387477,-493.2160259066368,-1.6706249999999991,-10.467062950134277,-5.685245037078857,76.90425109863281,12.8,0.5,-1.4659062623977661,-0.9009009599685669
1575494848.857363,612,355,8,7,0.48125,0.4979166666666667,128.2853961179637,-0.01874999999999999,-0.1647722880045573,-10.320236471933377,115.4853961179637,269.46592427524865,-9.886337280273438,-1.6874999999999991,-348.3079809277515,269.46592427524865,-9.886337280273438,-1.6874999999999991,-348.3079809277515,6.852425280847307,-2.9462775599161786,-498.12244621300135,-1.6706249999999991,-10.57382583618164,-5.410627365112305,76.85799407958984,12.8,0.5,-1.4605205059051514,-0.8942135572433472
1575494848.8928056,612,358,8,6,0.48125,0.5013888888888889,138.5640646055102,-0.01874999999999999,-0.16492021348741318,-10.40477527268457,125.7640646055102,293.4494840795238,-9.895212809244791,-1.6874999999999991,-351.1611654531043,293.4494840795238,-9.895212809244791,-1.6874999999999991,-351.1611654531043,7.463530100339005,-2.948816315544976,-502.19575097990264,-1.6706249999999991,-10.664017677307129,-5.308976650238037,76.84468078613281,12.8,0.5,-1.459167718887329,-0.8714516162872314
1575494848.9284794,612,358,8,8,0.48125,0.5027777777777778,120.0,-0.01874999999999999,-0.16471591525607637,-10.158692418725483,107.2,250.13333333333333,-9.882954915364582,-1.6874999999999991,-342.85586913198506,250.13333333333333,-9.882954915364582,-1.6874999999999991,-342.85586913198506,6.335482657691574,-2.9450613182915575,-490.18118402756744,-1.6706249999999991,-10.413260459899902,-5.862832069396973,76.86306762695312,12.8,0.5,-1.44967782497406,-0.8833218812942505
