time,x_bb,y_bb,w_bb,h_bb,w_im,h_im,f_u,f_v,f_delta,psi_telem_ref,psi_telem,theta_centroid_ref,theta_centroid,delta_f_u_psi,delta_f_u_y,delta_f_v_z,delta_f_delta_x,A_exp,alpha_u,alpha_v,d_exp,FOV_u,FOV_v,delta_x_tme,delta_y_tme,delta_psi_tme,delta_z_tme,prev_delta_x_tme,prev_delta_y_tme,prev_delta_psi_tme,prev_delta_z_tme,v_xr,v_yr,v_zr,yawrate,pitch_angle,roll_angle,yaw_angle,f_u_ref,f_v_ref,f_delta_ref,kp_vx,kd_vx,kp_vy,kd_vy,kp_yaw,kd_yaw,kp_vz,kd_vz,camera_period,controller_period,local_x,local_y,local_z,local_vx,local_vy,local_vz,body_vx,body_vy,body_vz,body_yawrate
1576111720.2150395,0,370,30,36,1280,720,,,,90,86.95468070075795,0.0,-3.3756156647168787,,,,,1225,214,214,1,90.0,50.625,0.0,0.0,0.0,0.0,0.0,0.0,0.0,0.0,,,,,-3.3756156647168787,-0.6535308025593616,86.95468070075795,0.5,0.5,17,0.0254,1.24e-05,0.298,1.45e-05,0.99,1.19e-05,1.43,3.71e-05,0.03333333333333333,0.01,0.10460172593593597,0.007943475618958473,-10.064586639404297,-0.07646442949771881,-0.02022174373269081,0.06533259898424149,-0.020352123239027797,0.07447499462671653,0.06755251766627139,0.06978212175931621
1576111720.2250779,0,370,30,36,1280,720,,,,90,86.96122402198282,0.0,-3.353861085323565,,,,,1225,214,214,1,90.0,50.625,0.0,0.0,0.0,0.0,0.0,0.0,0.0,0.0,,,,,-3.353861085323565,-0.617975825948037,86.96122402198282,0.5,0.5,17,0.0254,1.24e-05,0.298,1.45e-05,0.99,1.19e-05,1.43,3.71e-05,0.03333333333333333,0.01,0.10445602238178253,0.008603096008300781,-10.064901351928711,-0.07803527265787125,-0.020803101360797882,0.06439623236656189,-0.02110063324605737,0.07610919395479189,0.06656802100251606,0.057157477573899676
1576111720.23574,0,370,46,36,1280,720,,,,90,86.96437956937936,0.0,-3.3457220611538485,,,,,1225,214,214,1,90.0,50.625,0.0,0.0,0.0,0.0,0.0,0.0,0.0,0.0,,,,,-3.3457220611538485,-0.6238010701755587,86.96437956937936,0.5,0.5,17,0.0254,1.24e-05,0.298,1.45e-05,0.99,1.19e-05,1.43,3.71e-05,0.03333333333333333,0.01,0.10445602238178253,0.008603096008300781,-10.064901351928711,-0.07803527265787125,-0.020803101360797882,0.06439623236656189,-0.02110063324605737,0.07610919395479189,0.06656802100251606,0.12936398298323984
1576111720.2488282,0,370,46,36,1280,720,,,,90,86.96399707878584,0.0,-3.345798047008365,,,,,1225,214,214,1,90.0,50.625,0.0,0.0,0.0,0.0,0.0,0.0,0.0,0.0,,,,,-3.345798047008365,-0.6274984436723571,86.96399707878584,0.5,0.5,17,0.0254,1.24e-05,0.298,1.45e-05,0.99,1.19e-05,1.43,3.71e-05,0.03333333333333333,0.01,0.10445602238178253,0.008603096008300781,-10.064901351928711,-0.07803527265787125,-0.020803101360797882,0.06439623236656189,-0.02110063324605737,0.07610919395479189,0.06656802100251606,-0.04251726390772154
1576111720.2633307,0,370,46,36,1280,720,,,,90,86.9667154940755,0.0,-3.353735580597566,,,,,1225,214,214,1,90.0,50.625,0.0,0.0,0.0,0.0,0.0,0.0,0.0,0.0,,,,,-3.353735580597566,-0.7267325545761798,86.9667154940755,0.5,0.5,17,0.0254,1.24e-05,0.298,1.45e-05,0.99,1.19e-05,1.43,3.71e-05,0.03333333333333333,0.01,0.10397198051214218,0.009114246815443039,-10.065237045288086,-0.08100146055221558,-0.020913345739245415,0.054026421159505844,-0.02197183513022568,0.07911154309353152,0.0563565527270444,0.11541965820476957
1576111720.27139,12,370,50,36,1280,720,0.02890625,0.5388888888888889,22.627416997969522,90,86.9667154940755,0.0,-3.353735580597566,-0.47109375,-0.5047969111769388,-0.027357739863655653,5.627416997969522,1225,214,214,1,90.0,50.625,43.90557636957472,-3.0193460107779515,-42.3984375,-0.09204473225155173,43.90557636957472,-3.0193460107779515,-42.3984375,-0.09204473225155173,1.1696445544854703,-0.9041431629274576,-0.13196545307637222,-42.024907265625,-3.353735580597566,-0.7267325545761798,86.9667154940755,0.5,0.5,17,0.0254,1.24e-05,0.298,1.45e-05,0.99,1.19e-05,1.43,3.71e-05,0.03333333333333333,0.01,0.10397198051214218,0.009114246815443039,-10.065237045288086,-0.08100146055221558,-0.020913345739245415,0.054026421159505844,-0.02197183513022568,0.07911154309353152,0.0563565527270444,0.11541965820476957
1576111720.2817202,12,370,50,36,1280,720,0.02890625,0.5388888888888889,22.627416997969522,90,86.97258945676171,0.0,-3.359800361693714,-0.47109375,-0.5047316449248699,-0.02747753800876475,5.627416997969522,1225,214,214,1,90.0,50.625,43.90557636957472,-3.018955633195483,-42.3984375,-0.09244779143135803,43.90557636957472,-3.018955633195483,-42.3984375,-0.09244779143135803,1.1152016397871978,-0.8996482126447594,-0.13220183709639904,-41.974453125,-3.359800361693714,-1.1353970733266174,86.97258945676171,0.5,0.5,17,0.0254,1.24e-05,0.298,1.45e-05,0.99,1.19e-05,1.43,3.71e-05,0.03333333333333333,0.01,0.10397198051214218,0.009114246815443039,-10.065237045288086,-0.08100146055221558,-0.020913345739245415,0.054026421159505844,-0.02197183513022568,0.07911154309353152,0.0563565527270444,0.10368308535380015
1576111720.2958214,12,370,50,36,1280,720,0.02890625,0.5388888888888889,22.627416997969522,90,86.97535568337557,0.0,-3.359338470151092,-0.47109375,-0.5047009090736048,-0.02746841422520678,5.627416997969522,1225,214,214,1,90.0,50.625,43.90557636957472,-3.0187717925897855,-42.3984375,-0.09241709458948076,43.90557636957472,-3.0187717925897855,-42.3984375,-0.09241709458948076,1.1152016397871978,-0.8995937276228777,-0.1321563313776741,-41.974453125,-3.359338470151092,-1.4865689016252959,86.97535568337557,0.5,0.5,17,0.0254,1.24e-05,0.298,1.45e-05,0.99,1.19e-05,1.43,3.71e-05,0.03333333333333333,0.01,0.10321201384067535,0.009540054947137833,-10.066346168518066,-0.08009786158800125,-0.018182050436735153,-0.00458973553031683,-0.02261744669211883,0.07907509069907684,-0.0017032901557791713,0.06448885188458195
1576111720.3023226,12,370,50,36,1280,720,0.02890625,0.5388888888888889,22.627416997969522,90,86.97375058892062,0.0,-3.3668984223452383,-0.47109375,-0.5047009090736048,-0.02746841422520678,5.627416997969522,1225,214,214,1,90.0,50.625,43.90557636957472,-3.0187717925897855,-42.3984375,-0.09241709458948076,43.90557636957472,-3.0187717925897855,-42.3984375,-0.09241709458948076,1.1152016397871978,-0.8995937276228777,-0.1321563313776741,-41.974453125,-3.3668984223452383,-1.8283677893920127,86.97375058892062,0.5,0.5,17,0.0254,1.24e-05,0.298,1.45e-05,0.99,1.19e-05,1.43,3.71e-05,0.03333333333333333,0.01,0.10321201384067535,0.009540054947137833,-10.066346168518066,-0.08009786158800125,-0.018182050436735153,-0.00458973553031683,-0.02261744669211883,0.07907509069907684,-0.0017032901557791713,-0.16501987830759393
1576111720.3184788,29,370,49,36,1280,720,0.041796875,0.5388888888888889,22.857142857142858,90,86.9274965478613,0.0,-3.516414891814814,-0.458203125,-0.4923420522459856,-0.030571158356835867,5.857142857142858,1225,214,214,1,90.0,50.625,45.69791666666668,-2.9448496582937453,-41.23828125,-0.10285623372393375,45.69791666666668,-2.9448496582937453,-41.23828125,-0.10285623372393375,1.1629495853017278,-0.877457856401038,-0.14712127942824796,-40.824517851562504,-3.516414891814814,-2.2256132990672466,86.9274965478613,0.5,0.5,17,0.0254,1.24e-05,0.298,1.45e-05,0.99,1.19e-05,1.43,3.71e-05,0.03333333333333333,0.01,0.10321201384067535,0.009540054947137833,-10.066346168518066,-0.08009786158800125,-0.018182050436735153,-0.00458973553031683,-0.02261744669211883,0.07907509069907684,-0.0017032901557791713,-3.486103152608532
1576111720.3306518,29,370,49,36,1280,720,0.041796875,0.5388888888888889,22.857142857142858,90,86.8919385830422,0.0,-3.630485027369551,-0.458203125,-0.4927371407439755,-0.03282439560236153,5.857142857142858,1225,214,214,1,90.0,50.625,45.69791666666668,-2.947212804449947,-41.23828125,-0.11043721884906682,45.69791666666668,-2.947212804449947,-41.23828125,-0.11043721884906682,1.1607270833333336,-0.8782728422880107,-0.1579533484089798,-40.8258984375,-3.630485027369551,-2.3998983823448157,86.8919385830422,0.5,0.5,17,0.0254,1.24e-05,0.298,1.45e-05,0.99,1.19e-05,1.43,3.71e-05,0.03333333333333333,0.01,0.10399862378835678,0.01106516644358635,-10.069831848144531,-0.07111246138811111,-0.012212016619741917,-0.11436297744512558,-0.023259150783731645,0.07502068699892751,-0.11007231510120669,-6.01113038710457
1576111720.3474188,46,370,46,34,1280,720,0.05390625,0.5375,24.274643396360336,90,86.42042330387955,0.0,-4.944068716093695,-0.458203125,-0.49566182774657486,-0.048514933836687146,5.857142857142858,1225,214,214,1,90.0,50.625,45.69791666666668,-2.964706259418765,-41.23828125,-0.16322781477763898,45.69791666666668,-2.964706259418765,-41.23828125,-0.16322781477763898,1.1607270833333336,-0.8835078308164968,-0.23361162824291873,-40.8258984375,-4.944068716093695,-3.861656194923217,86.42042330387955,0.5,0.5,17,0.0254,1.24e-05,0.298,1.45e-05,0.99,1.19e-05,1.43,3.71e-05,0.03333333333333333,0.01,0.10399862378835678,0.01106516644358635,-10.069831848144531,-0.07111246138811111,-0.012212016619741917,-0.11436297744512558,-0.023259150783731645,0.07502068699892751,-0.11007231510120669,-27.14905596960064
1576111720.360756,46,370,46,34,1280,720,0.05390625,0.5375,24.274643396360336,90,85.84016458294111,0.0,-5.863944079359026,-0.44609375,-0.4858668244013384,-0.06016061661419647,7.274643396360336,1225,214,214,1,90.0,50.625,56.757373998686376,-2.9061193235220237,-40.1484375,-0.2024095512253339,56.757373998686376,-2.9061193235220237,-40.1484375,-0.2024095512253339,1.4553510266583383,-0.8659386073525127,-0.2895910224944484,-39.7456562109375,-5.863944079359026,-4.633545264536467,85.84016458294111,0.5,0.5,17,0.0254,1.24e-05,0.298,1.45e-05,0.99,1.19e-05,1.43,3.71e-05,0.03333333333333333,0.01,0.10491809248924255,0.012743886560201645,-10.078316688537598,-0.04949367418885231,0.006076993886381388,-0.2878529727458954,-0.025819517739019093,0.07212573379354069,-0.2819168646720596,-41.212545244251125
1576111720.3793259,46,370,46,34,1280,720,0.05390625,0.5375,24.274643396360336,90,85.06632464054617,0.0,-6.387767508506583,-0.44609375,-0.4923141435228765,-0.07833099416017832,7.274643396360336,1225,214,214,1,90.0,50.625,56.757373998686376,-2.9446827276134666,-40.1484375,-0.26354353175387096,56.757373998686376,-2.9446827276134666,-40.1484375,-0.26354353175387096,1.4416372995666338,-0.8775713697647456,-0.37709405747579633,-39.746953125,-6.387767508506583,-4.745852784398517,85.06632464054617,0.5,0.5,17,0.0254,1.24e-05,0.298,1.45e-05,0.99,1.19e-05,1.43,3.71e-05,0.03333333333333333,0.01,0.10491809248924255,0.012743886560201645,-10.078316688537598,-0.04949367418885231,0.006076993886381388,-0.2878529727458954,-0.025819517739019093,0.07212573379354069,-0.2819168646720596,-51.37928523890969
1576111720.3841255,62,370,46,34,1280,720,0.06640625,0.5375,24.274643396360336,90,84.63398732646272,0.0,-6.486262678319576,-0.44609375,-0.5009123651050426,-0.08867812362482141,7.274643396360336,1225,214,214,1,90.0,50.625,56.757373998686376,-2.9961113426843666,-40.1484375,-0.2983563037844459,56.757373998686376,-2.9961113426843666,-40.1484375,-0.2983563037844459,1.4416372995666338,-0.892915751611794,-0.426778669795991,-39.746953125,-6.486262678319576,-4.601986375476423,84.63398732646272,0.5,0.5,17,0.0254,1.24e-05,0.298,1.45e-05,0.99,1.19e-05,1.43,3.71e-05,0.03333333333333333,0.01,0.10491809248924255,0.012743886560201645,-10.078316688537598,-0.04949367418885231,0.006076993886381388,-0.2878529727458954,-0.025819517739019093,0.07212573379354069,-0.2819168646720596,-54.204511026815425
1576111720.39715,62,370,46,34,1280,720,0.06640625,0.5375,24.274643396360336,90,83.96210844799772,0.0,-6.515657251186371,-0.43359375,-0.49321611303930313,-0.09062370722606572,7.274643396360336,1225,214,214,1,90.0,50.625,56.757373998686376,-2.9500776854687287,-39.0234375,-0.30490219253629586,56.757373998686376,-2.9500776854687287,-39.0234375,-0.30490219253629586,1.4416372995666338,-0.8790564014667185,-0.43603442057417247,-38.631864375,-6.515657251186371,-4.3283357001535085,83.96210844799772,0.5,0.5,17,0.0254,1.24e-05,0.298,1.45e-05,0.99,1.19e-05,1.43,3.71e-05,0.03333333333333333,0.01,0.10638659447431564,0.014915278181433678,-10.091094017028809,-0.022355517372488976,0.026612278074026108,-0.35849034786224365,-0.016248060553229922,0.053466500300406145,-0.3558098451217429,-55.836936483732224
1576111720.4119885,78,370,46,34,1280,720,0.07890625,0.5375,24.274643396360336,90,83.51300301950188,0.0,-6.519105216056758,-0.43359375,-0.5056714942277569,-0.09127244871223228,7.274643396360336,1225,214,214,1,90.0,50.625,56.757373998686376,-3.024577161736116,-39.0234375,-0.3070848741719964,56.757373998686376,-3.024577161736116,-39.0234375,-0.3070848741719964,1.4416372995666338,-0.9014320184379503,-0.4391394678148233,-38.633203125,-6.519105216056758,-4.203459351558165,83.51300301950188,0.5,0.5,17,0.0254,1.24e-05,0.298,1.45e-05,0.99,1.19e-05,1.43,3.71e-05,0.03333333333333333,0.01,0.10638659447431564,0.014915278181433678,-10.091094017028809,-0.022355517372488976,0.026612278074026108,-0.35849034786224365,-0.016248060553229922,0.053466500300406145,-0.3558098451217429,-55.851440390434746
1576111720.4258394,78,370,46,34,1280,720,0.07890625,0.5375,24.274643396360336,90,82.65303439167307,0.0,-6.694568080079332,-0.42109375,-0.5027267012036325,-0.09473838182872757,7.274643396360336,1225,214,214,1,90.0,50.625,56.757373998686376,-3.0069634464516337,-37.8984375,-0.31874595755459745,56.757373998686376,-3.0069634464516337,-37.8984375,-0.31874595755459745,1.4416372995666338,-0.8961579783703776,-0.45584998192242376,-37.519453125,-6.694568080079332,-4.209726903895298,82.65303439167307,0.5,0.5,17,0.0254,1.24e-05,0.298,1.45e-05,0.99,1.19e-05,1.43,3.71e-05,0.03333333333333333,0.01,0.10879756510257721,0.018012521788477898,-10.10718822479248,-0.0014569270424544811,0.03916925564408302,-0.3134153485298157,0.0018608721387428778,0.029617443649688997,-0.31445966053649094,-53.26432524227941
1576111720.4348536,78,370,46,34,1280,720,0.07890625,0.5375,24.274643396360336,90,81.88015750595112,0.0,-7.171412614341894,-0.42109375,-0.5027267012036325,-0.09473838182872757,7.274643396360336,1225,214,214,1,90.0,50.625,56.757373998686376,-3.0069634464516337,-37.8984375,-0.31874595755459745,56.757373998686376,-3.0069634464516337,-37.8984375,-0.31874595755459745,1.4416372995666338,-0.8961579783703776,-0.45584998192242376,-37.519453125,-7.171412614341894,-4.47289964214459,81.88015750595112,0.5,0.5,17,0.0254,1.24e-05,0.298,1.45e-05,0.99,1.19e-05,1.43,3.71e-05,0.03333333333333333,0.01,0.10879756510257721,0.018012521788477898,-10.10718822479248,-0.0014569270424544811,0.03916925564408302,-0.3134153485298157,0.0018608721387428778,0.029617443649688997,-0.31445966053649094,-49.98609398786175
1576111720.4521577,94,370,44,34,1280,720,0.090625,0.5375,24.820209119760918,90,81.53299948100688,0.0,-7.475952820186191,-0.409375,-0.503452783544368,-0.11017314212713467,7.820209119760918,1225,214,214,1,90.0,50.625,61.013923236467996,-3.0113063688635093,-36.84375,-0.3706759922034437,61.013923236467996,-3.0113063688635093,-36.84375,-0.3706759922034437,1.5550317712611361,-0.8973011164724314,-0.5301417571442533,-36.474057421875,-7.475952820186191,-4.630133158159222,81.53299948100688,0.5,0.5,17,0.0254,1.24e-05,0.298,1.45e-05,0.99,1.19e-05,1.43,3.71e-05,0.03333333333333333,0.01,0.10879756510257721,0.018012521788477898,-10.10718822479248,-0.0014569270424544811,0.03916925564408302,-0.3134153485298157,0.0018608721387428778,0.029617443649688997,-0.31445966053649094,-47.23481524300516
1576111720.4673414,94,370,44,34,1280,720,0.090625,0.5375,24.820209119760918,90,80.90336532255843,0.0,-8.024115628441088,-0.409375,-0.5104487186382397,-0.12100104945068818,7.820209119760918,1225,214,214,1,90.0,50.625,61.013923236467996,-3.053151214284798,-36.84375,-0.4071063346004462,61.013923236467996,-3.053151214284798,-36.84375,-0.4071063346004462,1.549753650206287,-0.9098997368827306,-0.5822972150489308,-36.4753125,-8.024115628441088,-4.859557504832658,80.90336532255843,0.5,0.5,17,0.0254,1.24e-05,0.298,1.45e-05,0.99,1.19e-05,1.43,3.71e-05,0.03333333333333333,0.01,0.11115383356809616,0.02077537216246128,-10.119743347167969,0.02452945150434971,0.05972961336374283,-0.35027486085891724,0.014798894335013343,0.01447808745335379,-0.3555744318192387,-41.472522734629315
1576111720.4785182,94,370,44,34,1280,720,0.090625,0.5375,24.820209119760918,90,80.46556385713895,0.0,-8.229309025260259,-0.409375,-0.5104487186382397,-0.12100104945068818,7.820209119760918,1225,214,214,1,90.0,50.625,61.013923236467996,-3.053151214284798,-36.84375,-0.4071063346004462,61.013923236467996,-3.053151214284798,-36.84375,-0.4071063346004462,1.549753650206287,-0.9098390618568698,-0.582162058478638,-36.4753125,-8.229309025260259,-4.904606017503477,80.46556385713895,0.5,0.5,17,0.0254,1.24e-05,0.298,1.45e-05,0.99,1.19e-05,1.43,3.71e-05,0.03333333333333333,0.01,0.11115383356809616,0.02077537216246128,-10.119743347167969,0.02452945150434971,0.05972961336374283,-0.35027486085891724,0.014798894335013343,0.01447808745335379,-0.3555744318192387,-37.80574250889714
1576111720.4943817,110,370,43,34,1280,720,0.102734375,0.5375,25.10715748636519,90,80.18954225240039,0.0,-8.257803720703905,-0.409375,-0.5183800860844401,-0.12561711053242283,7.820209119760918,1225,214,214,1,90.0,50.625,61.013923236467996,-3.100591169103193,-36.84375,-0.4226370073988058,61.013923236467996,-3.100591169103193,-36.84375,-0.4226370073988058,1.549753650206287,-0.9240449563272382,-0.6044285393763741,-36.4753125,-8.257803720703905,-4.8870643841675925,80.18954225240039,0.5,0.5,17,0.0254,1.24e-05,0.298,1.45e-05,0.99,1.19e-05,1.43,3.71e-05,0.03333333333333333,0.01,0.11432696133852005,0.024270689114928246,-10.134896278381348,0.06115180626511574,0.09160167723894119,-0.45656508207321167,0.03406263926815006,-0.004762962498418642,-0.468400614480082,-35.41773762033144
1576111720.4993272,110,370,43,34,1280,720,0.102734375,0.5375,25.10715748636519,90,79.65743636511056,0.0,-8.212134514592261,-0.397265625,-0.5062707110844402,-0.12561711053242283,8.107157486365189,1225,214,214,1,90.0,50.625,63.2527183050784,-3.0281612625611376,-35.75390625,-0.4226370073988058,63.2527183050784,-3.0281612625611376,-35.75390625,-0.4226370073988058,1.6093951508340683,-0.9022870328787329,-0.6043709205802922,-35.3950702734375,-8.212134514592261,-4.873006574195236,79.65743636511056,0.5,0.5,17,0.0254,1.24e-05,0.298,1.45e-05,0.99,1.19e-05,1.43,3.71e-05,0.03333333333333333,0.01,0.11432696133852005,0.024270689114928246,-10.134896278381348,0.06115180626511574,0.09160167723894119,-0.45656508207321167,0.03406263926815006,-0.004762962498418642,-0.468400614480082,-32.42452332978924
1576111720.5138521,110,370,43,34,1280,720,0.102734375,0.5375,25.10715748636519,90,79.5298484314147,0.0,-8.214162227002108,-0.397265625,-0.5136006424287255,-0.12475505633584413,8.107157486365189,1225,214,214,1,90.0,50.625,63.2527183050784,-3.0720038425643392,-35.75390625,-0.4197366381392887,63.2527183050784,-3.0720038425643392,-35.75390625,-0.4197366381392887,1.6066190449489914,-0.9155207168251778,-0.6002126321692299,-35.3963671875,-8.214162227002108,-4.894270233741955,79.5298484314147,0.5,0.5,17,0.0254,1.24e-05,0.298,1.45e-05,0.99,1.19e-05,1.43,3.71e-05,0.03333333333333333,0.01,0.11432696133852005,0.024270689114928246,-10.134896278381348,0.06115180626511574,0.09160167723894119,-0.45656508207321167,0.03406263926815006,-0.004762962498418642,-0.468400614480082,-31.715276486375114
1576111720.5258622,124,370,44,33,1280,720,0.1140625,0.5368055555555555,25.193466291910944,90,78.92502152003175,0.0,-8.516151357191406,-0.3859375,-0.5077026696008671,-0.12940875063383728,8.193466291910944,1225,214,214,1,90.0,50.625,63.92610679834685,-3.0367262480799524,-34.734375,-0.4353939273661815,63.92610679834685,-3.0367262480799524,-34.734375,-0.4353939273661815,1.6245581144096628,-0.9048932694158234,-0.6226714046766713,-34.3858180078125,-8.516151357191406,-5.203669265407071,78.92502152003175,0.5,0.5,17,0.0254,1.24e-05,0.298,1.45e-05,0.99,1.19e-05,1.43,3.71e-05,0.03333333333333333,0.01,0.11432696133852005,0.024270689114928246,-10.134896278381348,0.06115180626511574,0.09160167723894119,-0.45656508207321167,0.03406263926815006,-0.004762962498418642,-0.468400614480082,-31.14737699273982
1576111720.5337725,124,370,44,33,1280,720,0.1140625,0.5368055555555555,25.193466291910944,90,78.92502152003175,0.0,-8.516151357191406,-0.3859375,-0.5089928164440917,-0.13141471816674385,8.193466291910944,1225,214,214,1,90.0,50.625,63.92610679834685,-3.0444430142450343,-34.734375,-0.4421429770096055,63.92610679834685,-3.0444430142450343,-34.734375,-0.4421429770096055,1.6237231126780098,-0.9072552075559596,-0.6322894960979129,-34.38703125,-8.516151357191406,-5.203669265407071,78.92502152003175,0.5,0.5,17,0.0254,1.24e-05,0.298,1.45e-05,0.99,1.19e-05,1.43,3.71e-05,0.03333333333333333,0.01,0.11969320476055145,0.029582053422927856,-10.153521537780762,0.09973146766424179,0.12709611654281616,-0.5877748131752014,0.05525792780017605,-0.018503237735848374,-0.6067810240065135,-31.14737699273982
1576111720.548389,124,370,44,33,1280,720,0.1140625,0.5368055555555555,25.193466291910944,90,78.22305565827286,0.0,-9.251208631705362,-0.3859375,-0.5089928164440917,-0.13141471816674385,8.193466291910944,1225,214,214,1,90.0,50.625,63.92610679834685,-3.0444430142450343,-34.734375,-0.4421429770096055,63.92610679834685,-3.0444430142450343,-34.734375,-0.4421429770096055,1.6237231126780098,-0.9072552075559596,-0.6322894960979129,-34.38703125,-9.251208631705362,-5.617667094682231,78.22305565827286,0.5,0.5,17,0.0254,1.24e-05,0.298,1.45e-05,0.99,1.19e-05,1.43,3.71e-05,0.03333333333333333,0.01,0.11969320476055145,0.029582053422927856,-10.153521537780762,0.09973146766424179,0.12709611654281616,-0.5877748131752014,0.05525792780017605,-0.018503237735848374,-0.6067810240065135,-32.19528852086527
1576111720.5586717,140,370,42,34,1280,720,0.12578125,0.5375,25.40429395319823,90,77.83929464956651,0.0,-9.468662218084704,-0.3859375,-0.5167924371303017,-0.14593436803368617,8.193466291910944,1225,214,214,1,90.0,50.625,63.92610679834685,-3.0910949510597483,-34.734375,-0.49099413544043946,63.92610679834685,-3.0910949510597483,-34.734375,-0.49099413544043946,1.6237231126780098,-0.9212139407241863,-0.7023028514776067,-34.38703125,-9.468662218084704,-5.593299967931387,77.83929464956651,0.5,0.5,17,0.0254,1.24e-05,0.298,1.45e-05,0.99,1.19e-05,1.43,3.71e-05,0.03333333333333333,0.01,0.11969320476055145,0.029582053422927856,-10.153521537780762,0.09973146766424179,0.12709611654281616,-0.5877748131752014,0.05525792780017605,-0.018503237735848374,-0.6067810240065135,-33.17919434627853
1576111720.5684485,140,370,42,34,1280,720,0.12578125,0.5375,25.40429395319823,90,77.7063518475614,0.0,-9.500337220360638,-0.37421875,-0.5108148405826511,-0.15016098213058052,8.40429395319823,1225,214,214,1,90.0,50.625,65.57100178068202,-3.0553411025504364,-33.6796875,-0.505214519317841,65.57100178068202,-3.0553411025504364,-33.6796875,-0.505214519317841,1.667543115007419,-0.9104398054796916,-0.7225095202486977,-33.341635546875004,-9.500337220360638,-5.549185056742744,77.7063518475614,0.5,0.5,17,0.0254,1.24e-05,0.298,1.45e-05,0.99,1.19e-05,1.43,3.71e-05,0.03333333333333333,0.01,0.12598438560962677,0.03580796718597412,-10.175846099853516,0.13808806240558624,0.16038286685943604,-0.6798580884933472,0.07149826238843177,-0.032381334611602516,-0.7076986965474891,-33.581458337446435
1576111720.5814009,140,370,42,34,1280,720,0.12578125,0.5375,25.40429395319823,90,77.2876407608721,0.0,-9.488108620425377,-0.37421875,-0.5108148405826511,-0.15016098213058052,8.40429395319823,1225,214,214,1,90.0,50.625,65.57100178068202,-3.0553411025504364,-33.6796875,-0.505214519317841,65.57100178068202,-3.0553411025504364,-33.6796875,-0.505214519317841,1.6655034452293234,-0.9104916485600301,-0.7224567626245126,-33.342890625,-9.488108620425377,-5.350482474069202,77.2876407608721,0.5,0.5,17,0.0254,1.24e-05,0.298,1.45e-05,0.99,1.19e-05,1.43,3.71e-05,0.03333333333333333,0.01,0.12598438560962677,0.03580796718597412,-10.175846099853516,0.13808806240558624,0.16038286685943604,-0.6798580884933472,0.07149826238843177,-0.032381334611602516,-0.7076986965474891,-34.32632803247676
1576111720.592653,154,370,42,34,1280,720,0.13671875,0.5375,25.40429395319823,90,76.85750959789054,0.0,-9.400981019825402,-0.37421875,-0.5202464211345496,-0.1481983905150697,8.40429395319823,1225,214,214,1,90.0,50.625,65.57100178068202,-3.111754294636558,-33.6796875,-0.49861140734042136,65.57100178068202,-3.111754294636558,-33.6796875,-0.49861140734042136,1.6655034452293234,-0.9273845789302192,-0.7129898149513663,-33.342890625,-9.400981019825402,-5.151965160276897,76.85750959789054,0.5,0.5,17,0.0254,1.24e-05,0.298,1.45e-05,0.99,1.19e-05,1.43,3.71e-05,0.03333333333333333,0.01,0.12598438560962677,0.03580796718597412,-10.175846099853516,0.13808806240558624,0.16038286685943604,-0.6798580884933472,0.07149826238843177,-0.032381334611602516,-0.7076986965474891,-34.562847238150546
1576111720.6004126,154,370,42,34,1280,720,0.13671875,0.5375,25.40429395319823,90,76.42907232182316,0.0,-9.33828073701833,-0.36328125,-0.5093089211345495,-0.1481983905150697,8.40429395319823,1225,214,214,1,90.0,50.625,65.57100178068202,-3.0463337338888943,-32.6953125,-0.49861140734042136,65.57100178068202,-3.0463337338888943,-32.6953125,-0.49861140734042136,1.6655034452293234,-0.9077125928858063,-0.7130143124968025,-32.367187968749995,-9.33828073701833,-5.056990526094224,76.42907232182316,0.5,0.5,17,0.0254,1.24e-05,0.298,1.45e-05,0.99,1.19e-05,1.43,3.71e-05,0.03333333333333333,0.01,0.13492684066295624,0.044666919857263565,-10.205984115600586,0.1698129028081894,0.18947982788085938,-0.6771495938301086,0.10952356441621806,-0.058525824407681774,-0.7126358931973273,-34.726829834838796
1576111720.6157556,154,370,42,34,1280,720,0.13671875,0.5375,25.40429395319823,90,76.15007275460647,0.0,-9.343138709065503,-0.36328125,-0.5171693305043725,-0.1470558263519112,8.40429395319823,1225,214,214,1,90.0,50.625,65.57100178068202,-3.093349266568209,-32.6953125,-0.49476726623072925,65.57100178068202,-3.093349266568209,-32.6953125,-0.49476726623072925,1.6655034452293234,-0.9218862539597114,-0.7075029289464259,-32.368359375,-9.343138709065503,-5.065130830924409,76.15007275460647,0.5,0.5,17,0.0254,1.24e-05,0.298,1.45e-05,0.99,1.19e-05,1.43,3.71e-05,0.03333333333333333,0.01,0.13492684066295624,0.044666919857263565,-10.205984115600586,0.1698129028081894,0.18947982788085938,-0.6771495938301086,0.10952356441621806,-0.058525824407681774,-0.7126358931973273,-34.4494968337796
1576111720.6314821,154,370,42,34,1280,720,0.13671875,0.5375,25.40429395319823,90,75.6066287532944,0.0,-9.483319804043552,-0.36328125,-0.5217225622780753,-0.1488099538480874,8.40429395319823,1225,214,214,1,90.0,50.625,65.57100178068202,-3.1205835500744694,-32.6953125,-0.5006690036010417,65.57100178068202,-3.1205835500744694,-32.6953125,-0.5006690036010417,1.6655034452293234,-0.9299733876332759,-0.7159785705951335,-32.368359375,-9.483319804043552,-5.208629690291793,75.6066287532944,0.5,0.5,17,0.0254,1.24e-05,0.298,1.45e-05,0.99,1.19e-05,1.43,3.71e-05,0.03333333333333333,0.01,0.13492684066295624,0.044666919857263565,-10.205984115600586,0.1698129028081894,0.18947982788085938,-0.6771495938301086,0.10952356441621806,-0.058525824407681774,-0.7126358931973273,-34.20648553329971
1576111720.634466,168,370,41,33,1280,720,0.147265625,0.5368055555555555,26.098907895697767,90,75.6066287532944,0.0,-9.483319804043552,-0.36328125,-0.5232075971856178,-0.1498248356354282,8.40429395319823,1225,214,214,1,90.0,50.625,65.57100178068202,-3.129466001857901,-32.6953125,-0.504083559147235,65.57100178068202,-3.129466001857901,-32.6953125,-0.504083559147235,1.6655034452293234,-0.9325937481087404,-0.7208521575816224,-32.368359375,-9.483319804043552,-5.208629690291793,75.6066287532944,0.5,0.5,17,0.0254,1.24e-05,0.298,1.45e-05,0.99,1.19e-05,1.43,3.71e-05,0.03333333333333333,0.01,0.14255034923553467,0.052203547209501266,-10.228867530822754,0.18893647193908691,0.2028590440750122,-0.6302415728569031,0.13629103111878482,-0.07195789079369211,-0.6710439919543738,-34.20648553329971
1576111720.6472456,168,370,41,33,1280,720,0.147265625,0.5368055555555555,26.098907895697767,90,75.21645419695743,0.0,-9.663163807531864,-0.352734375,-0.5169959950338063,-0.15407175422285166,9.098907895697767,1225,214,214,1,90.0,50.625,70.99043764455863,-3.09231249366015,-31.74609375,-0.5183722571983794,70.99043764455863,-3.09231249366015,-31.74609375,-0.5183722571983794,1.809877216642996,-0.9214552505238379,-0.7413253388634523,-31.4275032421875,-9.663163807531864,-5.329414755574298,75.21645419695743,0.5,0.5,17,0.0254,1.24e-05,0.298,1.45e-05,0.99,1.19e-05,1.43,3.71e-05,0.03333333333333333,0.01,0.14255034923553467,0.052203547209501266,-10.228867530822754,0.18893647193908691,0.2028590440750122,-0.6302415728569031,0.13629103111878482,-0.07195789079369211,-0.6710439919543738,-33.213475065722825
1576111720.6550593,168,370,41,33,1280,720,0.147265625,0.5368055555555555,26.098907895697767,90,74.95890142373459,0.0,-9.762464512780095,-0.352734375,-0.5198576925140601,-0.1560332496351624,9.098907895697767,1225,214,214,1,90.0,50.625,70.99043764455863,-3.1094291888691443,-31.74609375,-0.5249716810154996,70.99043764455863,-3.1094291888691443,-31.74609375,-0.5249716810154996,1.803157116171789,-0.9266347174910581,-0.7507339877145259,-31.4286328125,-9.762464512780095,-5.357475307118826,74.95890142373459,0.5,0.5,17,0.0254,1.24e-05,0.298,1.45e-05,0.99,1.19e-05,1.43,3.71e-05,0.03333333333333333,0.01,0.14255034923553467,0.052203547209501266,-10.228867530822754,0.18893647193908691,0.2028590440750122,-0.6302415728569031,0.13629103111878482,-0.07195789079369211,-0.6710439919543738,-32.87175387135792
1576111720.6689696,182,366,40,32,1280,720,0.1578125,0.5305555555555556,26.832815729997478,90,74.32480032156894,0.0,-9.85919279803217,-0.3421875,-0.5135501641499055,-0.16390352228827093,9.832815729997478,1225,214,214,1,90.0,50.625,76.71644772675116,-3.0717019164106496,-30.796874999999996,-0.5514511030259582,76.71644772675116,-3.0717019164106496,-30.796874999999996,-0.5514511030259582,1.955698024761398,-0.9153124665453087,-0.7886733159827791,-30.487776679687496,-9.85919279803217,-5.301014402118562,74.32480032156894,0.5,0.5,17,0.0254,1.24e-05,0.298,1.45e-05,0.99,1.19e-05,1.43,3.71e-05,0.03333333333333333,0.01,0.15065878629684448,0.0601317323744297,-10.250734329223633,0.21407756209373474,0.22366774082183838,-0.6237820982933044,0.16188069389602658,-0.08470192842956425,-0.6719976125639089,-31.375262839302707
1576111720.6762378,182,366,40,32,1280,720,0.1578125,0.5305555555555556,26.832815729997478,90,74.32480032156894,0.0,-9.85919279803217,-0.3421875,-0.5135501641499055,-0.16390352228827093,9.832815729997478,1225,214,214,1,90.0,50.625,76.71644772675116,-3.0717019164106496,-30.796874999999996,-0.5514511030259582,76.71644772675116,-3.0717019164106496,-30.796874999999996,-0.5514511030259582,1.955698024761398,-0.9153124665453087,-0.7886733159827791,-30.487776679687496,-9.85919279803217,-5.301014402118562,74.32480032156894,0.5,0.5,17,0.0254,1.24e-05,0.298,1.45e-05,0.99,1.19e-05,1.43,3.71e-05,0.03333333333333333,0.01,0.15065878629684448,0.0601317323744297,-10.250734329223633,0.21407756209373474,0.22366774082183838,-0.6237820982933044,0.16188069389602658,-0.08470192842956425,-0.6719976125639089,-31.375262839302707
1576111720.6873677,182,366,40,32,1280,720,0.1578125,0.5305555555555556,26.832815729997478,90,74.07004109571663,0.0,-9.856164462908914,-0.3421875,-0.5191870433809262,-0.1641341128475835,9.832815729997478,1225,214,214,1,90.0,50.625,76.71644772675116,-3.105417829568157,-30.796874999999996,-0.5522269217301875,76.71644772675116,-3.105417829568157,-30.796874999999996,-0.5522269217301875,1.9485977722594792,-0.9254390632177065,-0.7896837513993066,-30.488906249999996,-9.856164462908914,-5.257363090019833,74.07004109571663,0.5,0.5,17,0.0254,1.24e-05,0.298,1.45e-05,0.99,1.19e-05,1.43,3.71e-05,0.03333333333333333,0.01,0.15065878629684448,0.0601317323744297,-10.250734329223633,0.21407756209373474,0.22366774082183838,-0.6237820982933044,0.16188069389602658,-0.08470192842956425,-0.6719976125639089,-30.968576300647225
1576111720.6991107,200,350,38,32,1280,720,0.17109375,0.5083333333333333,27.529888064467414,90,73.69976971062108,0.0,-9.855231288313561,-0.32890625,-0.5100199198819879,-0.186337901991379,10.529888064467414,1225,214,214,1,90.0,50.625,82.1550641696468,-3.0505864366773108,-29.6015625,-0.6269312590364153,82.1550641696468,-3.0505864366773108,-29.6015625,-0.6269312590364153,2.0934825142982194,-0.9089952526101469,-0.8967888535134799,-29.304124453125002,-9.855231288313561,-5.224234538111156,73.69976971062108,0.5,0.5,17,0.0254,1.24e-05,0.298,1.45e-05,0.99,1.19e-05,1.43,3.71e-05,0.03333333333333333,0.01,0.15716275572776794,0.06647121161222458,-10.267228126525879,0.23587962985038757,0.24291977286338806,-0.6440476179122925,0.1847075808870402,-0.09511753140550915,-0.6973394544603322,-30.65160429673986
1576111720.7106583,200,350,38,32,1280,720,0.17109375,0.5083333333333333,27.529888064467414,90,73.11023559278976,0.0,-9.989256675302137,-0.32890625,-0.5165702989690026,-0.1889853170430052,10.529888064467414,1225,214,214,1,90.0,50.625,82.1550641696468,-3.0897662742071184,-29.6015625,-0.6358384498643166,82.1550641696468,-3.0897662742071184,-29.6015625,-0.6358384498643166,2.086738629909029,-0.9208071604781395,-0.9092820289839442,-29.305546875,-9.989256675302137,-5.283725058895144,73.11023559278976,0.5,0.5,17,0.0254,1.24e-05,0.298,1.45e-05,0.99,1.19e-05,1.43,3.71e-05,0.03333333333333333,0.01,0.15716275572776794,0.06647121161222458,-10.267228126525879,0.23587962985038757,0.24291977286338806,-0.6440476179122925,0.1847075808870402,-0.09511753140550915,-0.6973394544603322,-29.407580962070416
1576111720.7333198,230,320,38,30,1280,720,0.19453125,0.4652777777777778,28.432746132436435,90,72.66287186253227,0.0,-10.186125779070354,-0.32890625,-0.5202913101378348,-0.1919150971743191,10.529888064467414,1225,214,214,1,90.0,50.625,82.1550641696468,-3.112022789609479,-29.6015625,-0.6456956540444381,82.1550641696468,-3.112022789609479,-29.6015625,-0.6456956540444381,2.086738629909029,-0.9274150632509582,-0.9233813555110546,-29.305546875,-10.186125779070354,-5.346103895924401,72.66287186253227,0.5,0.5,17,0.0254,1.24e-05,0.298,1.45e-05,0.99,1.19e-05,1.43,3.71e-05,0.03333333333333333,0.01,0.15716275572776794,0.06647121161222458,-10.267228126525879,0.23587962985038757,0.24291977286338806,-0.6440476179122925,0.1847075808870402,-0.09511753140550915,-0.6973394544603322,-28.505898661433058
1576111720.7357602,230,320,38,30,1280,720,0.19453125,0.4652777777777778,28.432746132436435,90,72.66287186253227,0.0,-10.186125779070354,-0.30546875,-0.4981035070829748,-0.23592964501867364,11.432746132436435,1225,214,214,1,90.0,50.625,89.19923805411345,-2.9793106965710643,-27.4921875,-0.7937819832403973,89.19923805411345,-2.9793106965710643,-27.4921875,-0.7937819832403973,2.2743954221912204,-0.8876421550432714,-1.1356576363150852,-27.21475546875,-10.186125779070354,-5.346103895924401,72.66287186253227,0.5,0.5,17,0.0254,1.24e-05,0.298,1.45e-05,0.99,1.19e-05,1.43,3.71e-05,0.03333333333333333,0.01,0.17033013701438904,0.07822997123003006,-10.29652214050293,0.2775088846683502,0.27929583191871643,-0.7252427339553833,0.21554055727016966,-0.10861985108344864,-0.7891377332724577,-28.505898661433058
1576111720.7471223,230,320,38,30,1280,720,0.19453125,0.4652777777777778,28.432746132436435,90,72.21283069812013,0.0,-10.322571614346051,-0.30546875,-0.4981035070829748,-0.23592964501867364,11.432746132436435,1225,214,214,1,90.0,50.625,89.19923805411345,-2.9793106965710643,-27.4921875,-0.7937819832403973,89.19923805411345,-2.9793106965710643,-27.4921875,-0.7937819832403973,2.2743954221912204,-0.8876421550432714,-1.1356576363150852,-27.21475546875,-10.322571614346051,-5.305713572267531,72.21283069812013,0.5,0.5,17,0.0254,1.24e-05,0.298,1.45e-05,0.99,1.19e-05,1.43,3.71e-05,0.03333333333333333,0.01,0.17033013701438904,0.07822997123003006,-10.29652214050293,0.2775088846683502,0.27929583191871643,-0.7252427339553833,0.21554055727016966,-0.10861985108344864,-0.7891377332724577,-28.343565555429365
1576111720.7622597,230,320,38,30,1280,720,0.19453125,0.4652777777777778,28.432746132436435,90,71.98468871946336,0.0,-10.351485512650008,-0.30546875,-0.505638875339296,-0.2391960101264199,11.432746132436435,1225,214,214,1,90.0,50.625,89.19923805411345,-3.0243820581042002,-27.4921875,-0.8047716228552445,89.19923805411345,-3.0243820581042002,-27.4921875,-0.8047716228552445,2.2656606465744815,-0.9012658533150516,-1.1508234206829997,-27.217265625,-10.351485512650008,-5.236703902214661,71.98468871946336,0.5,0.5,17,0.0254,1.24e-05,0.298,1.45e-05,0.99,1.19e-05,1.43,3.71e-05,0.03333333333333333,0.01,0.17033013701438904,0.07822997123003006,-10.29652214050293,0.2775088846683502,0.27929583191871643,-0.7252427339553833,0.21554055727016966,-0.10861985108344864,-0.7891377332724577,-28.24035285933401
1576111720.77148,272,314,35,32,1280,720,0.226171875,0.4583333333333333,28.685486624025447,90,71.52649230918223,0.0,-10.35371044677214,-0.273828125,-0.47908932156464185,-0.2461844038868571,11.685486624025447,1225,214,214,1,90.0,50.625,91.17114043119855,-2.865580988797858,-24.644531249999996,-0.8282839756940987,91.17114043119855,-2.865580988797858,-24.644531249999996,-0.8282839756940987,2.318192125900029,-0.8537128731112674,-1.1845333160715932,-24.394697226562496,-10.35371044677214,-5.067494076377234,71.52649230918223,0.5,0.5,17,0.0254,1.24e-05,0.298,1.45e-05,0.99,1.19e-05,1.43,3.71e-05,0.03333333333333333,0.01,0.18209931254386902,0.0886458307504654,-10.322617530822754,0.3143421411514282,0.31169673800468445,-0.8007449507713318,0.244045038748125,-0.12305986415878008,-0.873187610578538,-28.034982731370068
1576111720.7831337,272,314,35,32,1280,720,0.226171875,0.4583333333333333,28.685486624025447,90,71.18762613389039,0.0,-10.375393736065991,-0.273828125,-0.47908932156464185,-0.2461844038868571,11.685486624025447,1225,214,214,1,90.0,50.625,91.17114043119855,-2.865580988797858,-24.644531249999996,-0.8282839756940987,91.17114043119855,-2.865580988797858,-24.644531249999996,-0.8282839756940987,2.3157469669524433,-0.8539431346617616,-1.1844460852425611,-24.398085937499996,-10.375393736065991,-4.987718320645131,71.18762613389039,0.5,0.5,17,0.0254,1.24e-05,0.298,1.45e-05,0.99,1.19e-05,1.43,3.71e-05,0.03333333333333333,0.01,0.18209931254386902,0.0886458307504654,-10.322617530822754,0.3143421411514282,0.31169673800468445,-0.8007449507713318,0.244045038748125,-0.12305986415878008,-0.873187610578538,-27.681943913550448
1576111720.7953258,272,314,35,32,1280,720,0.226171875,0.4583333333333333,28.685486624025447,90,70.86330826153068,0.0,-10.467027553970883,-0.273828125,-0.47908932156464185,-0.2461844038868571,11.685486624025447,1225,214,214,1,90.0,50.625,91.17114043119855,-2.865580988797858,-24.644531249999996,-0.8282839756940987,91.17114043119855,-2.865580988797858,-24.644531249999996,-0.8282839756940987,2.3157469669524433,-0.8539431346617616,-1.1844460852425611,-24.398085937499996,-10.467027553970883,-4.954081346530111,70.86330826153068,0.5,0.5,17,0.0254,1.24e-05,0.298,1.45e-05,0.99,1.19e-05,1.43,3.71e-05,0.03333333333333333,0.01,0.18209931254386902,0.0886458307504654,-10.322617530822754,0.3143421411514282,0.31169673800468445,-0.8007449507713318,0.244045038748125,-0.12305986415878008,-0.873187610578538,-27.26317306270592
1576111720.8073208,272,314,35,32,1280,720,0.226171875,0.4583333333333333,28.685486624025447,90,70.5600273718146,0.0,-10.62851713161208,-0.273828125,-0.4864580332052147,-0.2484227664981903,11.685486624025447,1225,214,214,1,90.0,50.625,91.17114043119855,-2.9096555257134336,-24.644531249999996,-0.8358149153210142,91.17114043119855,-2.9096555257134336,-24.644531249999996,-0.8358149153210142,2.3157469669524433,-0.8671412547411308,-1.195243268695066,-24.398085937499996,-10.62851713161208,-4.932266149207914,70.5600273718146,0.5,0.5,17,0.0254,1.24e-05,0.298,1.45e-05,0.99,1.19e-05,1.43,3.71e-05,0.03333333333333333,0.01,0.19484470784664154,0.10008355230093002,-10.351834297180176,0.3577483892440796,0.35202986001968384,-0.9406720399856567,0.27147722150207365,-0.13480424068389052,-1.0222038710854808,-26.425718445928776
1576111720.819387,310,312,32,30,1280,720,0.2546875,0.45416666666666666,30.983866769659336,90,70.46177510060396,0.0,-10.688707319899171,-0.273828125,-0.4909195127710671,-0.2528016260720824,11.685486624025447,1225,214,214,1,90.0,50.625,91.17114043119855,-2.9363410109671304,-24.644531249999996,-0.8505475269714922,91.17114043119855,-2.9363410109671304,-24.644531249999996,-0.8505475269714922,2.3157469669524433,-0.8750683152218227,-1.2163376215584571,-24.398085937499996,-10.688707319899171,-4.920548959686757,70.46177510060396,0.5,0.5,17,0.0254,1.24e-05,0.298,1.45e-05,0.99,1.19e-05,1.43,3.71e-05,0.03333333333333333,0.01,0.19484470784664154,0.10008355230093002,-10.351834297180176,0.3577483892440796,0.35202986001968384,-0.9406720399856567,0.27147722150207365,-0.13480424068389052,-1.0222038710854808,-25.410325448441757
1576111720.8274853,310,312,32,30,1280,720,0.2546875,0.45416666666666666,30.983866769659336,90,69.98229582086907,0.0,-10.948500395169775,-0.2453125,-0.4666732113482698,-0.26134519601154554,13.983866769659336,1225,214,214,1,90.0,50.625,109.10329385911295,-2.7913164043260994,-22.078125,-0.8792922482631439,109.10329385911295,-2.7913164043260994,-22.078125,-0.8792922482631439,2.793459534272083,-0.8316020028095481,-1.2574945579322876,-21.8542897265625,-10.948500395169775,-4.784170999415935,69.98229582086907,0.5,0.5,17,0.0254,1.24e-05,0.298,1.45e-05,0.99,1.19e-05,1.43,3.71e-05,0.03333333333333333,0.01,0.19484470784664154,0.10008355230093002,-10.351834297180176,0.3577483892440796,0.35202986001968384,-0.9406720399856567,0.27147722150207365,-0.13480424068389052,-1.0222038710854808,-24.388421573128422
1576111720.8385863,342,302,32,28,1280,720,0.2796875,0.4388888888888889,32.071349029490925,90,69.98229582086907,0.0,-10.948500395169775,-0.22031250000000002,-0.44273143532367704,-0.2773777855836005,15.071349029490925,1225,214,214,1,90.0,50.625,117.58792107384065,-2.6481132580107785,-19.828125000000004,-0.9332336711223942,117.58792107384065,-2.6481132580107785,-19.828125000000004,-0.9332336711223942,2.9972541330218148,-0.7889301063250548,-1.3347242723838313,-19.627166250000002,-10.948500395169775,-4.784170999415935,69.98229582086907,0.5,0.5,17,0.0254,1.24e-05,0.298,1.45e-05,0.99,1.19e-05,1.43,3.71e-05,0.03333333333333333,0.01,0.2123936265707016,0.11610228568315506,-10.395211219787598,0.40678003430366516,0.4001326858997345,-1.0857335329055786,0.2996172252262206,-0.14731541521531044,-1.1802208072630886,-24.388421573128422
1576111720.8545442,342,302,32,28,1280,720,0.2796875,0.4388888888888889,32.071349029490925,90,69.42011661066365,0.0,-10.993088723845265,-0.22031250000000002,-0.4489778709926261,-0.2782585426932398,15.071349029490925,1225,214,214,1,90.0,50.625,117.58792107384065,-2.6854751162175767,-19.828125000000004,-0.9361969660707133,117.58792107384065,-2.6854751162175767,-19.828125000000004,-0.9361969660707133,2.9867331952755523,-0.8003257593272377,-1.3387726553053783,-19.629843750000003,-10.993088723845265,-4.461565370103777,69.42011661066365,0.5,0.5,17,0.0254,1.24e-05,0.298,1.45e-05,0.99,1.19e-05,1.43,3.71e-05,0.03333333333333333,0.01,0.2123936265707016,0.11610228568315506,-10.395211219787598,0.40678003430366516,0.4001326858997345,-1.0857335329055786,0.2996172252262206,-0.14731541521531044,-1.1802208072630886,-22.73071587854611
1576111720.867341,342,302,32,28,1280,720,0.2796875,0.4388888888888889,32.071349029490925,90,69.23753882396005,0.0,-10.959907664857344,-0.22031250000000002,-0.4510065130671106,-0.2776031143675525,15.071349029490925,1225,214,214,1,90.0,50.625,117.58792107384065,-2.6976090501210352,-19.828125000000004,-0.9339917866571859,117.58792107384065,-2.6976090501210352,-19.828125000000004,-0.9339917866571859,2.9867331952755523,-0.8039050911402285,-1.3356000737041513,-19.629843750000003,-10.959907664857344,-4.356517487555804,69.23753882396005,0.5,0.5,17,0.0254,1.24e-05,0.298,1.45e-05,0.99,1.19e-05,1.43,3.71e-05,0.03333333333333333,0.01,0.22354423999786377,0.12645931541919708,-10.423124313354492,0.42493128776550293,0.42036736011505127,-1.0963317155838013,0.32534993456746736,-0.1579869550323107,-1.1951594410302042,-22.225082096931942
1576111720.8792677,372,304,32,28,1280,720,0.303125,0.44166666666666665,32.071349029490925,90,68.96649642712643,0.0,-10.911567854780223,-0.22031250000000002,-0.4540180952541508,-0.27664825392158465,15.071349029490925,1225,214,214,1,90.0,50.625,117.58792107384065,-2.715622251987444,-19.828125000000004,-0.9307791720726213,117.58792107384065,-2.715622251987444,-19.828125000000004,-0.9307791720726213,2.9867331952755523,-0.8092815502349646,-1.3310022972637396,-19.629843750000003,-10.911567854780223,-4.228342157591345,68.96649642712643,0.5,0.5,17,0.0254,1.24e-05,0.298,1.45e-05,0.99,1.19e-05,1.43,3.71e-05,0.03333333333333333,0.01,0.22354423999786377,0.12645931541919708,-10.423124313354492,0.42493128776550293,0.42036736011505127,-1.0963317155838013,0.32534993456746736,-0.1579869550323107,-1.1951594410302042,-21.755901034918136
1576111720.8968277,372,304,32,28,1280,720,0.303125,0.44166666666666665,32.071349029490925,90,68.53094892413306,0.0,-10.900114481315759,-0.19687500000000002,-0.43350088057928515,-0.27348036272187914,15.071349029490925,1225,214,214,1,90.0,50.625,117.58792107384065,-2.592902463277967,-17.718750000000004,-0.9201208465409018,117.58792107384065,-2.592902463277967,-17.718750000000004,-0.9201208465409018,2.9867331952755523,-0.7725069903632054,-1.3157332681657667,-17.539052343750004,-10.900114481315759,-4.083759432580045,68.53094892413306,0.5,0.5,17,0.0254,1.24e-05,0.298,1.45e-05,0.99,1.19e-05,1.43,3.71e-05,0.03333333333333333,0.01,0.2425500750541687,0.14434629678726196,-10.468066215515137,0.438692182302475,0.4353993237018585,-0.9933423399925232,0.36770450882034844,-0.17118321197007397,-1.097379655565001,-21.24419009248995
1576111720.9114394,372,304,32,28,1280,720,0.303125,0.44166666666666665,32.071349029490925,90,68.04894247440525,0.0,-11.00359696988333,-0.19687500000000002,-0.440775639173275,-0.27568833520757197,15.071349029490925,1225,214,214,1,90.0,50.625,117.58792107384065,-2.6364150380457567,-17.718750000000004,-0.9275495390161299,117.58792107384065,-2.6364150380457567,-17.718750000000004,-0.9275495390161299,2.9867331952755523,-0.7856981301419291,-1.3264213557277338,-17.541562500000005,-11.00359696988333,-3.9061313985905786,68.04894247440525,0.5,0.5,17,0.0254,1.24e-05,0.298,1.45e-05,0.99,1.19e-05,1.43,3.71e-05,0.03333333333333333,0.01,0.2425500750541687,0.14434629678726196,-10.468066215515137,0.438692182302475,0.4353993237018585,-0.9933423399925232,0.36770450882034844,-0.17118321197007397,-1.097379655565001,-19.684835706861236
1576111720.9187984,396,296,32,28,1280,720,0.321875,0.4305555555555556,32.071349029490925,90,68.04894247440525,0.0,-11.00359696988333,-0.19687500000000002,-0.440775639173275,-0.27568833520757197,15.071349029490925,1225,214,214,1,90.0,50.625,117.58792107384065,-2.6364150380457567,-17.718750000000004,-0.9275495390161299,117.58792107384065,-2.6364150380457567,-17.718750000000004,-0.9275495390161299,2.9867331952755523,-0.7856981301419291,-1.3264213557277338,-17.541562500000005,-11.00359696988333,-3.9061313985905786,68.04894247440525,0.5,0.5,17,0.0254,1.24e-05,0.298,1.45e-05,0.99,1.19e-05,1.43,3.71e-05,0.03333333333333333,0.01,0.2425500750541687,0.14434629678726196,-10.468066215515137,0.438692182302475,0.4353993237018585,-0.9933423399925232,0.36770450882034844,-0.17118321197007397,-1.097379655565001,-19.684835706861236
1576111720.931589,396,296,32,28,1280,720,0.321875,0.4305555555555556,32.071349029490925,90,67.74034086732574,0.0,-11.096930651117908,-0.17812499999999998,-0.4237624044972275,-0.2877502255158134,15.071349029490925,1225,214,214,1,90.0,50.625,117.58792107384065,-2.5346536343759403,-16.031249999999996,-0.9681315998662882,117.58792107384065,-2.5346536343759403,-16.031249999999996,-0.9681315998662882,2.9867331952755523,-0.7551792290087089,-1.384578747254546,-15.868929374999997,-11.096930651117908,-3.732470423848419,67.74034086732574,0.5,0.5,17,0.0254,1.24e-05,0.298,1.45e-05,0.99,1.19e-05,1.43,3.71e-05,0.03333333333333333,0.01,0.25956490635871887,0.15818066895008087,-10.50048542022705,0.4476708173751831,0.44399502873420715,-0.8918781876564026,0.39797418504005144,-0.18135254438752066,-1.0008572578410981,-19.171266952978808
1576111720.9499378,423,294,29,28,1280,720,0.341796875,0.42777777777777776,33.68939550449263,90,67.37668793553593,0.0,-11.175990090760806,-0.17812499999999998,-0.4254545459186029,-0.28864307458998334,15.071349029490925,1225,214,214,1,90.0,50.625,117.58792107384065,-2.544774854092578,-16.031249999999996,-0.971135578059757,117.58792107384065,-2.544774854092578,-16.031249999999996,-0.971135578059757,2.9867331952755523,-0.7583575822881773,-1.3887350213845504,-15.870937499999997,-11.175990090760806,-3.49950163588257,67.37668793553593,0.5,0.5,17,0.0254,1.24e-05,0.298,1.45e-05,0.99,1.19e-05,1.43,3.71e-05,0.03333333333333333,0.01,0.25956490635871887,0.15818066895008087,-10.50048542022705,0.4476708173751831,0.44399502873420715,-0.8918781876564026,0.39797418504005144,-0.18135254438752066,-1.0008572578410981,-17.82378503540389
1576111720.9611993,423,294,29,28,1280,720,0.341796875,0.42777777777777776,33.68939550449263,90,67.17357176999808,0.0,-11.199414224519364,-0.158203125,-0.4095732590496008,-0.29298252031132455,16.68939550449263,1225,214,214,1,90.0,50.625,130.21205450901022,-2.449783979362098,-14.23828125,-0.9857355823558582,130.21205450901022,-2.449783979362098,-14.23828125,-0.9857355823558582,3.3230401099884697,-0.7298978890815461,-1.4096560487848158,-14.0937648046875,-11.199414224519364,-3.3886446774455012,67.17357176999808,0.5,0.5,17,0.0254,1.24e-05,0.298,1.45e-05,0.99,1.19e-05,1.43,3.71e-05,0.03333333333333333,0.01,0.25956490635871887,0.15818066895008087,-10.50048542022705,0.4476708173751831,0.44399502873420715,-0.8918781876564026,0.39797418504005144,-0.18135254438752066,-1.0008572578410981,-16.726523682977803
1576111720.968199,423,294,29,28,1280,720,0.341796875,0.42777777777777776,33.68939550449263,90,67.10780387848003,0.0,-11.207169050548266,-0.158203125,-0.4118301053333547,-0.29344521924976524,16.68939550449263,1225,214,214,1,90.0,50.625,130.21205450901022,-2.4632828730219343,-14.23828125,-0.9872923264478083,130.21205450901022,-2.4632828730219343,-14.23828125,-0.9872923264478083,3.3073861845288595,-0.7340778695563431,-1.411833802340947,-14.0958984375,-11.207169050548266,-3.35888340879764,67.10780387848003,0.5,0.5,17,0.0254,1.24e-05,0.298,1.45e-05,0.99,1.19e-05,1.43,3.71e-05,0.03333333333333333,0.01,0.2765931487083435,0.1724226176738739,-10.53045654296875,0.4608565866947174,0.46220308542251587,-0.8461375832557678,0.4289329505289826,-0.18902297326356876,-0.9603416761762512,-16.512499705335454
1576111720.979842,436,298,30,28,1280,720,0.35234375,0.43333333333333335,33.123146848433,90,66.91711865723161,0.0,-11.230949207917313,-0.158203125,-0.41256085968355527,-0.29359840099848433,16.68939550449263,1225,214,214,1,90.0,50.625,130.21205450901022,-2.467653740163321,-14.23828125,-0.9878077042939659,130.21205450901022,-2.467653740163321,-14.23828125,-0.9878077042939659,3.3073861845288595,-0.7353671523260247,-1.4125669291921805,-14.0958984375,-11.230949207917313,-3.2960569809343356,66.91711865723161,0.5,0.5,17,0.0254,1.24e-05,0.298,1.45e-05,0.99,1.19e-05,1.43,3.71e-05,0.03333333333333333,0.01,0.2765931487083435,0.1724226176738739,-10.53045654296875,0.4608565866947174,0.46220308542251587,-0.8461375832557678,0.4289329505289826,-0.18902297326356876,-0.9603416761762512,-15.707150392751958
1576111720.991148,436,298,30,28,1280,720,0.35234375,0.43333333333333335,33.123146848433,90,66.73503264414825,0.0,-11.272092559930178,-0.14765625,-0.4041327093640932,-0.2885125769465148,16.123146848433002,1225,214,214,1,90.0,50.625,125.79413530704498,-2.4172423737665385,-13.289062499999998,-0.9706965205677133,125.79413530704498,-2.4172423737665385,-13.289062499999998,-0.9706965205677133,3.1896928169885053,-0.7202651309011532,-1.3880325419202055,-13.155042304687498,-11.272092559930178,-3.25266009338219,66.73503264414825,0.5,0.5,17,0.0254,1.24e-05,0.298,1.45e-05,0.99,1.19e-05,1.43,3.71e-05,0.03333333333333333,0.01,0.2765931487083435,0.1724226176738739,-10.53045654296875,0.4608565866947174,0.46220308542251587,-0.8461375832557678,0.4289329505289826,-0.18902297326356876,-0.9603416761762512,-15.108656774276882
1576111721.0033047,436,298,30,28,1280,720,0.35234375,0.43333333333333335,33.123146848433,90,66.55582214070544,0.0,-11.328165851695044,-0.14765625,-0.40615588728724167,-0.28932528513442324,16.123146848433002,1225,214,214,1,90.0,50.625,125.79413530704498,-2.429343624895651,-13.289062499999998,-0.9734308658728258,125.79413530704498,-2.429343624895651,-13.289062499999998,-0.9734308658728258,3.1951710367989423,-0.7239619470330412,-1.3920162826192228,-13.156171874999998,-11.328165851695044,-3.1914788873352125,66.55582214070544,0.5,0.5,17,0.0254,1.24e-05,0.298,1.45e-05,0.99,1.19e-05,1.43,3.71e-05,0.03333333333333333,0.01,0.29392439126968384,0.18743549287319183,-10.560565948486328,0.48373469710350037,0.492960661649704,-0.8948876261711121,0.45660044140960687,-0.19235004056459198,-1.016046668903279,-14.841591255087508
1576111721.0178008,460,296,30,28,1280,720,0.37109375,0.4305555555555556,33.123146848433,90,66.49762892897694,0.0,-11.350211141014906,-0.14765625,-0.4087937063447007,-0.2908683682175784,16.123146848433002,1225,214,214,1,90.0,50.625,125.79413530704498,-2.445121234211294,-13.289062499999998,-0.9786225472740955,125.79413530704498,-2.445121234211294,-13.289062499999998,-0.9786225472740955,3.1951710367989423,-0.7286690053284732,-1.3994495037399552,-13.156171874999998,-11.350211141014906,-3.163050786235973,66.49762892897694,0.5,0.5,17,0.0254,1.24e-05,0.298,1.45e-05,0.99,1.19e-05,1.43,3.71e-05,0.03333333333333333,0.01,0.29392439126968384,0.18743549287319183,-10.560565948486328,0.48373469710350037,0.492960661649704,-0.8948876261711121,0.45660044140960687,-0.19235004056459198,-1.016046668903279,-14.755732362125862
1576111721.0323076,460,296,30,28,1280,720,0.37109375,0.4305555555555556,33.123146848433,90,66.21873864478698,0.0,-11.441782633443621,-0.12890625,-0.39314248728014467,-0.2954549655988863,16.123146848433002,1225,214,214,1,90.0,50.625,125.79413530704498,-2.351506465974697,-11.6015625,-0.9940540898654118,125.79413530704498,-2.351506465974697,-11.6015625,-0.9940540898654118,3.1951710367989423,-0.7007758022689466,-1.4215199266333565,-11.485546875,-11.441782633443621,-2.956379080348319,66.21873864478698,0.5,0.5,17,0.0254,1.24e-05,0.298,1.45e-05,0.99,1.19e-05,1.43,3.71e-05,0.03333333333333333,0.01,0.31177976727485657,0.20353148877620697,-10.592902183532715,0.5087347626686096,0.5277903079986572,-0.9745833873748779,0.4811163566685909,-0.19606707692927566,-1.1033001403073626,-13.338637156530174
1576111721.0380704,460,296,30,28,1280,720,0.37109375,0.4305555555555556,33.123146848433,90,66.01230983750169,0.0,-11.47827377285806,-0.12890625,-0.39314248728014467,-0.2954549655988863,16.123146848433002,1225,214,214,1,90.0,50.625,125.79413530704498,-2.351506465974697,-11.6015625,-0.9940540898654118,125.79413530704498,-2.351506465974697,-11.6015625,-0.9940540898654118,3.1951710367989423,-0.7007758022689466,-1.4215199266333565,-11.485546875,-11.47827377285806,-2.7660266173785297,66.01230983750169,0.5,0.5,17,0.0254,1.24e-05,0.298,1.45e-05,0.99,1.19e-05,1.43,3.71e-05,0.03333333333333333,0.01,0.31177976727485657,0.20353148877620697,-10.592902183532715,0.5087347626686096,0.5277903079986572,-0.9745833873748779,0.4811163566685909,-0.19606707692927566,-1.1033001403073626,-12.65243622514932
1576111721.0515134,486,298,28,28,1280,720,0.390625,0.43333333333333335,34.285714285714285,90,65.91064247170604,0.0,-11.483987226098774,-0.109375,-0.3770345280921551,-0.29351085878713623,17.285714285714285,1225,214,214,1,90.0,50.625,134.86458333333334,-2.255159794196068,-9.84375,-0.9875131697511126,134.86458333333334,-2.255159794196068,-9.84375,-0.9875131697511126,3.4368077722192645,-0.6718780233760833,-1.4121105685720634,-9.743220703125,-11.483987226098774,-2.684867534896088,65.91064247170604,0.5,0.5,17,0.0254,1.24e-05,0.298,1.45e-05,0.99,1.19e-05,1.43,3.71e-05,0.03333333333333333,0.01,0.31177976727485657,0.20353148877620697,-10.592902183532715,0.5087347626686096,0.5277903079986572,-0.9745833873748779,0.4811163566685909,-0.19606707692927566,-1.1033001403073626,-12.433355346200221
1576111721.0633852,486,298,28,28,1280,720,0.390625,0.43333333333333335,34.285714285714285,90,65.76256397050017,0.0,-11.490615070914627,-0.109375,-0.3786798447722204,-0.2936417791785605,17.285714285714285,1225,214,214,1,90.0,50.625,134.86458333333334,-2.2650009406936547,-9.84375,-0.9879536495727269,134.86458333333334,-2.2650009406936547,-9.84375,-0.9879536495727269,3.425560416666667,-0.6749845499891305,-1.4127753530691376,-9.7453125,-11.490615070914627,-2.600312140848857,65.76256397050017,0.5,0.5,17,0.0254,1.24e-05,0.298,1.45e-05,0.99,1.19e-05,1.43,3.71e-05,0.03333333333333333,0.01,0.3301403820514679,0.22070389986038208,-10.627520561218262,0.5275371670722961,0.558931291103363,-1.0161477327346802,0.5092469670113979,-0.19958447178745015,-1.150690849346593,-12.154240519541297
1576111721.0728407,486,298,28,28,1280,720,0.390625,0.43333333333333335,34.285714285714285,90,65.66560260504266,0.0,-11.49040248127671,-0.109375,-0.3786798447722204,-0.2936417791785605,17.285714285714285,1225,214,214,1,90.0,50.625,134.86458333333334,-2.2650009406936547,-9.84375,-0.9879536495727269,134.86458333333334,-2.2650009406936547,-9.84375,-0.9879536495727269,3.425560416666667,-0.6749845499891305,-1.4127753530691376,-9.7453125,-11.49040248127671,-2.5733414313637692,65.66560260504266,0.5,0.5,17,0.0254,1.24e-05,0.298,1.45e-05,0.99,1.19e-05,1.43,3.71e-05,0.03333333333333333,0.01,0.3301403820514679,0.22070389986038208,-10.627520561218262,0.5275371670722961,0.558931291103363,-1.0161477327346802,0.5092469670113979,-0.19958447178745015,-1.150690849346593,-11.939013574831378
1576111721.084787,508,302,28,26,1280,720,0.4078125,0.4375,35.579967199732856,90,65.52210716076986,0.0,-11.493025273917995,-0.109375,-0.37975719327730373,-0.29363757987707084,17.285714285714285,1225,214,214,1,90.0,50.625,134.86458333333334,-2.2714448943689196,-9.84375,-0.9879395210817337,134.86458333333334,-2.2714448943689196,-9.84375,-0.9879395210817337,3.425560416666667,-0.6768999222547671,-1.4127534627301774,-9.7453125,-11.493025273917995,-2.5666181773429497,65.52210716076986,0.5,0.5,17,0.0254,1.24e-05,0.298,1.45e-05,0.99,1.19e-05,1.43,3.71e-05,0.03333333333333333,0.01,0.3301403820514679,0.22070389986038208,-10.627520561218262,0.5275371670722961,0.558931291103363,-1.0161477327346802,0.5092469670113979,-0.19958447178745015,-1.150690849346593,-11.725218408526224
1576111721.0987556,508,302,28,26,1280,720,0.4078125,0.4375,35.579967199732856,90,65.43190768259068,0.0,-11.496701623238755,-0.09218749999999998,-0.36516630352677026,-0.2895953407059507,18.579967199732856,1225,214,214,1,90.0,50.625,144.96245242291573,-2.1841722827769434,-8.296874999999998,-0.9743394640574042,144.96245242291573,-2.1841722827769434,-8.296874999999998,-0.9743394640574042,3.6820462915420595,-0.6508920323875448,-1.3933063400531605,-8.213906249999997,-11.496701623238755,-2.572871428971508,65.43190768259068,0.5,0.5,17,0.0254,1.24e-05,0.298,1.45e-05,0.99,1.19e-05,1.43,3.71e-05,0.03333333333333333,0.01,0.35343942046165466,0.24332207441329956,-10.6713228225708,0.5407775640487671,0.5864078998565674,-0.987193763256073,0.5461898657466017,-0.19754707309358618,-1.128502507517047,-11.346262437900991
