time,x_bb,y_bb,w_bb,h_bb,w_im,h_im,f_u,f_v,f_delta,psi_telem_ref,psi_telem,theta_centroid_ref,theta_centroid,delta_f_u_psi,delta_f_u_y,delta_f_v_z,delta_f_delta_x,A_exp,alpha_u,alpha_v,d_exp,FOV_u,FOV_v,delta_x_tme,delta_y_tme,delta_psi_tme,delta_z_tme,prev_delta_x_tme,prev_delta_y_tme,prev_delta_psi_tme,prev_delta_z_tme,v_xr,v_yr,v_zr,yawrate,pitch_angle,roll_angle,yaw_angle,got_initial_frame,f_u_ref,f_v_ref,f_delta_ref,kp_vx,kd_vx,kp_vy,kd_vy,kp_yaw,kd_yaw,kp_vz,kd_vz,camera_period,controller_period,local_x,local_y,local_z,local_vx,local_vy,local_vz,body_vx,body_vy,body_vz,body_yawrate
1576098568.9588003,366,370,30,28,1280,720,0.29765625,0.5333333333333333,33.123146848433,90,87.01810583739068,0.0,-3.49954261701759,-0.20234375,-0.23549025075958271,-0.035631554710728555,16.123146848433002,1225,100,100,1,90.0,50.625,58.78230621824532,-3.014275209722659,-18.2109375,-0.2565471939172456,58.78230621824532,-3.014275209722659,-18.2109375,-0.2565471939172456,1.493070577943431,-0.8981088040339075,-0.36686708026145787,-18.02799140625,-3.49954261701759,-0.6424482336616341,87.01810583739068,False,0.5,0.5,17,0.0254,0.0124,0.298,0.145,0.99,0.119,1.43,0.371,0.03333333333333333,0.01,0.0996224582195282,-0.0048865689896047115,-10.084174156188965,-0.07283860445022583,-0.020359184592962265,0.08139645308256149,-0.01910724637823121,0.07074891111499372,0.08351554335483123,-0.12276883502999751
1576098568.961882,366,370,30,28,1280,720,0.29765625,0.5333333333333333,33.123146848433,90,87.02048274322185,0.0,-3.5036172517443256,-0.20234375,-0.2354759073623258,-0.035793434410224007,16.123146848433002,1225,100,100,1,90.0,50.625,58.78230621824532,-3.0140916142377705,-18.2109375,-0.25771272775361287,58.78230621824532,-3.0140916142377705,-18.2109375,-0.25771272775361287,1.493070577943431,-0.8981990348294026,-0.3685335248181993,-18.028828125,-3.5036172517443256,-0.622053235439123,87.02048274322185,False,0.5,0.5,17,0.0254,0.0124,0.298,0.145,0.99,0.119,1.43,0.371,0.03333333333333333,0.01,0.0996224582195282,-0.0048865689896047115,-10.084174156188965,-0.07283860445022583,-0.020359184592962265,0.08139645308256149,-0.01910724637823121,0.07074891111499372,0.08351554335483123,-0.08556907682938254
1576098568.9723375,366,370,30,28,1280,720,0.29765625,0.5333333333333333,33.123146848433,90,87.02001146016912,0.0,-3.5020655181422633,-0.20234375,-0.2354547337758987,-0.035843269494168176,16.123146848433002,1225,100,100,1,90.0,50.625,58.78230621824532,-3.013820592331504,-18.2109375,-0.2580715403580109,58.78230621824532,-3.013820592331504,-18.2109375,-0.2580715403580109,1.493070577943431,-0.898118143533024,-0.36904363390671785,-18.028828125,-3.5020655181422633,-0.6178004288245852,87.02001146016912,False,0.5,0.5,17,0.0254,0.0124,0.298,0.145,0.99,0.119,1.43,0.371,0.03333333333333333,0.01,0.0996224582195282,-0.0048865689896047115,-10.084174156188965,-0.07283860445022583,-0.020359184592962265,0.08139645308256149,-0.01910724637823121,0.07074891111499372,0.08351554335483123,-0.09031418400258362
1576098568.984187,376,370,30,28,1280,720,0.30546875,0.5333333333333333,33.123146848433,90,87.02054421492437,0.0,-3.5026870653567346,-0.19453125,-0.22763631427861808,-0.035855546970009575,16.123146848433002,1225,100,100,1,90.0,50.625,58.78230621824532,-2.9137448227663114,-17.5078125,-0.25815993818406896,58.78230621824532,-2.9137448227663114,-17.5078125,-0.25815993818406896,1.493070577943431,-0.8681508473184912,-0.3691690395591533,-17.33189765625,-3.5026870653567346,-0.6076259015604992,87.02054421492437,False,0.5,0.5,17,0.0254,0.0124,0.298,0.145,0.99,0.119,1.43,0.371,0.03333333333333333,0.01,0.0996224582195282,-0.0048865689896047115,-10.084174156188965,-0.07283860445022583,-0.020359184592962265,0.08139645308256149,-0.01910724637823121,0.07074891111499372,0.08351554335483123,-0.19793549373281097
1576098568.9934669,376,370,30,28,1280,720,0.30546875,0.5333333333333333,33.123146848433,90,87.02025051679007,0.0,-3.5045504263396787,-0.19453125,-0.22763957759122141,-0.03589235410053687,16.123146848433002,1225,100,100,1,90.0,50.625,58.78230621824532,-2.913786593167634,-17.5078125,-0.25842494952386547,58.78230621824532,-2.913786593167634,-17.5078125,-0.25842494952386547,1.493070577943431,-0.8683084653310368,-0.36954866101119827,-17.332734375,-3.5045504263396787,-0.6086987748687201,87.02025051679007,False,0.5,0.5,17,0.0254,0.0124,0.298,0.145,0.99,0.119,1.43,0.371,0.03333333333333333,0.01,0.09951650351285934,-0.005064480938017368,-10.084173202514648,-0.0726507157087326,-0.021710693836212158,0.08285774290561676,-0.020347797059497318,0.0705264682398015,0.08501100347425557,-0.2038835479632607
1576098569.0131137,376,370,30,28,1280,720,0.30546875,0.5333333333333333,33.123146848433,90,86.99361960921618,0.0,-3.7289148834986046,-0.19453125,-0.22768594698658687,-0.03685408268117006,16.123146848433002,1225,100,100,1,90.0,50.625,58.78230621824532,-2.9143801214283123,-17.5078125,-0.2653493953044245,58.78230621824532,-2.9143801214283123,-17.5078125,-0.2653493953044245,1.493070577943431,-0.868486136801615,-0.37947532497917286,-17.332734375,-3.7289148834986046,-0.8178180363567658,86.99361960921618,False,0.5,0.5,17,0.0254,0.0124,0.298,0.145,0.99,0.119,1.43,0.371,0.03333333333333333,0.01,0.09951650351285934,-0.005064480938017368,-10.084173202514648,-0.0726507157087326,-0.021710693836212158,0.08285774290561676,-0.020347797059497318,0.0705264682398015,0.08501100347425557,-2.0348537995116067
1576098569.03661,388,370,28,28,1280,720,0.3140625,0.5333333333333333,34.285714285714285,90,86.8092386525717,0.0,-5.010817593531291,-0.18593749999999998,-0.2203151044119822,-0.05280372540650996,17.285714285714285,1225,100,100,1,90.0,50.625,63.020833333333336,-2.8200333364733723,-16.734374999999996,-0.3801868229268717,63.020833333333336,-2.8200333364733723,-16.734374999999996,-0.3801868229268717,1.6012547440289377,-0.8402331314308803,-0.5440932036419058,-16.566110859374994,-5.010817593531291,-2.0485844007340366,86.8092386525717,False,0.5,0.5,17,0.0254,0.0124,0.298,0.145,0.99,0.119,1.43,0.371,0.03333333333333333,0.01,0.0991898775100708,-0.005216116085648537,-10.086138725280762,-0.07062702625989914,-0.007723333779722452,-0.14066416025161743,-0.020540942222876706,0.07211048185357083,-0.13860873277584088,-12.621107001200118
1576098569.0404232,388,370,28,28,1280,720,0.3140625,0.5333333333333333,34.285714285714285,90,86.8092386525717,0.0,-5.010817593531291,-0.18593749999999998,-0.2213904038603145,-0.06564577962530946,17.285714285714285,1225,100,100,1,90.0,50.625,63.020833333333336,-2.833797169412026,-16.734374999999996,-0.4726496133022281,63.020833333333336,-2.833797169412026,-16.734374999999996,-0.4726496133022281,1.6007291666666668,-0.8444915140425447,-0.6762319839744787,-16.567031249999996,-5.010817593531291,-2.0485844007340366,86.8092386525717,False,0.5,0.5,17,0.0254,0.0124,0.298,0.145,0.99,0.119,1.43,0.371,0.03333333333333333,0.01,0.0991898775100708,-0.005216116085648537,-10.086138725280762,-0.07062702625989914,-0.007723333779722452,-0.14066416025161743,-0.020540942222876706,0.07211048185357083,-0.13860873277584088,-12.621107001200118
1576098569.0547178,398,370,28,28,1280,720,0.321875,0.5333333333333333,34.285714285714285,90,86.50044580019541,0.0,-6.334660226388795,-0.18593749999999998,-0.22376784092841445,-0.08646596700529316,17.285714285714285,1225,100,100,1,90.0,50.625,63.020833333333336,-2.864228363883705,-16.734374999999996,-0.6225549624381108,63.020833333333336,-2.864228363883705,-16.734374999999996,-0.6225549624381108,1.6007291666666668,-0.853584177669328,-0.8908097451317926,-16.567031249999996,-6.334660226388795,-3.2668606969968814,86.50044580019541,False,0.5,0.5,17,0.0254,0.0124,0.298,0.145,0.99,0.119,1.43,0.371,0.03333333333333333,0.01,0.0991898775100708,-0.005216116085648537,-10.086138725280762,-0.07062702625989914,-0.007723333779722452,-0.14066416025161743,-0.020540942222876706,0.07211048185357083,-0.13860873277584088,-26.53842510497045
1576098569.0634012,398,370,28,28,1280,720,0.321875,0.5333333333333333,34.285714285714285,90,86.50044580019541,0.0,-6.334660226388795,-0.17812499999999998,-0.21700893555338435,-0.09179575755829719,17.285714285714285,1225,100,100,1,90.0,50.625,63.020833333333336,-2.77771437508332,-16.031249999999996,-0.6609294544197398,63.020833333333336,-2.77771437508332,-16.031249999999996,-0.6609294544197398,1.6007291666666668,-0.8276334384910687,-0.9452714891854798,-15.870100781249997,-6.334660226388795,-3.2668606969968814,86.50044580019541,False,0.5,0.5,17,0.0254,0.0124,0.298,0.145,0.99,0.119,1.43,0.371,0.03333333333333333,0.01,0.10142529755830765,-0.003170808544382453,-10.108348846435547,-0.028079291805624962,0.0634729191660881,-0.7808749675750732,-0.02489406224629101,0.07646480337343484,-0.779818179187355,-26.53842510497045
1576098569.079313,398,370,28,28,1280,720,0.321875,0.5333333333333333,34.285714285714285,90,85.68972966647158,0.0,-6.3031243892172,-0.17812499999999998,-0.2260168925947602,-0.09117282744132742,17.285714285714285,1225,100,100,1,90.0,50.625,63.020833333333336,-2.893016225212931,-16.031249999999996,-0.6564443575775574,63.020833333333336,-2.893016225212931,-16.031249999999996,-0.6564443575775574,1.6007291666666668,-0.8622860227961413,-0.9386987916266225,-15.870937499999997,-6.3031243892172,-2.8620746584779533,85.68972966647158,False,0.5,0.5,17,0.0254,0.0124,0.298,0.145,0.99,0.119,1.43,0.371,0.03333333333333333,0.01,0.10142529755830765,-0.003170808544382453,-10.108348846435547,-0.028079291805624962,0.0634729191660881,-0.7808749675750732,-0.02489406224629101,0.07646480337343484,-0.779818179187355,-35.70779184871978
1576098569.0907524,408,372,28,26,1280,720,0.3296875,0.5347222222222222,35.579967199732856,90,85.21583065128858,0.0,-5.750260276379219,-0.17812499999999998,-0.2260168925947602,-0.09117282744132742,17.285714285714285,1225,100,100,1,90.0,50.625,63.020833333333336,-2.893016225212931,-16.031249999999996,-0.6564443575775574,63.020833333333336,-2.893016225212931,-16.031249999999996,-0.6564443575775574,1.6007291666666668,-0.8622860227961413,-0.9386987916266225,-15.870937499999997,-5.750260276379219,-1.944664780059585,85.21583065128858,False,0.5,0.5,17,0.0254,0.0124,0.298,0.145,0.99,0.119,1.43,0.371,0.03333333333333333,0.01,0.10142529755830765,-0.003170808544382453,-10.108348846435547,-0.028079291805624962,0.0634729191660881,-0.7808749675750732,-0.02489406224629101,0.07646480337343484,-0.779818179187355,-37.61993404271612
1576098569.0954323,408,372,28,26,1280,720,0.3296875,0.5347222222222222,35.579967199732856,90,84.90673044039966,0.0,-5.467743161739981,-0.17031249999999998,-0.2234699372079046,-0.07886316595316976,18.579967199732856,1225,100,100,1,90.0,50.625,67.73946374902604,-2.860415196261179,-15.328124999999998,-0.5678147948628223,67.73946374902604,-2.860415196261179,-15.328124999999998,-0.5678147948628223,1.7211674893968074,-0.8523564569938513,-0.8116463409761642,-15.174007031249998,-5.467743161739981,-1.2531722663409688,84.90673044039966,False,0.5,0.5,17,0.0254,0.0124,0.298,0.145,0.99,0.119,1.43,0.371,0.03333333333333333,0.01,0.10419256240129471,0.0003741718828678131,-10.140670776367188,-0.0025079683400690556,0.10074688494205475,-0.996039092540741,-0.0001131550663716896,0.04486592391255697,-1.0001185603054814,-37.669080668888945
1576098569.1104531,408,372,28,26,1280,720,0.3296875,0.5347222222222222,35.579967199732856,90,84.5982312861577,0.0,-5.382186077762286,-0.17031249999999998,-0.23033215237602556,-0.07159256449900814,18.579967199732856,1225,100,100,1,90.0,50.625,67.73946374902604,-2.9482515504131275,-15.328124999999998,-0.5154664643928586,67.73946374902604,-2.9482515504131275,-15.328124999999998,-0.5154664643928586,1.7205823792252615,-0.8787063247366322,-0.7369228317757442,-15.174843749999997,-5.382186077762286,-0.5678777757681687,84.5982312861577,False,0.5,0.5,17,0.0254,0.0124,0.298,0.145,0.99,0.119,1.43,0.371,0.03333333333333333,0.01,0.10419256240129471,0.0003741718828678131,-10.140670776367188,-0.0025079683400690556,0.10074688494205475,-0.996039092540741,-0.0001131550663716896,0.04486592391255697,-1.0001185603054814,-38.32629513120591
1576098569.1307602,418,372,28,26,1280,720,0.3375,0.5347222222222222,35.579967199732856,90,83.64083000981867,0.0,-6.660426952626199,-0.16249999999999998,-0.23315744433534807,-0.0968417669654558,18.579967199732856,1225,100,100,1,90.0,50.625,67.73946374902604,-2.9844152874924554,-14.624999999999998,-0.6972607221512818,67.73946374902604,-2.9844152874924554,-14.624999999999998,-0.6972607221512818,1.7205823792252615,-0.8893115491568242,-0.9975491997553537,-14.477913281249998,-6.660426952626199,0.546987482109126,83.64083000981867,False,0.5,0.5,17,0.0254,0.0124,0.298,0.145,0.99,0.119,1.43,0.371,0.03333333333333333,0.01,0.10695211589336395,0.004488526843488216,-10.177041053771973,-0.004902310203760862,0.11785414069890976,-1.0898423194885254,0.006450044850326422,0.012431122321952589,-1.096117592502094,-40.125868977491265
1576098569.1323047,418,372,28,26,1280,720,0.3375,0.5347222222222222,35.579967199732856,90,83.32502255316479,0.0,-7.3074102184533105,-0.16249999999999998,-0.23315744433534807,-0.0968417669654558,18.579967199732856,1225,100,100,1,90.0,50.625,67.73946374902604,-2.9844152874924554,-14.624999999999998,-0.6972607221512818,67.73946374902604,-2.9844152874924554,-14.624999999999998,-0.6972607221512818,1.7205823792252615,-0.8893115491568242,-0.9975491997553537,-14.477913281249998,-7.3074102184533105,0.4331112598937942,83.32502255316479,False,0.5,0.5,17,0.0254,0.0124,0.298,0.145,0.99,0.119,1.43,0.371,0.03333333333333333,0.01,0.10695211589336395,0.004488526843488216,-10.177041053771973,-0.004902310203760862,0.11785414069890976,-1.0898423194885254,0.006450044850326422,0.012431122321952589,-1.096117592502094,-39.46332013743252
1576098569.1521912,418,372,28,26,1280,720,0.3375,0.5347222222222222,35.579967199732856,90,83.02854453186204,0.0,-7.90123113376245,-0.16249999999999998,-0.23996061631264398,-0.12135147918543113,18.579967199732856,1225,100,100,1,90.0,50.625,67.73946374902604,-3.0714958888018433,-14.624999999999998,-0.8737306501351041,67.73946374902604,-3.0714958888018433,-14.624999999999998,-0.8737306501351041,1.7205823792252615,-0.9153669152193424,-1.2497481560001564,-14.478749999999998,-7.90123113376245,0.12799419654932173,83.02854453186204,False,0.5,0.5,17,0.0254,0.0124,0.298,0.145,0.99,0.119,1.43,0.371,0.03333333333333333,0.01,0.10695211589336395,0.004488526843488216,-10.177041053771973,-0.004902310203760862,0.11785414069890976,-1.0898423194885254,0.006450044850326422,0.012431122321952589,-1.096117592502094,-37.54100437666745
1576098569.1597822,427,372,27,26,1280,720,0.344140625,0.5347222222222222,36.232865092627065,90,82.61343295486535,0.0,-8.637707380076476,-0.16249999999999998,-0.23996061631264398,-0.12135147918543113,18.579967199732856,1225,100,100,1,90.0,50.625,67.73946374902604,-3.0714958888018433,-14.624999999999998,-0.8737306501351041,67.73946374902604,-3.0714958888018433,-14.624999999999998,-0.8737306501351041,1.7205823792252615,-0.9153669152193424,-1.2497481560001564,-14.478749999999998,-8.637707380076476,-0.5546147223387675,82.61343295486535,False,0.5,0.5,17,0.0254,0.0124,0.298,0.145,0.99,0.119,1.43,0.371,0.03333333333333333,0.01,0.10923909395933151,0.009029129520058632,-10.214211463928223,-0.010225135833024979,0.13132981956005096,-1.0267555713653564,-0.026741263852905622,0.03703656978049655,-1.034162596280064,-34.745172307854865
1576098569.1668203,427,372,27,26,1280,720,0.344140625,0.5347222222222222,36.232865092627065,90,82.3534008229738,0.0,-9.012963949492502,-0.15585937500000002,-0.24082158807806897,-0.14331163357022225,19.232865092627065,1225,100,100,1,90.0,50.625,70.11982065020284,-3.082516327399283,-14.027343750000002,-1.0318437617056002,70.11982065020284,-3.082516327399283,-14.027343750000002,-1.0318437617056002,1.7813386087708978,-0.9186058452009526,-1.4761231788829348,-13.886359101562503,-9.012963949492502,-1.1053191613777027,82.3534008229738,False,0.5,0.5,17,0.0254,0.0124,0.298,0.145,0.99,0.119,1.43,0.371,0.03333333333333333,0.01,0.10923909395933151,0.009029129520058632,-10.214211463928223,-0.010225135833024979,0.13132981956005096,-1.0267555713653564,-0.026741263852905622,0.03703656978049655,-1.034162596280064,-33.48955131197474
1576098569.1838198,427,372,27,26,1280,720,0.344140625,0.5347222222222222,36.232865092627065,90,81.6144904679943,0.0,-9.701823532007783,-0.15585937500000002,-0.24361824697922607,-0.14904329221639231,19.232865092627065,1225,100,100,1,90.0,50.625,70.11982065020284,-3.118313561334094,-14.027343750000002,-1.0731117039580247,70.11982065020284,-3.118313561334094,-14.027343750000002,-1.0731117039580247,1.781043444515152,-0.9293093472667654,-1.5347028407257317,-13.887070312500002,-9.701823532007783,-2.7841887307118283,81.6144904679943,False,0.5,0.5,17,0.0254,0.0124,0.298,0.145,0.99,0.119,1.43,0.371,0.03333333333333333,0.01,0.10923909395933151,0.009029129520058632,-10.214211463928223,-0.010225135833024979,0.13132981956005096,-1.0267555713653564,-0.026741263852905622,0.03703656978049655,-1.034162596280064,-31.12036017947783
1576098569.2007082,436,372,28,26,1280,720,0.3515625,0.5347222222222222,35.579967199732856,90,81.4996749880464,0.0,-9.771304485113385,-0.1484375,-0.2428855556883734,-0.1582911997059434,18.579967199732856,1225,100,100,1,90.0,50.625,67.73946374902604,-3.1089351128111797,-13.359375,-1.1396966378827926,67.73946374902604,-3.1089351128111797,-13.359375,-1.1396966378827926,1.7202872149695156,-0.9263485911211519,-1.6298028534112943,-13.224986367187501,-9.771304485113385,-2.997356159943576,81.4996749880464,False,0.5,0.5,17,0.0254,0.0124,0.298,0.145,0.99,0.119,1.43,0.371,0.03333333333333333,0.01,0.1111954003572464,0.013739450834691525,-10.247464179992676,-0.008427870459854603,0.1392357498407364,-0.8869667649269104,-0.014906619011906735,0.07219407546338566,-0.8948371210989909,-30.47106873659808
1576098569.2129545,436,372,28,26,1280,720,0.3515625,0.5347222222222222,35.579967199732856,90,81.17816432343555,0.0,-9.920367387333389,-0.1484375,-0.24645789640627164,-0.16123565209547436,18.579967199732856,1225,100,100,1,90.0,50.625,67.73946374902604,-3.154661074000277,-13.359375,-1.1608966950874153,67.73946374902604,-3.154661074000277,-13.359375,-1.1608966950874153,1.7205823792252615,-0.9401553026958067,-1.660160926187233,-13.22578125,-9.920367387333389,-3.423908944130277,81.17816432343555,False,0.5,0.5,17,0.0254,0.0124,0.298,0.145,0.99,0.119,1.43,0.371,0.03333333333333333,0.01,0.1111954003572464,0.013739450834691525,-10.247464179992676,-0.008427870459854603,0.1392357498407364,-0.8869667649269104,-0.014906619011906735,0.07219407546338566,-0.8948371210989909,-27.554173272294314
1576098569.2300265,436,372,28,26,1280,720,0.3515625,0.5347222222222222,35.579967199732856,90,80.64716492679125,0.0,-9.949166026195101,-0.1484375,-0.2523578897023195,-0.161804514097681,18.579967199732856,1225,100,100,1,90.0,50.625,67.73946374902604,-3.2301809881896895,-13.359375,-1.1649925015033034,67.73946374902604,-3.2301809881896895,-13.359375,-1.1649925015033034,1.7205823792252615,-0.9627034383561021,-1.6659544725915265,-13.22578125,-9.949166026195101,-3.499717854058483,80.64716492679125,False,0.5,0.5,17,0.0254,0.0124,0.298,0.145,0.99,0.119,1.43,0.371,0.03333333333333333,0.01,0.1136220321059227,0.01876053400337696,-10.277576446533203,0.00586983235552907,0.15997371077537537,-0.8295162916183472,0.012845487776205977,0.07174934060134971,-0.8416711630431704,-20.37559493573943
1576098569.2400866,446,372,27,26,1280,720,0.358984375,0.5347222222222222,36.232865092627065,90,80.57642465755742,0.0,-9.93437952041567,-0.14101562499999998,-0.24572201769380636,-0.16151243497117374,19.232865092627065,1225,100,100,1,90.0,50.625,70.11982065020284,-3.1452418264807216,-12.691406249999998,-1.162889531792451,70.11982065020284,-3.1452418264807216,-12.691406249999998,-1.162889531792451,1.7813386087708978,-0.937158902506777,-1.6629242284455776,-12.563697304687498,-9.93437952041567,-3.4825533752308298,80.57642465755742,False,0.5,0.5,17,0.0254,0.0124,0.298,0.145,0.99,0.119,1.43,0.371,0.03333333333333333,0.01,0.1136220321059227,0.01876053400337696,-10.277576446533203,0.00586983235552907,0.15997371077537537,-0.8295162916183472,0.012845487776205977,0.07174934060134971,-0.8416711630431704,-18.974941703023255
1576098569.2504222,446,372,27,26,1280,720,0.358984375,0.5347222222222222,36.232865092627065,90,80.39556124833548,0.0,-9.903099815337951,-0.14101562499999998,-0.24572201769380636,-0.16151243497117374,19.232865092627065,1225,100,100,1,90.0,50.625,70.11982065020284,-3.1452418264807216,-12.691406249999998,-1.162889531792451,70.11982065020284,-3.1452418264807216,-12.691406249999998,-1.162889531792451,1.7813386087708978,-0.937158902506777,-1.6629242284455776,-12.563697304687498,-9.903099815337951,-3.5184031171935226,80.39556124833548,False,0.5,0.5,17,0.0254,0.0124,0.298,0.145,0.99,0.119,1.43,0.371,0.03333333333333333,0.01,0.1136220321059227,0.01876053400337696,-10.277576446533203,0.00586983235552907,0.15997371077537537,-0.8295162916183472,0.012845487776205977,0.07174934060134971,-0.8416711630431704,-15.156036089001969
1576098569.2703767,446,372,27,26,1280,720,0.358984375,0.5347222222222222,36.232865092627065,90,80.18098402537036,0.0,-9.955746913460409,-0.14101562499999998,-0.24773161112960573,-0.16089456425358917,19.232865092627065,1225,100,100,1,90.0,50.625,70.11982065020284,-3.1709646224589534,-12.691406249999998,-1.158440862625842,70.11982065020284,-3.1709646224589534,-12.691406249999998,-1.158440862625842,1.781043444515152,-0.9449847555469365,-1.6565539289923459,-12.564492187499997,-9.955746913460409,-4.015679522027944,80.18098402537036,False,0.5,0.5,17,0.0254,0.0124,0.298,0.145,0.99,0.119,1.43,0.371,0.03333333333333333,0.01,0.11770006269216537,0.02443540468811989,-10.307581901550293,0.0300713200122118,0.19422903656959534,-0.8711397051811218,0.04358553488560682,0.06169169991192768,-0.8898359535261509,-9.676752468885605
1576098569.2799115,446,372,27,26,1280,720,0.358984375,0.5347222222222222,36.232865092627065,90,80.08342843345507,0.0,-10.0517537599814,-0.14101562499999998,-0.25011580249588483,-0.1619345069325513,19.232865092627065,1225,100,100,1,90.0,50.625,70.11982065020284,-3.201482271947326,-12.691406249999998,-1.1659284499143694,70.11982065020284,-3.201482271947326,-12.691406249999998,-1.1659284499143694,1.781043444515152,-0.9540859676320612,-1.6673054623263888,-12.564492187499997,-10.0517537599814,-4.442488224865109,80.08342843345507,False,0.5,0.5,17,0.0254,0.0124,0.298,0.145,0.99,0.119,1.43,0.371,0.03333333333333333,0.01,0.11770006269216537,0.02443540468811989,-10.307581901550293,0.0300713200122118,0.19422903656959534,-0.8711397051811218,0.04358553488560682,0.06169169991192768,-0.8898359535261509,-8.77203158784124
1576098569.2889767,464,372,26,24,1280,720,0.37265625,0.5333333333333333,38.43075691322091,90,79.98907620026051,0.0,-10.111102127453288,-0.14101562499999998,-0.2511997535171659,-0.16383093846876842,19.232865092627065,1225,100,100,1,90.0,50.625,70.11982065020284,-3.2153568450197234,-12.691406249999998,-1.1795827569751327,70.11982065020284,-3.2153568450197234,-12.691406249999998,-1.1795827569751327,1.781043444515152,-0.9581964579468325,-1.6868539999536352,-12.564492187499997,-10.111102127453288,-4.753841971293316,79.98907620026051,False,0.5,0.5,17,0.0254,0.0124,0.298,0.145,0.99,0.119,1.43,0.371,0.03333333333333333,0.01,0.11770006269216537,0.02443540468811989,-10.307581901550293,0.0300713200122118,0.19422903656959534,-0.8711397051811218,0.04358553488560682,0.06169169991192768,-0.8898359535261509,-8.234512775634162
1576098569.302468,464,372,26,24,1280,720,0.37265625,0.5333333333333333,38.43075691322091,90,79.91939461034805,0.0,-10.103786141078558,-0.12734374999999998,-0.23857623666377206,-0.16639214078920075,21.43075691322091,1225,100,100,1,90.0,50.625,78.13296791278458,-3.0537758292962827,-11.460937499999998,-1.1980234136822454,78.13296791278458,-3.0537758292962827,-11.460937499999998,-1.1980234136822454,1.9855710152452883,-0.9097909046574932,-1.7132418964019942,-11.344863867187497,-10.103786141078558,-4.834338738869679,79.91939461034805,False,0.5,0.5,17,0.0254,0.0124,0.298,0.145,0.99,0.119,1.43,0.371,0.03333333333333333,0.01,0.12356074154376984,0.033237241208553314,-10.348381996154785,0.07065986096858978,0.24792209267616272,-0.9885621666908264,0.07889854074439209,0.05799046464331104,-1.0169195954844943,-8.22630630334639
1576098569.3120115,464,372,26,24,1280,720,0.37265625,0.5333333333333333,38.43075691322091,90,79.84327898223742,0.0,-10.067575893193736,-0.12734374999999998,-0.2393504765516883,-0.166247627478095,21.43075691322091,1225,100,100,1,90.0,50.625,78.13296791278458,-3.0636860998616107,-11.460937499999998,-1.196982917842284,78.13296791278458,-3.0636860998616107,-11.460937499999998,-1.196982917842284,1.9845773849847281,-0.9129928276510797,-1.7116817122748997,-11.346328124999998,-10.067575893193736,-4.814354032245045,79.84327898223742,False,0.5,0.5,17,0.0254,0.0124,0.298,0.145,0.99,0.119,1.43,0.371,0.03333333333333333,0.01,0.12356074154376984,0.033237241208553314,-10.348381996154785,0.07065986096858978,0.24792209267616272,-0.9885621666908264,0.07889854074439209,0.05799046464331104,-1.0169195954844943,-9.070338392294254
1576098569.3317676,464,372,26,24,1280,720,0.37265625,0.5333333333333333,38.43075691322091,90,79.63988277894362,0.0,-9.943334752191202,-0.12734374999999998,-0.24152429809153103,-0.1639385850573506,21.43075691322091,1225,100,100,1,90.0,50.625,78.13296791278458,-3.0915110155715975,-11.460937499999998,-1.1803578124129244,78.13296791278458,-3.0915110155715975,-11.460937499999998,-1.1803578124129244,1.9845773849847281,-0.9212702826403361,-1.6879116717504818,-11.346328124999998,-9.943334752191202,-4.565878153542328,79.63988277894362,False,0.5,0.5,17,0.0254,0.0124,0.298,0.145,0.99,0.119,1.43,0.371,0.03333333333333333,0.01,0.12764115631580353,0.03945528343319893,-10.374796867370605,0.09429169446229935,0.27358999848365784,-1.028182029724121,0.10337823963612411,0.04267163146562968,-1.0622583342107845,-9.74352866707988
1576098569.3383532,464,372,26,24,1280,720,0.37265625,0.5333333333333333,38.43075691322091,90,79.55408877277908,0.0,-9.9233487649061,-0.12734374999999998,-0.24340943030245463,-0.16268343239320693,21.43075691322091,1225,100,100,1,90.0,50.625,78.13296791278458,-3.1156407078714192,-11.460937499999998,-1.1713207132310899,78.13296791278458,-3.1156407078714192,-11.460937499999998,-1.1713207132310899,1.9845773849847281,-0.9284959189995177,-1.6749550922824938,-11.346328124999998,-9.9233487649061,-4.503950108998291,79.55408877277908,False,0.5,0.5,17,0.0254,0.0124,0.298,0.145,0.99,0.119,1.43,0.371,0.03333333333333333,0.01,0.12764115631580353,0.03945528343319893,-10.374796867370605,0.09429169446229935,0.27358999848365784,-1.028182029724121,0.10337823963612411,0.04267163146562968,-1.0622583342107845,-10.26192636470551
1576098569.350165,472,371,26,25,1280,720,0.37890625,0.5326388888888889,37.65429794653134,90,79.37171589175057,0.0,-9.951983479227732,-0.12109375,-0.2391857956472159,-0.1639435008242515,20.654297946531337,1225,100,100,1,90.0,50.625,75.30212793006217,-3.0615781842843637,-10.8984375,-1.1803932059346107,75.30212793006217,-3.0615781842843637,-10.8984375,-1.1803932059346107,1.9123230252657215,-0.9122719082575391,-1.6879959434344234,-10.78878375,-9.951983479227732,-4.5909372638334585,79.37171589175057,False,0.5,0.5,17,0.0254,0.0124,0.298,0.145,0.99,0.119,1.43,0.371,0.03333333333333333,0.01,0.12764115631580353,0.03945528343319893,-10.374796867370605,0.09429169446229935,0.27358999848365784,-1.028182029724121,0.10337823963612411,0.04267163146562968,-1.0622583342107845,-11.52029480417927
1576098569.3608487,472,371,26,25,1280,720,0.37890625,0.5326388888888889,37.65429794653134,90,79.32523645444864,0.0,-9.97459225915412,-0.12109375,-0.23970223383945954,-0.16439009400798263,20.654297946531337,1225,100,100,1,90.0,50.625,75.30212793006217,-3.0681885931450825,-10.8984375,-1.183608676857475,75.30212793006217,-3.0681885931450825,-10.8984375,-1.183608676857475,1.912674049423579,-0.9143297858500826,-1.692572337303313,-10.789453125,-9.97459225915412,-4.6526855890249585,79.32523645444864,False,0.5,0.5,17,0.0254,0.0124,0.298,0.145,0.99,0.119,1.43,0.371,0.03333333333333333,0.01,0.12764115631580353,0.03945528343319893,-10.374796867370605,0.09429169446229935,0.27358999848365784,-1.028182029724121,0.10337823963612411,0.04267163146562968,-1.0622583342107845,-11.92896892788323
1576098569.3761759,481,370,25,26,1280,720,0.385546875,0.5319444444444444,37.65429794653134,90,79.09686907954926,0.0,-10.13030691185207,-0.12109375,-0.2417276884923314,-0.16682474445079676,20.654297946531337,1225,100,100,1,90.0,50.625,75.30212793006217,-3.094114412701842,-10.8984375,-1.2011381600457367,75.30212793006217,-3.094114412701842,-10.8984375,-1.2011381600457367,1.912674049423579,-0.9220836874235061,-1.717692603248032,-10.789453125,-10.13030691185207,-5.0552121155890815,79.09686907954926,False,0.5,0.5,17,0.0254,0.0124,0.298,0.145,0.99,0.119,1.43,0.371,0.03333333333333333,0.01,0.1350693553686142,0.050859931856393814,-10.419228553771973,0.11902903020381927,0.30138543248176575,-1.002822756767273,0.13970764412040448,0.023644968049783395,-1.0443070717437697,-11.921439498096936
1576098569.3839524,481,370,25,26,1280,720,0.385546875,0.5319444444444444,37.65429794653134,90,79.09686907954926,0.0,-10.13030691185207,-0.11445312499999999,-0.23559902411611927,-0.1681603834439915,20.654297946531337,1225,100,100,1,90.0,50.625,75.30212793006217,-3.015667508686327,-10.300781249999998,-1.2107547607967388,75.30212793006217,-3.015667508686327,-10.300781249999998,-1.2107547607967388,1.912674049423579,-0.8985551695777029,-1.7314149855281227,-10.1970622265625,-10.13030691185207,-5.0552121155890815,79.09686907954926,False,0.5,0.5,17,0.0254,0.0124,0.298,0.145,0.99,0.119,1.43,0.371,0.03333333333333333,0.01,0.1350693553686142,0.050859931856393814,-10.419228553771973,0.11902903020381927,0.30138543248176575,-1.002822756767273,0.13970764412040448,0.023644968049783395,-1.0443070717437697,-11.921439498096936
1576098569.3993068,481,370,25,26,1280,720,0.385546875,0.5319444444444444,37.65429794653134,90,78.86441042133706,0.0,-10.245031038019835,-0.11445312499999999,-0.23818189809625492,-0.17042653902261404,20.654297946531337,1225,100,100,1,90.0,50.625,75.30212793006217,-3.0487282956320634,-10.300781249999998,-1.2270710809628211,75.30212793006217,-3.0487282956320634,-10.300781249999998,-1.2270710809628211,1.912674049423579,-0.9085689702394262,-1.7547721793246502,-10.197773437499999,-10.245031038019835,-5.263929890019978,78.86441042133706,False,0.5,0.5,17,0.0254,0.0124,0.298,0.145,0.99,0.119,1.43,0.371,0.03333333333333333,0.01,0.1413428634405136,0.060578104108572006,-10.452963829040527,0.13609756529331207,0.3162388503551483,-0.9311594367027283,0.16608104512885052,0.016129816142410824,-0.9786441487044085,-11.987503649070238
1576098569.4197176,494,348,26,24,1280,720,0.39609375,0.5,38.43075691322091,90,78.5766545516044,0.0,-10.28823369206746,-0.10390624999999998,-0.2308323105377288,-0.20322436922602388,21.43075691322091,1225,100,100,1,90.0,50.625,78.13296791278458,-2.954653574882929,-9.351562499999998,-1.463215458427372,78.13296791278458,-2.954653574882929,-9.351562499999998,-1.463215458427372,1.9849284091425856,-0.880310917939939,-2.093256278489803,-9.256917304687498,-10.28823369206746,-5.136194680370161,78.5766545516044,False,0.5,0.5,17,0.0254,0.0124,0.298,0.145,0.99,0.119,1.43,0.371,0.03333333333333333,0.01,0.1413428634405136,0.060578104108572006,-10.452963829040527,0.13609756529331207,0.3162388503551483,-0.9311594367027283,0.16608104512885052,0.016129816142410824,-0.9786441487044085,-11.993015611730439
1576098569.4224806,494,348,26,24,1280,720,0.39609375,0.5,38.43075691322091,90,78.5766545516044,0.0,-10.28823369206746,-0.10390624999999998,-0.2308323105377288,-0.20322436922602388,21.43075691322091,1225,100,100,1,90.0,50.625,78.13296791278458,-2.954653574882929,-9.351562499999998,-1.463215458427372,78.13296791278458,-2.954653574882929,-9.351562499999998,-1.463215458427372,1.9849284091425856,-0.880310917939939,-2.093256278489803,-9.256917304687498,-10.28823369206746,-5.136194680370161,78.5766545516044,False,0.5,0.5,17,0.0254,0.0124,0.298,0.145,0.99,0.119,1.43,0.371,0.03333333333333333,0.01,0.1413428634405136,0.060578104108572006,-10.452963829040527,0.13609756529331207,0.3162388503551483,-0.9311594367027283,0.16608104512885052,0.016129816142410824,-0.9786441487044085,-11.993015611730439
1576098569.4433181,494,348,26,24,1280,720,0.39609375,0.5,38.43075691322091,90,78.35181155431677,0.0,-10.30730016513555,-0.10390624999999998,-0.233330566063147,-0.20360099091625777,21.43075691322091,1225,100,100,1,90.0,50.625,78.13296791278458,-2.9866312456082817,-9.351562499999998,-1.465927134597056,78.13296791278458,-2.9866312456082817,-9.351562499999998,-1.465927134597056,1.9845773849847281,-0.8900343686451249,-2.096280600180801,-9.258046874999998,-10.30730016513555,-5.0844700846724775,78.35181155431677,False,0.5,0.5,17,0.0254,0.0124,0.298,0.145,0.99,0.119,1.43,0.371,0.03333333333333333,0.01,0.14841143786907196,0.07075069099664688,-10.484524726867676,0.15645486116409302,0.3333115875720978,-0.8740942478179932,0.19583131035564402,-0.004277289650147273,-0.9280341021416463,-11.071974847437973
1576098569.4506543,512,342,24,24,1280,720,0.409375,0.49166666666666664,40.0,90,78.22985852668619,0.0,-10.331047879106038,-0.10390624999999998,-0.233330566063147,-0.20360099091625777,21.43075691322091,1225,100,100,1,90.0,50.625,78.13296791278458,-2.9866312456082817,-9.351562499999998,-1.465927134597056,78.13296791278458,-2.9866312456082817,-9.351562499999998,-1.465927134597056,1.9845773849847281,-0.8900343686451249,-2.096280600180801,-9.258046874999998,-10.331047879106038,-5.166170673090054,78.22985852668619,False,0.5,0.5,17,0.0254,0.0124,0.298,0.145,0.99,0.119,1.43,0.371,0.03333333333333333,0.01,0.14841143786907196,0.07075069099664688,-10.484524726867676,0.15645486116409302,0.3333115875720978,-0.8740942478179932,0.19583131035564402,-0.004277289650147273,-0.9280341021416463,-10.335574586978463
1576098569.4625778,512,342,24,24,1280,720,0.409375,0.49166666666666664,40.0,90,78.15476059676189,0.0,-10.35641178658888,-0.09062500000000001,-0.22223877114709012,-0.21290443035237297,23.0,1225,100,100,1,90.0,50.625,83.85416666666667,-2.8446562706827536,-8.156250000000002,-1.5329118985370853,83.85416666666667,-2.8446562706827536,-8.156250000000002,-1.5329118985370853,2.1306052619788147,-0.8475017049498185,-2.1923125283822493,-8.073265078125,-10.35641178658888,-5.238960425961704,78.15476059676189,False,0.5,0.5,17,0.0254,0.0124,0.298,0.145,0.99,0.119,1.43,0.371,0.03333333333333333,0.01,0.1595141738653183,0.08436097204685211,-10.523077011108398,0.19058500230312347,0.3653624653816223,-0.8821724057197571,0.23165171119435146,-0.02531269469874009,-0.9453767925085848,-9.78937204301536
1576098569.471792,512,342,24,24,1280,720,0.409375,0.49166666666666664,40.0,90,78.0136079073744,0.0,-10.413209078405767,-0.09062500000000001,-0.2234207733284562,-0.21373798326574842,23.0,1225,100,100,1,90.0,50.625,83.85416666666667,-2.8597858986042395,-8.156250000000002,-1.5389134795133885,83.85416666666667,-2.8597858986042395,-8.156250000000002,-1.5389134795133885,2.1298958333333333,-0.8522381357445494,-2.2006685415695677,-8.074687500000001,-10.413209078405767,-5.319519092127419,78.0136079073744,False,0.5,0.5,17,0.0254,0.0124,0.298,0.145,0.99,0.119,1.43,0.371,0.03333333333333333,0.01,0.1595141738653183,0.08436097204685211,-10.523077011108398,0.19058500230312347,0.3653624653816223,-0.8821724057197571,0.23165171119435146,-0.02531269469874009,-0.9453767925085848,-8.956517558644222
1576098569.4855983,552,344,24,24,1280,720,0.440625,0.49444444444444446,40.0,90,77.91276699446834,0.0,-10.456765194742939,-0.09062500000000001,-0.2238071343625066,-0.21402635216603988,23.0,1225,100,100,1,90.0,50.625,83.85416666666667,-2.8647313198400846,-8.156250000000002,-1.5409897355954871,83.85416666666667,-2.8647313198400846,-8.156250000000002,-1.5409897355954871,2.1298958333333333,-0.853697104173137,-2.203623024811611,-8.074687500000001,-10.456765194742939,-5.2720368976779595,77.91276699446834,False,0.5,0.5,17,0.0254,0.0124,0.298,0.145,0.99,0.119,1.43,0.371,0.03333333333333333,0.01,0.1595141738653183,0.08436097204685211,-10.523077011108398,0.19058500230312347,0.3653624653816223,-0.8821724057197571,0.23165171119435146,-0.02531269469874009,-0.9453767925085848,-8.650686447046793
1576098569.4961076,552,344,24,24,1280,720,0.440625,0.49444444444444446,40.0,90,77.81329894958544,0.0,-10.490458517918611,-0.05937500000000001,-0.19478278944905061,-0.21277448924283676,23.0,1225,100,100,1,90.0,50.625,83.85416666666667,-2.493219704947848,-5.343750000000001,-1.5319763225484246,83.85416666666667,-2.493219704947848,-5.343750000000001,-1.5319763225484246,2.1298958333333333,-0.742440780232865,-2.1906927014818427,-5.286965625000001,-10.490458517918611,-5.154927754829391,77.81329894958544,False,0.5,0.5,17,0.0254,0.0124,0.298,0.145,0.99,0.119,1.43,0.371,0.03333333333333333,0.01,0.16910991072654724,0.0962468832731247,-10.554863929748535,0.2238842248916626,0.3964356780052185,-0.9282053709030151,0.25884833452834555,-0.044214122734092726,-0.99994662586898,-8.412557024276177
1576098569.5101638,552,344,24,24,1280,720,0.440625,0.49444444444444446,40.0,90,77.71823637671721,0.0,-10.510120924991785,-0.05937500000000001,-0.1958390402586976,-0.21316288246897352,23.0,1225,100,100,1,90.0,50.625,83.85416666666667,-2.5067397153113298,-5.343750000000001,-1.5347727537766094,83.85416666666667,-2.5067397153113298,-5.343750000000001,-1.5347727537766094,2.1298958333333333,-0.7470280391778034,-2.1947354126604077,-5.290312500000001,-10.510120924991785,-5.030928231768748,77.71823637671721,False,0.5,0.5,17,0.0254,0.0124,0.298,0.145,0.99,0.119,1.43,0.371,0.03333333333333333,0.01,0.16910991072654724,0.0962468832731247,-10.554863929748535,0.2238842248916626,0.3964356780052185,-0.9282053709030151,0.25884833452834555,-0.044214122734092726,-0.99994662586898,-8.050795201112805
1576098569.5210555,566,320,24,24,1280,720,0.4515625,0.46111111111111114,40.0,90,77.68599105364558,0.0,-10.51183957134169,-0.04843750000000002,-0.18525982162616025,-0.2465301643721815,23.0,1225,100,100,1,90.0,50.625,83.85416666666667,-2.371325716814851,-4.359375000000002,-1.7750171834797068,83.85416666666667,-2.371325716814851,-4.359375000000002,-1.7750171834797068,2.1298958333333333,-0.7064587133130057,-2.5391658792101794,-4.314609843750001,-10.51183957134169,-4.997751014762234,77.68599105364558,False,0.5,0.5,17,0.0254,0.0124,0.298,0.145,0.99,0.119,1.43,0.371,0.03333333333333333,0.01,0.16910991072654724,0.0962468832731247,-10.554863929748535,0.2238842248916626,0.3964356780052185,-0.9282053709030151,0.25884833452834555,-0.044214122734092726,-0.99994662586898,-7.895427180515232
1576098569.5429645,566,320,24,24,1280,720,0.4515625,0.46111111111111114,40.0,90,77.53299481623729,0.0,-10.544366639716584,-0.04843750000000002,-0.18695977981958567,-0.247172674364772,23.0,1225,100,100,1,90.0,50.625,83.85416666666667,-2.393085181690697,-4.359375000000002,-1.7796432554263584,83.85416666666667,-2.393085181690697,-4.359375000000002,-1.7796432554263584,2.1298958333333333,-0.7131709353678976,-2.5449070179866142,-4.3157812500000015,-10.544366639716584,-4.927769323413107,77.53299481623729,False,0.5,0.5,17,0.0254,0.0124,0.298,0.145,0.99,0.119,1.43,0.371,0.03333333333333333,0.01,0.17675438523292542,0.1058015450835228,-10.579493522644043,0.24521686136722565,0.42014268040657043,-0.958899736404419,0.2800668216015748,-0.0599123448623516,-1.036394216428074,-7.592816503111464
1576098569.5660226,566,320,24,24,1280,720,0.4515625,0.46111111111111114,40.0,90,77.36978744601984,0.0,-10.644153995943178,-0.04843750000000002,-0.18695977981958567,-0.247172674364772,23.0,1225,100,100,1,90.0,50.625,83.85416666666667,-2.393085181690697,-4.359375000000002,-1.7796432554263584,83.85416666666667,-2.393085181690697,-4.359375000000002,-1.7796432554263584,2.1298958333333333,-0.7131393841438276,-2.5448898552596924,-4.3157812500000015,-10.644153995943178,-4.964010307149194,77.36978744601984,False,0.5,0.5,17,0.0254,0.0124,0.298,0.145,0.99,0.119,1.43,0.371,0.03333333333333333,0.01,0.17675438523292542,0.1058015450835228,-10.579493522644043,0.24521686136722565,0.42014268040657043,-0.958899736404419,0.2800668216015748,-0.0599123448623516,-1.036394216428074,-6.781242753759971
1576098569.574797,580,312,24,24,1280,720,0.4625,0.45,40.0,90,77.31953091410688,0.0,-10.688476801014682,-0.04843750000000002,-0.188773195044224,-0.2491437826359146,23.0,1225,100,100,1,90.0,50.625,83.85416666666667,-2.416296896566067,-4.359375000000002,-1.793835234978585,83.85416666666667,-2.416296896566067,-4.359375000000002,-1.793835234978585,2.1298958333333333,-0.7200901321632573,-2.5652370382635152,-4.3157812500000015,-10.688476801014682,-4.949320277791789,77.31953091410688,False,0.5,0.5,17,0.0254,0.0124,0.298,0.145,0.99,0.119,1.43,0.371,0.03333333333333333,0.01,0.19017460942268372,0.12282281368970871,-10.621264457702637,0.2754848599433899,0.4509897232055664,-0.965660810470581,0.31333863954885505,-0.07945046318918902,-1.0522789365175274,-6.5448195976213865
1576098569.584124,580,312,24,24,1280,720,0.4625,0.45,40.0,90,77.27324955229088,0.0,-10.733246983476823,-0.03749999999999998,-0.1789083383078791,-0.26201475522917184,23.0,1225,100,100,1,90.0,50.625,83.85416666666667,-2.290026730340853,-3.3749999999999982,-1.8865062376500372,83.85416666666667,-2.290026730340853,-3.3749999999999982,-1.8865062376500372,2.1298958333333333,-0.6822448739005476,-2.6980477292594642,-3.340078593749998,-10.733246983476823,-4.9057620270205025,77.27324955229088,False,0.5,0.5,17,0.0254,0.0124,0.298,0.145,0.99,0.119,1.43,0.371,0.03333333333333333,0.01,0.19017460942268372,0.12282281368970871,-10.621264457702637,0.2754848599433899,0.4509897232055664,-0.965660810470581,0.31333863954885505,-0.07945046318918902,-1.0522789365175274,-6.389520305802337
1576098569.596147,580,312,24,24,1280,720,0.4625,0.45,40.0,90,77.21019324587331,0.0,-10.798152563612163,-0.03749999999999998,-0.1789083383078791,-0.26201475522917184,23.0,1225,100,100,1,90.0,50.625,83.85416666666667,-2.290026730340853,-3.3749999999999982,-1.8865062376500372,83.85416666666667,-2.290026730340853,-3.3749999999999982,-1.8865062376500372,2.1298958333333333,-0.6822448739005476,-2.6980477292594642,-3.340078593749998,-10.798152563612163,-4.7794859165321295,77.21019324587331,False,0.5,0.5,17,0.0254,0.0124,0.298,0.145,0.99,0.119,1.43,0.371,0.03333333333333333,0.01,0.19017460942268372,0.12282281368970871,-10.621264457702637,0.2754848599433899,0.4509897232055664,-0.965660810470581,0.31333863954885505,-0.07945046318918902,-1.0522789365175274,-5.700295735053283
1576098569.6066966,602,308,24,24,1280,720,0.4796875,0.4444444444444444,40.0,90,77.15365293992396,0.0,-10.847939520019677,-0.02031250000000001,-0.16242146393474097,-0.26885239631826496,23.0,1225,100,100,1,90.0,50.625,83.85416666666667,-2.0789947383646843,-1.8281250000000009,-1.9357372534915078,83.85416666666667,-2.0789947383646843,-1.8281250000000009,-1.9357372534915078,2.1298958333333333,-0.6192344356443105,-2.768286919561628,-1.8080029687500008,-10.847939520019677,-4.604593373305252,77.15365293992396,False,0.5,0.5,17,0.0254,0.0124,0.298,0.145,0.99,0.119,1.43,0.371,0.03333333333333333,0.01,0.2014285922050476,0.13719947636127472,-10.65406608581543,0.29553282260894775,0.4710231125354767,-0.9353926777839661,0.34022276790373274,-0.09853850337166456,-1.028931734852645,-5.063726800163149
1576098569.6158066,602,308,24,24,1280,720,0.4796875,0.4444444444444444,40.0,90,77.06843266964971,0.0,-10.909137161209346,-0.02031250000000001,-0.16365484431686372,-0.27058250853202614,23.0,1225,100,100,1,90.0,50.625,83.85416666666667,-2.094782007255856,-1.8281250000000009,-1.9481940614305884,83.85416666666667,-2.094782007255856,-1.8281250000000009,-1.9481940614305884,2.1298958333333333,-0.6242679297021372,-2.7859637226031952,-1.8098437500000009,-10.909137161209346,-4.312015390018586,77.06843266964971,False,0.5,0.5,17,0.0254,0.0124,0.298,0.145,0.99,0.119,1.43,0.371,0.03333333333333333,0.01,0.2014285922050476,0.13719947636127472,-10.65406608581543,0.29553282260894775,0.4710231125354767,-0.9353926777839661,0.34022276790373274,-0.09853850337166456,-1.028931734852645,-4.354176013330959
1576098569.632037,602,308,24,24,1280,720,0.4796875,0.4444444444444444,40.0,90,77.02043010016286,0.0,-10.945857111960981,-0.02031250000000001,-0.16452994333152385,-0.2717700170263898,23.0,1225,100,100,1,90.0,50.625,83.85416666666667,-2.1059832746435054,-1.8281250000000009,-1.9567441225900066,83.85416666666667,-2.1059832746435054,-1.8281250000000009,-1.9567441225900066,2.1298958333333333,-0.6275929150403166,-2.798163470381724,-1.8098437500000009,-10.945857111960981,-4.2100252977846635,77.02043010016286,False,0.5,0.5,17,0.0254,0.0124,0.298,0.145,0.99,0.119,1.43,0.371,0.03333333333333333,0.01,0.21302834153175354,0.15222159028053284,-10.685755729675293,0.3120635747909546,0.49216726422309875,-0.9006702303886414,0.36913643690740755,-0.11914412832901625,-1.000181044723659,-4.102646613182423
1576098569.6398184,615,312,23,24,1280,720,0.489453125,0.45,40.86031347641993,90,76.99663372109453,0.0,-10.971833175148186,-0.02031250000000001,-0.16452994333152385,-0.2717700170263898,23.0,1225,100,100,1,90.0,50.625,83.85416666666667,-2.1059832746435054,-1.8281250000000009,-1.9567441225900066,83.85416666666667,-2.1059832746435054,-1.8281250000000009,-1.9567441225900066,2.1298958333333333,-0.6275929150403166,-2.798163470381724,-1.8098437500000009,-10.971833175148186,-4.178333220035804,76.99663372109453,False,0.5,0.5,17,0.0254,0.0124,0.298,0.145,0.99,0.119,1.43,0.371,0.03333333333333333,0.01,0.21302834153175354,0.15222159028053284,-10.685755729675293,0.3120635747909546,0.49216726422309875,-0.9006702303886414,0.36913643690740755,-0.11914412832901625,-1.000181044723659,-3.7041891718163353
1576098569.6500423,615,312,23,24,1280,720,0.489453125,0.45,40.86031347641993,90,76.96494164334567,0.0,-11.013675767777329,-0.010546875000000011,-0.15502872254339417,-0.26672756889181604,23.860313476419932,1225,100,100,1,90.0,50.625,86.99072621611434,-1.9843676485554456,-0.949218750000001,-1.9204384960210754,86.99072621611434,-1.9843676485554456,-0.949218750000001,-1.9204384960210754,2.2099533792734354,-0.591165216611695,-2.7460923554355667,-0.938680664062501,-11.013675767777329,-4.148113048053083,76.96494164334567,False,0.5,0.5,17,0.0254,0.0124,0.298,0.145,0.99,0.119,1.43,0.371,0.03333333333333333,0.01,0.21302834153175354,0.15222159028053284,-10.685755729675293,0.3120635747909546,0.49216726422309875,-0.9006702303886414,0.36913643690740755,-0.11914412832901625,-1.000181044723659,-2.849405938228049
1576098569.6664143,626,314,24,23,1280,720,0.4984375,0.45208333333333334,40.86031347641993,90,76.95597360496545,0.0,-11.025176952565985,-0.0015625000000000222,-0.14649612661149503,-0.26569793980377254,23.860313476419932,1225,100,100,1,90.0,50.625,86.99072621611434,-1.8751504206271363,-0.140625000000002,-1.9130251665871623,86.99072621611434,-1.8751504206271363,-0.140625000000002,-1.9130251665871623,2.209564445889304,-0.5586299247556904,-2.7355764067559,-0.13825652343750197,-11.025176952565985,-4.138199455359632,76.95597360496545,False,0.5,0.5,17,0.0254,0.0124,0.298,0.145,0.99,0.119,1.43,0.371,0.03333333333333333,0.01,0.2249508798122406,0.1679445207118988,-10.716721534729004,0.3291358947753906,0.5158048868179321,-0.8935226202011108,0.3952583365870284,-0.1324452409921574,-0.9994983225613239,-2.633706002918107
1576098569.676787,626,314,24,23,1280,720,0.4984375,0.45208333333333334,40.86031347641993,90,76.92284035730171,0.0,-11.059677091837365,-0.0015625000000000222,-0.14686427380775882,-0.26637942403629367,23.860313476419932,1225,100,100,1,90.0,50.625,86.99072621611434,-1.879862704739313,-0.140625000000002,-1.9179318530613145,86.99072621611434,-1.879862704739313,-0.140625000000002,-1.9179318530613145,2.209564445889304,-0.560205918824278,-2.742660753684499,-0.13921875000000197,-11.059677091837365,-4.078028050092759,76.92284035730171,False,0.5,0.5,17,0.0254,0.0124,0.298,0.145,0.99,0.119,1.43,0.371,0.03333333333333333,0.01,0.2249508798122406,0.1679445207118988,-10.716721534729004,0.3291358947753906,0.5158048868179321,-0.8935226202011108,0.3952583365870284,-0.1324452409921574,-0.9994983225613239,-2.939827824442086
1576098569.6842504,626,314,24,23,1280,720,0.4984375,0.45208333333333334,40.86031347641993,90,76.91333956416622,0.0,-11.06847949813022,-0.0015625000000000222,-0.14686427380775882,-0.26637942403629367,23.860313476419932,1225,100,100,1,90.0,50.625,86.99072621611434,-1.879862704739313,-0.140625000000002,-1.9179318530613145,86.99072621611434,-1.879862704739313,-0.140625000000002,-1.9179318530613145,2.209564445889304,-0.560205918824278,-2.742660753684499,-0.13921875000000197,-11.06847949813022,-4.03799161561226,76.91333956416622,False,0.5,0.5,17,0.0254,0.0124,0.298,0.145,0.99,0.119,1.43,0.371,0.03333333333333333,0.01,0.2249508798122406,0.1679445207118988,-10.716721534729004,0.3291358947753906,0.5158048868179321,-0.8935226202011108,0.3952583365870284,-0.1324452409921574,-0.9994983225613239,-2.8694583064141486
1576098569.6948287,626,314,24,23,1280,720,0.4984375,0.45208333333333334,40.86031347641993,90,76.87821190126485,0.0,-11.106296548017287,-0.0015625000000000222,-0.1469698381759309,-0.2665532987284982,23.860313476419932,1225,100,100,1,90.0,50.625,86.99072621611434,-1.8812139286519156,-0.140625000000002,-1.919183750845187,86.99072621611434,-1.8812139286519156,-0.140625000000002,-1.919183750845187,2.209564445889304,-0.5606037100129441,-2.7444374082493956,-0.13921875000000197,-11.106296548017287,-3.8259535154710913,76.87821190126485,False,0.5,0.5,17,0.0254,0.0124,0.298,0.145,0.99,0.119,1.43,0.371,0.03333333333333333,0.01,0.2249508798122406,0.1679445207118988,-10.716721534729004,0.3291358947753906,0.5158048868179321,-0.8935226202011108,0.3952583365870284,-0.1324452409921574,-0.9994983225613239,-2.3162364624183875
1576098569.713911,638,320,23,22,1280,720,0.507421875,0.4597222222222222,42.677205549541156,90,76.85600695627313,0.0,-11.157318061117282,0.007421875000000022,-0.1386224921525207,-0.2606692456516994,25.677205549541156,1225,100,100,1,90.0,50.625,93.6148118993688,-1.7743678995522651,0.667968750000002,-1.8768185686922358,93.6148118993688,-1.7743678995522651,0.667968750000002,-1.8768185686922358,2.3778162222439674,-0.5287638003961562,-2.683865685152762,0.661289062500002,-11.157318061117282,-3.598676836404801,76.85600695627313,False,0.5,0.5,17,0.0254,0.0124,0.298,0.145,0.99,0.119,1.43,0.371,0.03333333333333333,0.01,0.23725342750549316,0.18450289964675903,-10.74780559539795,0.3471941351890564,0.5438465476036072,-0.9118658900260925,0.4214189219316524,-0.14665905547997796,-1.0240651590239764,-1.4067190810293808
1576098569.7168455,638,320,23,22,1280,720,0.507421875,0.4597222222222222,42.677205549541156,90,76.85600695627313,0.0,-11.157318061117282,0.007421875000000022,-0.1386224921525207,-0.2606692456516994,25.677205549541156,1225,100,100,1,90.0,50.625,93.6148118993688,-1.7743678995522651,0.667968750000002,-1.8768185686922358,93.6148118993688,-1.7743678995522651,0.667968750000002,-1.8768185686922358,2.3778162222439674,-0.5287638003961562,-2.683865685152762,0.661289062500002,-11.157318061117282,-3.598676836404801,76.85600695627313,False,0.5,0.5,17,0.0254,0.0124,0.298,0.145,0.99,0.119,1.43,0.371,0.03333333333333333,0.01,0.23725342750549316,0.18450289964675903,-10.74780559539795,0.3471941351890564,0.5438465476036072,-0.9118658900260925,0.4214189219316524,-0.14665905547997796,-1.0240651590239764,-1.4067190810293808
1576098569.7305434,638,320,23,22,1280,720,0.507421875,0.4597222222222222,42.677205549541156,90,76.84251050247319,0.0,-11.233309038275552,0.007421875000000022,-0.1386904145892668,-0.2612807077967294,25.677205549541156,1225,100,100,1,90.0,50.625,93.6148118993688,-1.7752373067426153,0.667968750000002,-1.8812210961364517,93.6148118993688,-1.7752373067426153,0.667968750000002,-1.8812210961364517,2.3778162222439674,-0.5290219780497254,-2.690162500851944,0.661289062500002,-11.233309038275552,-3.4204061243031183,76.84251050247319,False,0.5,0.5,17,0.0254,0.0124,0.298,0.145,0.99,0.119,1.43,0.371,0.03333333333333333,0.01,0.2499416470527649,0.20195980370044708,-10.77961540222168,0.36452916264533997,0.5722008347511292,-0.9355902671813965,0.44642607885701924,-0.16056354616884336,-1.0538252025413848,-0.8176442400589007
1576098569.7418876,650,320,24,24,1280,720,0.5171875,0.46111111111111114,40.0,90,76.83768838891916,0.0,-11.259657346772523,0.017187500000000022,-0.12900682775029787,-0.2607814131017393,23.0,1225,100,100,1,90.0,50.625,83.85416666666667,-1.6512873952038127,1.546875000000002,-1.877626174332523,83.85416666666667,-1.6512873952038127,1.546875000000002,-1.877626174332523,2.1286855133244784,-0.4919039163990049,-2.6849920921356154,1.5324521484375018,-11.259657346772523,-3.3799515541793674,76.83768838891916,False,0.5,0.5,17,0.0254,0.0124,0.298,0.145,0.99,0.119,1.43,0.371,0.03333333333333333,0.01,0.2499416470527649,0.20195980370044708,-10.77961540222168,0.36452916264533997,0.5722008347511292,-0.9355902671813965,0.44642607885701924,-0.16056354616884336,-1.0538252025413848,-0.8614047284626435
1576098569.752903,650,320,24,24,1280,720,0.5171875,0.46111111111111114,40.0,90,76.83773620024336,0.0,-11.28438007024703,0.017187500000000022,-0.12906040678978706,-0.26130187351649425,23.0,1225,100,100,1,90.0,50.625,83.85416666666667,-1.6519732069092745,1.546875000000002,-1.8813734893187586,83.85416666666667,-1.6519732069092745,1.546875000000002,-1.8813734893187586,2.1298958333333333,-0.49228901008593673,-2.6903779922644238,1.5314062500000019,-11.28438007024703,-3.3323397995790893,76.83773620024336,False,0.5,0.5,17,0.0254,0.0124,0.298,0.145,0.99,0.119,1.43,0.371,0.03333333333333333,0.01,0.2499416470527649,0.20195980370044708,-10.77961540222168,0.36452916264533997,0.5722008347511292,-0.9355902671813965,0.44642607885701924,-0.16056354616884336,-1.0538252025413848,-0.13773674102883088
1576098569.7636685,650,320,24,24,1280,720,0.5171875,0.46111111111111114,40.0,90,76.83735370964983,0.0,-11.299090590171945,0.017187500000000022,-0.12906412544833518,-0.2620808017811742,23.0,1225,100,100,1,90.0,50.625,83.85416666666667,-1.6520208057386903,1.546875000000002,-1.8869817728244545,83.85416666666667,-1.6520208057386903,1.546875000000002,-1.8869817728244545,2.1298958333333333,-0.4923022691284323,-2.6984047418707755,1.5314062500000019,-11.299090590171945,-3.274843267145922,76.83735370964983,False,0.5,0.5,17,0.0254,0.0124,0.298,0.145,0.99,0.119,1.43,0.371,0.03333333333333333,0.01,0.2499416470527649,0.20195980370044708,-10.77961540222168,0.36452916264533997,0.5722008347511292,-0.9355902671813965,0.44642607885701924,-0.16056354616884336,-1.0538252025413848,-0.11869641477865675
1576098569.7797625,662,322,22,22,1280,720,0.52578125,0.4625,43.63636363636363,90,76.84561140835638,0.0,-11.32749905447732,0.017187500000000022,-0.12906412544833518,-0.2620808017811742,23.0,1225,100,100,1,90.0,50.625,83.85416666666667,-1.6520208057386903,1.546875000000002,-1.8869817728244545,83.85416666666667,-1.6520208057386903,1.546875000000002,-1.8869817728244545,2.1298958333333333,-0.4923022691284323,-2.6984047418707755,1.5314062500000019,-11.32749905447732,-3.1511289044831274,76.84561140835638,False,0.5,0.5,17,0.0254,0.0124,0.298,0.145,0.99,0.119,1.43,0.371,0.03333333333333333,0.01,0.26689842343330383,0.2215617150068283,-10.819771766662598,0.38161951303482056,0.603305459022522,-0.9465342164039612,0.475830542184264,-0.17325737418306447,-1.0719632129203824,0.5782759383667198
1576098569.7886078,662,322,22,22,1280,720,0.52578125,0.4625,43.63636363636363,90,76.85304948436253,0.0,-11.359282486006329,0.025781249999999978,-0.12037862324048473,-0.26125306774276186,26.636363636363633,1225,100,100,1,90.0,50.625,97.11174242424241,-1.5408463774782046,2.3203124999999982,-1.8810220877478854,97.11174242424241,-1.5408463774782046,2.3203124999999982,-1.8810220877478854,2.468282196969697,-0.45901101756752727,-2.689839475047842,2.298029765624998,-11.359282486006329,-3.0139150998126256,76.85304948436253,False,0.5,0.5,17,0.0254,0.0124,0.298,0.145,0.99,0.119,1.43,0.371,0.03333333333333333,0.01,0.26689842343330383,0.2215617150068283,-10.819771766662598,0.38161951303482056,0.603305459022522,-0.9465342164039612,0.475830542184264,-0.17325737418306447,-1.0719632129203824,0.5234774907382661
1576098569.7993462,662,322,22,22,1280,720,0.52578125,0.4625,43.63636363636363,90,76.86405974930459,0.0,-11.395229771608106,0.025781249999999978,-0.12017364167439348,-0.26259095845151814,26.636363636363633,1225,100,100,1,90.0,50.625,97.11174242424241,-1.5382226134322368,2.3203124999999982,-1.8906549008509306,97.11174242424241,-1.5382226134322368,2.3203124999999982,-1.8906549008509306,2.4666382575757573,-0.4583865343449399,-2.703672245953443,2.297109374999998,-11.395229771608106,-2.8614966537194406,76.86405974930459,False,0.5,0.5,17,0.0254,0.0124,0.298,0.145,0.99,0.119,1.43,0.371,0.03333333333333333,0.01,0.28069642186164856,0.23835469782352448,-10.85189151763916,0.39225703477859497,0.6249402761459351,-0.9334788918495178,0.5002520071673247,-0.18415634003277376,-1.0637824699448912,0.6994326619896091
1576098569.8118792,670,323,22,23,1280,720,0.53203125,0.46458333333333335,42.677205549541156,90,76.88279495819793,0.0,-11.426283226669568,0.032031249999999956,-0.1139236416743935,-0.2605076251181848,25.677205549541156,1225,100,100,1,90.0,50.625,93.6148118993688,-1.458222613432237,2.882812499999996,-1.8756549008509307,93.6148118993688,-1.458222613432237,2.882812499999996,-1.8756549008509307,2.377382602858883,-0.4344343388028066,-2.6821308582168304,2.854653749999996,-11.426283226669568,-2.7202427921548766,76.88279495819793,False,0.5,0.5,17,0.0254,0.0124,0.298,0.145,0.99,0.119,1.43,0.371,0.03333333333333333,0.01,0.28069642186164856,0.23835469782352448,-10.85189151763916,0.39225703477859497,0.6249402761459351,-0.9334788918495178,0.5002520071673247,-0.18415634003277376,-1.0637824699448912,1.290669898162633
1576098569.826093,670,323,22,23,1280,720,0.53203125,0.46458333333333335,42.677205549541156,90,76.890069109664,0.0,-11.433024623380371,0.032031249999999956,-0.1139236416743935,-0.2605076251181848,25.677205549541156,1225,100,100,1,90.0,50.625,93.6148118993688,-1.458222613432237,2.882812499999996,-1.8756549008509307,93.6148118993688,-1.458222613432237,2.882812499999996,-1.8756549008509307,2.377382602858883,-0.4344343388028066,-2.6821308582168304,2.854653749999996,-11.433024623380371,-2.6803762586299813,76.890069109664,False,0.5,0.5,17,0.0254,0.0124,0.298,0.145,0.99,0.119,1.43,0.371,0.03333333333333333,0.01,0.28069642186164856,0.23835469782352448,-10.85189151763916,0.39225703477859497,0.6249402761459351,-0.9334788918495178,0.5002520071673247,-0.18415634003277376,-1.0637824699448912,1.6985999581338826
1576098569.834798,684,327,22,23,1280,720,0.54296875,0.4701388888888889,42.677205549541156,90,76.91663171534617,0.0,-11.449910558555935,0.032031249999999956,-0.11333950871837592,-0.26158773942826535,25.677205549541156,1225,100,100,1,90.0,50.625,93.6148118993688,-1.4507457115952118,2.882812499999996,-1.8834317238835105,93.6148118993688,-1.4507457115952118,2.882812499999996,-1.8834317238835105,2.3778162222439674,-0.43231674425580136,-2.6933162749233044,2.853984374999996,-11.449910558555935,-2.5724477437995557,76.91663171534617,False,0.5,0.5,17,0.0254,0.0124,0.298,0.145,0.99,0.119,1.43,0.371,0.03333333333333333,0.01,0.29111841320991516,0.25154370069503784,-10.875587463378906,0.39824551343917847,0.6415713429450989,-0.9209001064300537,0.51844573606178,-0.19323921913193864,-1.0545818631260138,1.5917926615443967
