time,x_bb,y_bb,w_bb,h_bb,w_im,h_im,f_u,f_v,f_delta,psi_telem_ref,psi_telem,theta_centroid_ref,theta_centroid,delta_f_u_psi,delta_f_u_y,delta_f_v_z,delta_f_delta_x,A_exp,alpha_u,alpha_v,d_exp,FOV_u,FOV_v,delta_x_tme,delta_y_tme,delta_psi_tme,delta_z_tme,prev_delta_x_tme,prev_delta_y_tme,prev_delta_psi_tme,prev_delta_z_tme,v_xr,v_yr,v_zr,yawrate,pitch_angle,roll_angle,yaw_angle,got_initial_frame,f_u_ref,f_v_ref,f_delta_ref,kp_vx,kd_vx,kp_vy,kd_vy,kp_yaw,kd_yaw,kp_vz,kd_vz,camera_period,controller_period,v_xlat,v_ylon,v_zalt,local_x,local_y,local_z,local_vx,local_vy,local_vz
1576040636.430865,720,388,78,76,1280,720,0.59296875,0.5916666666666667,12.468584003187146,90,87.02137749800312,0.0,-3.5285922653313007,0.09296875000000004,0.05987294442225692,0.021966078709505177,-0.5314159968128536,1225,1280,720,3.0,90.0,50.625,-18.599559888449875,0.17961883326677075,8.367187500000004,0.06589823612851553,-18.599559888449875,0.17961883326677075,8.367187500000004,0.06589823612851553,-0.4724288211666268,-0.05352639712771043,0.094227500200424,8.283515625000003,-3.5285922653313007,-0.834190159879845,87.02137749800312,False,0.5,0.5,13,0.0254,0.0124,-0.298,-0.145,0.99,0.119,1.43,0.371,0.03333333333333333,0.01,0,0,0,0.053755734115839005,0.039037466049194336,-20.07851791381836,-0.04652881622314453,-0.043898116797208786,0.07524607330560684
1576040636.4455736,720,388,78,76,1280,720,0.59296875,0.5916666666666667,12.468584003187146,90,87.01714961090688,0.0,-3.5389239936680026,0.09296875000000004,0.05987294442225692,0.021966078709505177,-0.5314159968128536,1225,1280,720,3.0,90.0,50.625,-18.599559888449875,0.17961883326677075,8.367187500000004,0.06589823612851553,-18.599559888449875,0.17961883326677075,8.367187500000004,0.06589823612851553,-0.4724288211666268,-0.05352639712771043,0.094227500200424,8.283515625000003,-3.5389239936680026,-0.8026011752987707,87.01714961090688,False,0.5,0.5,13,0.0254,0.0124,-0.298,-0.145,0.99,0.119,1.43,0.371,0.03333333333333333,0.01,0,0,0,0.053755734115839005,0.039037466049194336,-20.07851791381836,-0.04652881622314453,-0.043898116797208786,0.07524607330560684
1576040636.4600859,720,386,78,78,1280,720,0.59296875,0.5902777777777778,12.307692307692308,90,87.01885715819938,0.0,-3.5230198981856278,0.09296875000000004,0.059844940646659836,0.02068726127040736,-0.6923076923076916,1225,1280,720,3.0,90.0,50.625,-24.230769230769205,0.1795348219399795,8.367187500000004,0.062061783811222085,-24.230769230769205,0.1795348219399795,8.367187500000004,0.062061783811222085,-0.6161598084199854,-0.05350145946956636,0.08873638906155808,8.283515625000003,-3.5230198981856278,-0.7912395825012777,87.01885715819938,False,0.5,0.5,13,0.0254,0.0124,-0.298,-0.145,0.99,0.119,1.43,0.371,0.03333333333333333,0.01,0,0,0,0.053755734115839005,0.039037466049194336,-20.07851791381836,-0.04652881622314453,-0.043898116797208786,0.07524607330560684
1576040636.4711776,720,386,78,78,1280,720,0.59296875,0.5902777777777778,12.307692307692308,90,87.01733402601447,0.0,-3.489588256632531,0.09296875000000004,0.059828016955716344,0.02134763937515989,-0.6923076923076916,1225,1280,720,3.0,90.0,50.625,-24.230769230769205,0.17948405086714903,8.367187500000004,0.06404291812547967,-24.230769230769205,0.17948405086714903,8.367187500000004,0.06404291812547967,-0.6154615384615378,-0.05348617354035481,0.09158872292774183,8.283515625000003,-3.489588256632531,-0.7936065632138044,87.01733402601447,False,0.5,0.5,13,0.0254,0.0124,-0.298,-0.145,0.99,0.119,1.43,0.371,0.03333333333333333,0.01,0,0,0,0.05268511921167374,0.03845822066068649,-20.079072952270508,-0.0451049730181694,-0.044603440910577774,0.07604198157787323
1576040636.4838328,720,386,78,78,1280,720,0.59296875,0.5902777777777778,12.307692307692308,90,87.01737500714948,0.0,-3.4621671815490456,0.09296875000000004,0.05982847230166096,0.021889290241006526,-0.6923076923076916,1225,1280,720,3.0,90.0,50.625,-24.230769230769205,0.17948541690498288,8.367187500000004,0.06566787072301958,-24.230769230769205,0.17948541690498288,8.367187500000004,0.06566787072301958,-0.6154615384615378,-0.05348665621843975,0.09391108370805486,8.283515625000003,-3.4621671815490456,-0.7618417546224552,87.01737500714948,False,0.5,0.5,13,0.0254,0.0124,-0.298,-0.145,0.99,0.119,1.43,0.371,0.03333333333333333,0.01,0,0,0,0.05268511921167374,0.03845822066068649,-20.079072952270508,-0.0451049730181694,-0.044603440910577774,0.07604198157787323
1576040636.491013,720,386,78,78,1280,720,0.59296875,0.5902777777777778,12.307692307692308,90,87.01961530919725,0.0,-3.39390242900253,0.09296875000000004,0.059853364546636145,0.0232377297974809,-0.6923076923076916,1225,1280,720,3.0,90.0,50.625,-24.230769230769205,0.17956009363990844,8.367187500000004,0.0697131893924427,-24.230769230769205,0.17956009363990844,8.367187500000004,0.0697131893924427,-0.6154615384615378,-0.05350901618595835,0.09970486896345661,8.283515625000003,-3.39390242900253,-0.3859395455668796,87.01961530919725,False,0.5,0.5,13,0.0254,0.0124,-0.298,-0.145,0.99,0.119,1.43,0.371,0.03333333333333333,0.01,0,0,0,0.05268511921167374,0.03845822066068649,-20.079072952270508,-0.0451049730181694,-0.044603440910577774,0.07604198157787323
1576040636.5043895,720,386,78,78,1280,720,0.59296875,0.5902777777777778,12.307692307692308,90,87.04179293343229,0.0,-3.2110738462903328,0.09296875000000004,0.05987180605739523,0.023803248379927186,-0.6923076923076916,1225,1280,720,3.0,90.0,50.625,-24.230769230769205,0.17961541817218568,8.367187500000004,0.07140974513978156,-24.230769230769205,0.17961541817218568,8.367187500000004,0.07140974513978156,-0.6154615384615378,-0.05352547483588314,0.10212222977171026,8.283515625000003,-3.2110738462903328,1.566597907965218,87.04179293343229,False,0.5,0.5,13,0.0254,0.0124,-0.298,-0.145,0.99,0.119,1.43,0.371,0.03333333333333333,0.01,0,0,0,0.05184907466173172,0.03839493170380592,-20.080041885375977,-0.04343554750084877,-0.042435161769390106,0.05025399476289749
1576040636.5237014,720,386,78,78,1280,720,0.59296875,0.5902777777777778,12.307692307692308,90,87.13971735556275,0.0,-2.7502292436019364,0.09296875000000004,0.06009978259369216,0.026849158591795902,-0.6923076923076916,1225,1280,720,3.0,90.0,50.625,-24.230769230769205,0.18029934778107648,8.367187500000004,0.0805474757753877,-24.230769230769205,0.18029934778107648,8.367187500000004,0.0805474757753877,-0.6154615384615378,-0.05373019733669368,0.11521679133946251,8.283515625000003,-2.7502292436019364,4.097091961839911,87.13971735556275,False,0.5,0.5,13,0.0254,0.0124,-0.298,-0.145,0.99,0.119,1.43,0.371,0.03333333333333333,0.01,0,0,0,0.05184907466173172,0.03839493170380592,-20.080041885375977,-0.04343554750084877,-0.042435161769390106,0.05025399476289749
1576040636.5355914,720,386,78,78,1280,720,0.59296875,0.5902777777777778,12.307692307692308,90,87.17306916927993,0.0,-2.613776578137068,0.09296875000000004,0.061558407436443675,0.03864762314790978,-0.6923076923076916,1225,1280,720,3.0,90.0,50.625,-24.230769230769205,0.18467522230933103,8.367187500000004,0.11594286944372934,-24.230769230769205,0.18467522230933103,8.367187500000004,0.11594286944372934,-0.6154615384615378,-0.05503482825251031,0.16582830267572551,8.283515625000003,-2.613776578137068,4.4726640006182246,87.17306916927993,False,0.5,0.5,13,0.0254,0.0124,-0.298,-0.145,0.99,0.119,1.43,0.371,0.03333333333333333,0.01,0,0,0,0.050807490944862366,0.03824368119239807,-20.081802368164062,-0.05755670741200447,-0.04042346030473709,0.02652299404144287
1576040636.5500233,720,386,78,78,1280,720,0.59296875,0.5902777777777778,12.307692307692308,90,87.32439884053073,0.0,-2.08428942806369,0.09296875000000004,0.061558407436443675,0.03864762314790978,-0.6923076923076916,1225,1280,720,3.0,90.0,50.625,-24.230769230769205,0.18467522230933103,8.367187500000004,0.11594286944372934,-24.230769230769205,0.18467522230933103,8.367187500000004,0.11594286944372934,-0.6154615384615378,-0.05503482825251031,0.16582830267572551,8.283515625000003,-2.08428942806369,5.258231377818071,87.32439884053073,False,0.5,0.5,13,0.0254,0.0124,-0.298,-0.145,0.99,0.119,1.43,0.371,0.03333333333333333,0.01,0,0,0,0.050807490944862366,0.03824368119239807,-20.081802368164062,-0.05755670741200447,-0.04042346030473709,0.02652299404144287
1576040636.5627527,720,386,78,78,1280,720,0.59296875,0.5902777777777778,12.307692307692308,90,87.39792582694592,0.0,-1.9139095054440756,0.09296875000000004,0.06405681474384363,0.05247215791715407,-0.6923076923076916,1225,1280,720,3.0,90.0,50.625,-24.230769230769205,0.1921704442315309,8.367187500000004,0.15741647375146223,-24.230769230769205,0.1921704442315309,8.367187500000004,0.15741647375146223,-0.6154615384615378,-0.057277660452783395,0.2252594245365727,8.283515625000003,-1.9139095054440756,5.297489170733189,87.39792582694592,False,0.5,0.5,13,0.0254,0.0124,-0.298,-0.145,0.99,0.119,1.43,0.371,0.03333333333333333,0.01,0,0,0,0.050807490944862366,0.03824368119239807,-20.081802368164062,-0.05755670741200447,-0.04042346030473709,0.02652299404144287
1576040636.566897,720,386,78,78,1280,720,0.59296875,0.5902777777777778,12.307692307692308,90,87.49837058888012,0.0,-1.8652254111441056,0.09296875000000004,0.06517286765422362,0.05343381903912879,-0.6923076923076916,1225,1280,720,3.0,90.0,50.625,-24.230769230769205,0.19551860296267085,8.367187500000004,0.16030145711738636,-24.230769230769205,0.19551860296267085,8.367187500000004,0.16030145711738636,-0.6154615384615378,-0.058269398513036065,0.22924178696615008,8.283515625000003,-1.8652254111441056,5.22559118443505,87.49837058888012,False,0.5,0.5,13,0.0254,0.0124,-0.298,-0.145,0.99,0.119,1.43,0.371,0.03333333333333333,0.01,0,0,0,0.048182230442762375,0.03783612325787544,-20.084726333618164,-0.0984911173582077,-0.044700924307107925,0.012558369897305965
1576040636.583004,720,386,78,78,1280,720,0.59296875,0.5902777777777778,12.307692307692308,90,87.56142006510852,0.0,-1.9423736784798689,0.09296875000000004,0.06587341739009472,0.05190990264731125,-0.6923076923076916,1225,1280,720,3.0,90.0,50.625,-24.230769230769205,0.19762025217028417,8.367187500000004,0.15572970794193375,-24.230769230769205,0.19762025217028417,8.367187500000004,0.15572970794193375,-0.6154615384615378,-0.05889388253809572,0.22267652116752434,8.283515625000003,-1.9423736784798689,5.28462450943147,87.56142006510852,False,0.5,0.5,13,0.0254,0.0124,-0.298,-0.145,0.99,0.119,1.43,0.371,0.03333333333333333,0.01,0,0,0,0.048182230442762375,0.03783612325787544,-20.084726333618164,-0.0984911173582077,-0.044700924307107925,0.012558369897305965
1576040636.5927525,720,386,78,78,1280,720,0.59296875,0.5902777777777778,12.307692307692308,90,87.70283913187363,0.0,-2.2075404050799814,0.09296875000000004,0.06652896376843438,0.04957888135240437,-0.6923076923076916,1225,1280,720,3.0,90.0,50.625,-24.230769230769205,0.19958689130530316,8.367187500000004,0.1487366440572131,-24.230769230769205,0.19958689130530316,8.367187500000004,0.1487366440572131,-0.6154615384615378,-0.05947974523572612,0.21266745673480242,8.283515625000003,-2.2075404050799814,6.2679062263093215,87.70283913187363,False,0.5,0.5,13,0.0254,0.0124,-0.298,-0.145,0.99,0.119,1.43,0.371,0.03333333333333333,0.01,0,0,0,0.048182230442762375,0.03783612325787544,-20.084726333618164,-0.0984911173582077,-0.044700924307107925,0.012558369897305965
1576040636.6073856,720,386,78,78,1280,720,0.59296875,0.5902777777777778,12.307692307692308,90,87.78620159069364,0.0,-2.2328018597252735,0.09296875000000004,0.06837098989659601,0.046173049684439055,-0.6923076923076916,1225,1280,720,3.0,90.0,50.625,-24.230769230769205,0.20511296968978804,8.367187500000004,0.13851914905331716,-24.230769230769205,0.20511296968978804,8.367187500000004,0.13851914905331716,-0.6154615384615378,-0.06113167778121434,0.19804447623977908,8.283515625000003,-2.2328018597252735,7.263802021923718,87.78620159069364,False,0.5,0.5,13,0.0254,0.0124,-0.298,-0.145,0.99,0.119,1.43,0.371,0.03333333333333333,0.01,0,0,0,0.04489288106560707,0.03712616115808487,-20.086477279663086,-0.12685324251651764,-0.05329236388206482,0.05829045549035072
1576040636.618982,720,386,78,78,1280,720,0.59296875,0.5902777777777778,12.307692307692308,90,87.85498159563566,0.0,-2.152694412931602,0.09296875000000004,0.06913521217372964,0.047755419003820215,-0.6923076923076916,1225,1280,720,3.0,90.0,50.625,-24.230769230769205,0.20740563652118893,8.367187500000004,0.14326625701146065,-24.230769230769205,0.20740563652118893,8.367187500000004,0.14326625701146065,-0.6154615384615378,-0.06181020405021983,0.2048883592969134,8.283515625000003,-2.152694412931602,7.940429589409153,87.85498159563566,False,0.5,0.5,13,0.0254,0.0124,-0.298,-0.145,0.99,0.119,1.43,0.371,0.03333333333333333,0.01,0,0,0,0.04489288106560707,0.03712616115808487,-20.086477279663086,-0.12685324251651764,-0.05329236388206482,0.05829045549035072
1576040636.631898,720,386,78,78,1280,720,0.59296875,0.5902777777777778,12.307692307692308,90,88.06990032805929,0.0,-1.7204168630033727,0.09296875000000004,0.07005167177836384,0.05067849964711488,-0.6923076923076916,1225,1280,720,3.0,90.0,50.625,-24.230769230769205,0.2101550153350915,8.367187500000004,0.15203549894134463,-24.230769230769205,0.2101550153350915,8.367187500000004,0.15203549894134463,-0.6154615384615378,-0.06263018116913743,0.21744329737368268,8.283515625000003,-1.7204168630033727,9.226917063922212,88.06990032805929,False,0.5,0.5,13,0.0254,0.0124,-0.298,-0.145,0.99,0.119,1.43,0.371,0.03333333333333333,0.01,0,0,0,0.04063674435019493,0.03601131588220596,-20.085182189941406,-0.15642695128917694,-0.06224081665277481,0.17990125715732574
1576040636.6406164,720,386,78,78,1280,720,0.59296875,0.5902777777777778,12.307692307692308,90,88.06990032805929,0.0,-1.7204168630033727,0.09296875000000004,0.07152319808954771,0.05629423480487166,-0.6923076923076916,1225,1280,720,3.0,90.0,50.625,-24.230769230769205,0.21456959426864314,8.367187500000004,0.16888270441461498,-24.230769230769205,0.21456959426864314,8.367187500000004,0.16888270441461498,-0.6154615384615378,-0.0639481402315093,0.24156477044520522,8.283515625000003,-1.7204168630033727,9.226917063922212,88.06990032805929,False,0.5,0.5,13,0.0254,0.0124,-0.298,-0.145,0.99,0.119,1.43,0.371,0.03333333333333333,0.01,0,0,0,0.04063674435019493,0.03601131588220596,-20.085182189941406,-0.15642695128917694,-0.06224081665277481,0.17990125715732574
1576040636.6570923,720,386,78,78,1280,720,0.59296875,0.5902777777777778,12.307692307692308,90,88.21673573483622,0.0,-1.434463095994561,0.09296875000000004,0.07281417973367077,0.0610157759314553,-0.6923076923076916,1225,1280,720,3.0,90.0,50.625,-24.230769230769205,0.2184425392010123,8.367187500000004,0.18304732779436592,-24.230769230769205,0.2184425392010123,8.367187500000004,0.18304732779436592,-0.6154615384615378,-0.0651014924520536,0.2618102294986821,8.283515625000003,-1.434463095994561,9.689138163171776,88.21673573483622,False,0.5,0.5,13,0.0254,0.0124,-0.298,-0.145,0.99,0.119,1.43,0.371,0.03333333333333333,0.01,0,0,0,0.04063674435019493,0.03601131588220596,-20.085182189941406,-0.15642695128917694,-0.06224081665277481,0.17990125715732574
1576040636.6694424,719,386,78,78,1280,720,0.5921875,0.5902777777777778,12.307692307692308,90,88.28733940028664,0.0,-1.429945246023715,0.09296875000000004,0.07315470260929138,0.06194270427665066,-0.6923076923076916,1225,1280,720,3.0,90.0,50.625,-24.230769230769205,0.21946410782787415,8.367187500000004,0.18582811282995199,-24.230769230769205,0.21946410782787415,8.367187500000004,0.18582811282995199,-0.6154615384615378,-0.06540178540721545,0.2657445180593134,8.283515625000003,-1.429945246023715,9.790975429923021,88.28733940028664,False,0.5,0.5,13,0.0254,0.0124,-0.298,-0.145,0.99,0.119,1.43,0.371,0.03333333333333333,0.01,0,0,0,0.035260699689388275,0.03446691855788231,-20.079675674438477,-0.19376355409622192,-0.07395388931035995,0.2953237295150757
1576040636.6741598,719,386,78,78,1280,720,0.5921875,0.5902777777777778,12.307692307692308,90,88.31358098707783,0.0,-1.5366830667827371,0.09218749999999998,0.07315793778096265,0.06203194575755626,-0.6923076923076916,1225,1280,720,3.0,90.0,50.625,-24.230769230769205,0.21947381334288796,8.296874999999998,0.18609583727266876,-24.230769230769205,0.21947381334288796,8.296874999999998,0.18609583727266876,-0.6154615384615378,-0.06540321044917738,0.2661180405575988,8.213822578124997,-1.5366830667827371,9.824705465365483,88.31358098707783,False,0.5,0.5,13,0.0254,0.0124,-0.298,-0.145,0.99,0.119,1.43,0.371,0.03333333333333333,0.01,0,0,0,0.035260699689388275,0.03446691855788231,-20.079675674438477,-0.19376355409622192,-0.07395388931035995,0.2953237295150757
1576040636.6929977,719,386,78,78,1280,720,0.5921875,0.5902777777777778,12.307692307692308,90,88.36617344368693,0.0,-1.9578709508198047,0.09218749999999998,0.07403387159652144,0.05160378368751004,-0.6923076923076916,1225,1280,720,3.0,90.0,50.625,-24.230769230769205,0.22210161478956433,8.296874999999998,0.15481135106253013,-24.230769230769205,0.22210161478956433,8.296874999999998,0.15481135106253013,-0.6154615384615378,-0.06618882317602627,0.22128763308313498,8.213906249999997,-1.9578709508198047,10.073600973815331,88.36617344368693,False,0.5,0.5,13,0.0254,0.0124,-0.298,-0.145,0.99,0.119,1.43,0.371,0.03333333333333333,0.01,0,0,0,0.035260699689388275,0.03446691855788231,-20.079675674438477,-0.19376355409622192,-0.07395388931035995,0.2953237295150757
1576040636.704327,718,386,78,76,1280,720,0.59140625,0.5888888888888889,12.468584003187146,90,88.36617344368693,0.0,-1.9578709508198047,0.09218749999999998,0.07403387159652144,0.05160378368751004,-0.6923076923076916,1225,1280,720,3.0,90.0,50.625,-24.230769230769205,0.22210161478956433,8.296874999999998,0.15481135106253013,-24.230769230769205,0.22210161478956433,8.296874999999998,0.15481135106253013,-0.6154615384615378,-0.06618882317602627,0.22128763308313498,8.213906249999997,-1.9578709508198047,10.073600973815331,88.36617344368693,False,0.5,0.5,13,0.0254,0.0124,-0.298,-0.145,0.99,0.119,1.43,0.371,0.03333333333333333,0.01,0,0,0,0.0287751704454422,0.03341987729072571,-20.072040557861328,-0.24428409337997437,-0.08335288614034653,0.32621318101882935
1576040636.720285,718,386,78,76,1280,720,0.59140625,0.5888888888888889,12.468584003187146,90,88.47342790422364,0.0,-2.137876104083848,0.09140625000000002,0.07444433782470714,0.04665923745019561,-0.5314159968128536,1225,1280,720,3.0,90.0,50.625,-18.599559888449875,0.2233330134741214,8.226562500000002,0.1399777123505868,-18.599559888449875,0.2233330134741214,8.226562500000002,0.1399777123505868,-0.4724288211666268,-0.06655587572050915,0.20016305709460436,8.144296875000002,-2.137876104083848,10.5762277646474,88.47342790422364,False,0.5,0.5,13,0.0254,0.0124,-0.298,-0.145,0.99,0.119,1.43,0.371,0.03333333333333333,0.01,0,0,0,0.0287751704454422,0.03341987729072571,-20.072040557861328,-0.24428409337997437,-0.08335288614034653,0.32621318101882935
1576040636.727751,718,386,78,76,1280,720,0.59140625,0.5888888888888889,12.468584003187146,90,88.6178864051694,0.0,-2.034683258225768,0.09140625000000002,0.07604943227966003,0.04869761465233052,-0.5314159968128536,1225,1280,720,3.0,90.0,50.625,-18.599559888449875,0.22814829683898008,8.226562500000002,0.14609284395699157,-18.599559888449875,0.22814829683898008,8.226562500000002,0.14609284395699157,-0.4724288211666268,-0.06799517461889511,0.2089354539967577,8.144296875000002,-2.034683258225768,10.802221648810198,88.6178864051694,False,0.5,0.5,13,0.0254,0.0124,-0.298,-0.145,0.99,0.119,1.43,0.371,0.03333333333333333,0.01,0,0,0,0.0287751704454422,0.03341987729072571,-20.072040557861328,-0.24428409337997437,-0.08335288614034653,0.32621318101882935
1576040636.7396247,718,386,78,76,1280,720,0.59140625,0.5888888888888889,12.468584003187146,90,88.69242425958176,0.0,-1.9950088237712797,0.09140625000000002,0.07687763066201954,0.04948130718476486,-0.5314159968128536,1225,1280,720,3.0,90.0,50.625,-18.599559888449875,0.23063289198605863,8.226562500000002,0.1484439215542946,-18.599559888449875,0.23063289198605863,8.226562500000002,0.1484439215542946,-0.4724288211666268,-0.06873220447480873,0.21228353032052724,8.144296875000002,-1.9950088237712797,10.78786459117483,88.69242425958176,False,0.5,0.5,13,0.0254,0.0124,-0.298,-0.145,0.99,0.119,1.43,0.371,0.03333333333333333,0.01,0,0,0,0.020388739183545113,0.03201335668563843,-20.06439208984375,-0.30725952982902527,-0.08660514652729034,0.29999852180480957
1576040636.7568774,718,386,78,76,1280,720,0.59140625,0.5888888888888889,12.468584003187146,90,88.79419407821494,0.0,-2.1577222859343776,0.09140625000000002,0.07779697412430332,0.047819146920913026,-0.5314159968128536,1225,1280,720,3.0,90.0,50.625,-18.599559888449875,0.23339092237290998,8.226562500000002,0.14345744076273909,-18.599559888449875,0.23339092237290998,8.226562500000002,0.14345744076273909,-0.4724288211666268,-0.0695544940111881,0.2051256404469802,8.144296875000002,-2.1577222859343776,10.46427669528266,88.79419407821494,False,0.5,0.5,13,0.0254,0.0124,-0.298,-0.145,0.99,0.119,1.43,0.371,0.03333333333333333,0.01,0,0,0,0.020388739183545113,0.03201335668563843,-20.06439208984375,-0.30725952982902527,-0.08660514652729034,0.29999852180480957
1576040636.771859,718,386,78,77,1280,720,0.59140625,0.5895833333333333,12.38735457822022,90,88.82867287314517,0.0,-2.507742160140851,0.09140625000000002,0.0780084064246105,0.04626721410499997,-0.5314159968128536,1225,1280,720,3.0,90.0,50.625,-18.599559888449875,0.23402521927383152,8.226562500000002,0.13880164231499992,-18.599559888449875,0.23402521927383152,8.226562500000002,0.13880164231499992,-0.4724288211666268,-0.06974043507410813,0.19846907549820877,8.144296875000002,-2.507742160140851,10.033152593550517,88.82867287314517,False,0.5,0.5,13,0.0254,0.0124,-0.298,-0.145,0.99,0.119,1.43,0.371,0.03333333333333333,0.01,0,0,0,0.009754164144396782,0.030354857444763184,-20.05827522277832,-0.3794996440410614,-0.08915795385837555,0.22756017744541168
1576040636.782469,718,386,78,77,1280,720,0.59140625,0.5895833333333333,12.38735457822022,90,88.84768128960532,0.0,-2.767796490147209,0.09140625000000002,0.07839150414605742,0.04004768572561283,-0.6126454217797797,1225,1280,720,3.0,90.0,50.625,-21.442589762292286,0.23517451243817225,8.226562500000002,0.1201430571768385,-21.442589762292286,0.23517451243817225,8.226562500000002,0.1201430571768385,-0.5449943156665805,-0.07008367118166363,0.1717353484120165,8.144296875000002,-2.767796490147209,9.735995822199003,88.84768128960532,False,0.5,0.5,13,0.0254,0.0124,-0.298,-0.145,0.99,0.119,1.43,0.371,0.03333333333333333,0.01,0,0,0,0.009754164144396782,0.030354857444763184,-20.05827522277832,-0.3794996440410614,-0.08915795385837555,0.22756017744541168
1576040636.7933958,718,386,78,77,1280,720,0.59140625,0.5895833333333333,12.38735457822022,90,88.94741571186584,0.0,-3.0923751903558547,0.09140625000000002,0.07860270877339245,0.034910810071166254,-0.6126454217797797,1225,1280,720,3.0,90.0,50.625,-21.442589762292286,0.23580812632017736,8.226562500000002,0.10473243021349876,-21.442589762292286,0.23580812632017736,8.226562500000002,0.10473243021349876,-0.5446417799622241,-0.07027174038354175,0.14971020177926925,8.144296875000002,-3.0923751903558547,8.933292354145241,88.94741571186584,False,0.5,0.5,13,0.0254,0.0124,-0.298,-0.145,0.99,0.119,1.43,0.371,0.03333333333333333,0.01,0,0,0,0.009754164144396782,0.030354857444763184,-20.05827522277832,-0.3794996440410614,-0.08915795385837555,0.22756017744541168
1576040636.8082256,718,386,78,76,1280,720,0.59140625,0.5888888888888889,12.468584003187146,90,89.09731787358011,0.0,-2.9794337435614624,0.09140625000000002,0.07971086902073163,0.027804934511489306,-0.5314159968128536,1225,1280,720,3.0,90.0,50.625,-18.599559888449875,0.23913260706219489,8.226562500000002,0.08341480353446792,-18.599559888449875,0.23913260706219489,8.226562500000002,0.08341480353446792,-0.4720762854622704,-0.07126151690453407,0.11927543988762246,8.144296875000002,-2.9794337435614624,7.765060213600845,89.09731787358011,False,0.5,0.5,13,0.0254,0.0124,-0.298,-0.145,0.99,0.119,1.43,0.371,0.03333333333333333,0.01,0,0,0,-0.003158368868753314,0.028536241501569748,-20.054630279541016,-0.44400715827941895,-0.08615382760763168,0.14795812964439392
1576040636.8207588,718,386,78,76,1280,720,0.59140625,0.5888888888888889,12.468584003187146,90,89.16882995419014,0.0,-2.9281492681784216,0.09140625000000002,0.08217102726877941,0.03104890334462379,-0.5314159968128536,1225,1280,720,3.0,90.0,50.625,-18.599559888449875,0.24651308180633824,8.226562500000002,0.09314671003387137,-18.599559888449875,0.24651308180633824,8.226562500000002,0.09314671003387137,-0.4724288211666268,-0.0734716000666678,0.13323590072154887,8.144296875000002,-2.9281492681784216,6.894543639259434,89.16882995419014,False,0.5,0.5,13,0.0254,0.0124,-0.298,-0.145,0.99,0.119,1.43,0.371,0.03333333333333333,0.01,0,0,0,-0.003158368868753314,0.028536241501569748,-20.054630279541016,-0.44400715827941895,-0.08615382760763168,0.14795812964439392
1576040636.8309548,718,386,78,76,1280,720,0.59140625,0.5888888888888889,12.468584003187146,90,89.2329107889832,0.0,-2.9385828090224395,0.09140625000000002,0.08217102726877941,0.03104890334462379,-0.5314159968128536,1225,1280,720,3.0,90.0,50.625,-18.599559888449875,0.24651308180633824,8.226562500000002,0.09314671003387137,-18.599559888449875,0.24651308180633824,8.226562500000002,0.09314671003387137,-0.4724288211666268,-0.0734716000666678,0.13323590072154887,8.144296875000002,-2.9385828090224395,5.876149200519016,89.2329107889832,False,0.5,0.5,13,0.0254,0.0124,-0.298,-0.145,0.99,0.119,1.43,0.371,0.03333333333333333,0.01,0,0,0,-0.003158368868753314,0.028536241501569748,-20.054630279541016,-0.44400715827941895,-0.08615382760763168,0.14795812964439392
1576040636.8417277,718,386,78,76,1280,720,0.59140625,0.5888888888888889,12.468584003187146,90,89.29116547241425,0.0,-3.0253490499266387,0.09140625000000002,0.0835303108046028,0.029128907655770114,-0.5314159968128536,1225,1280,720,3.0,90.0,50.625,-18.599559888449875,0.25059093241380836,8.226562500000002,0.08738672296731034,-18.599559888449875,0.25059093241380836,8.226562500000002,0.08738672296731034,-0.4724288211666268,-0.07468201074269573,0.12494164429123684,8.144296875000002,-3.0253490499266387,4.803780045636219,89.29116547241425,False,0.5,0.5,13,0.0254,0.0124,-0.298,-0.145,0.99,0.119,1.43,0.371,0.03333333333333333,0.01,0,0,0,-0.017907900735735893,0.02669716440141201,-20.052610397338867,-0.4890422523021698,-0.08518995344638824,0.12126170098781586
1576040636.8573503,718,386,78,76,1280,720,0.59140625,0.5888888888888889,12.468584003187146,90,89.46690623975867,0.0,-3.406770932285657,0.09140625000000002,0.08453799138015199,0.025078428398974076,-0.5314159968128536,1225,1280,720,3.0,90.0,50.625,-18.599559888449875,0.25361397414045594,8.226562500000002,0.07523528519692223,-18.599559888449875,0.25361397414045594,8.226562500000002,0.07523528519692223,-0.4724288211666268,-0.07558134770435951,0.10754137599747064,8.144296875000002,-3.406770932285657,2.418137975636512,89.46690623975867,False,0.5,0.5,13,0.0254,0.0124,-0.298,-0.145,0.99,0.119,1.43,0.371,0.03333333333333333,0.01,0,0,0,-0.017907900735735893,0.02669716440141201,-20.052610397338867,-0.4890422523021698,-0.08518995344638824,0.12126170098781586
1576040636.8699098,718,386,78,76,1280,720,0.59140625,0.5888888888888889,12.468584003187146,90,89.54509824537698,0.0,-3.4246333710691212,0.09140625000000002,0.0854829859973186,0.021594648251147527,-0.5314159968128536,1225,1280,720,3.0,90.0,50.625,-18.599559888449875,0.2564489579919558,8.226562500000002,0.06478394475344258,-18.599559888449875,0.2564489579919558,8.226562500000002,0.06478394475344258,-0.4724288211666268,-0.07642590020818749,0.09260226652437759,8.144296875000002,-3.4246333710691212,1.9046669788365789,89.54509824537698,False,0.5,0.5,13,0.0254,0.0124,-0.298,-0.145,0.99,0.119,1.43,0.371,0.03333333333333333,0.01,0,0,0,-0.03771130368113518,0.024198971688747406,-20.050785064697266,-0.5088159441947937,-0.0850910022854805,0.0965292751789093
1576040636.878077,718,386,78,76,1280,720,0.59140625,0.5888888888888889,12.468584003187146,90,89.59700768306908,0.0,-3.3405223662047647,0.09140625000000002,0.08635178605974421,0.021241809954190213,-0.5314159968128536,1225,1280,720,3.0,90.0,50.625,-18.599559888449875,0.25905535817923264,8.226562500000002,0.06372542986257064,-18.599559888449875,0.25905535817923264,8.226562500000002,0.06372542986257064,-0.4724288211666268,-0.07720227601768287,0.09112343761323088,8.144296875000002,-3.3405223662047647,1.6713778123099736,89.59700768306908,False,0.5,0.5,13,0.0254,0.0124,-0.298,-0.145,0.99,0.119,1.43,0.371,0.03333333333333333,0.01,0,0,0,-0.03771130368113518,0.024198971688747406,-20.050785064697266,-0.5088159441947937,-0.0850910022854805,0.0965292751789093
1576040636.8886895,718,386,78,76,1280,720,0.59140625,0.5888888888888889,12.468584003187146,90,89.67101278272617,0.0,-3.1579823589850005,0.09140625000000002,0.08692855758965647,0.022903261902128116,-0.5314159968128536,1225,1280,720,3.0,90.0,50.625,-18.599559888449875,0.2607856727689694,8.226562500000002,0.06870978570638435,-18.599559888449875,0.2607856727689694,8.226562500000002,0.06870978570638435,-0.4724288211666268,-0.077716639441308,0.09827348552031018,8.144296875000002,-3.1579823589850005,1.2356129172019237,89.67101278272617,False,0.5,0.5,13,0.0254,0.0124,-0.298,-0.145,0.99,0.119,1.43,0.371,0.03333333333333333,0.01,0,0,0,-0.03771130368113518,0.024198971688747406,-20.050785064697266,-0.5088159441947937,-0.0850910022854805,0.0965292751789093
1576040636.9024935,718,386,78,76,1280,720,0.59140625,0.5888888888888889,12.468584003187146,90,89.6925756899359,0.0,-3.1065275557595324,0.09140625000000002,0.08799042433262105,0.02752538161462654,-0.5314159968128536,1225,1280,720,3.0,90.0,50.625,-18.599559888449875,0.26397127299786316,8.226562500000002,0.08257614484387962,-18.599559888449875,0.26397127299786316,8.226562500000002,0.08257614484387962,-0.4724288211666268,-0.07866805847369511,0.11813533131914797,8.144296875000002,-3.1065275557595324,1.0326334621691906,89.6925756899359,False,0.5,0.5,13,0.0254,0.0124,-0.298,-0.145,0.99,0.119,1.43,0.371,0.03333333333333333,0.01,0,0,0,-0.03771130368113518,0.024198971688747406,-20.050785064697266,-0.5088159441947937,-0.0850910022854805,0.0965292751789093
1576040636.9221358,722,386,78,78,1280,720,0.59453125,0.5902777777777778,12.307692307692308,90,89.79006981014865,0.0,-3.151608725272321,0.09453124999999996,0.09219869233498497,0.028023778266225777,-0.6923076923076916,1225,1280,720,3.0,90.0,50.625,-24.230769230769205,0.2765960770049549,8.507812499999996,0.08407133479867733,-24.230769230769205,0.2765960770049549,8.507812499999996,0.08407133479867733,-0.6154615384615378,-0.08242743970678892,0.12020340131721602,8.422734374999996,-3.151608725272321,-0.4273037314694322,89.79006981014865,False,0.5,0.5,13,0.0254,0.0124,-0.298,-0.145,0.99,0.119,1.43,0.371,0.03333333333333333,0.01,0,0,0,-0.05199447274208069,0.023377321660518646,-20.050819396972656,-0.5115727186203003,-0.08361441642045975,0.08526676893234253
1576040636.9312284,720,392,78,77,1280,720,0.59296875,0.5979166666666667,12.38735457822022,90,89.8721481934047,0.0,-3.4565147731240367,0.09453124999999996,0.09219869233498497,0.028023778266225777,-0.6923076923076916,1225,1280,720,3.0,90.0,50.625,-24.230769230769205,0.2765960770049549,8.507812499999996,0.08407133479867733,-24.230769230769205,0.2765960770049549,8.507812499999996,0.08407133479867733,-0.6154615384615378,-0.08242743970678892,0.12020340131721602,8.422734374999996,-3.4565147731240367,-1.563296258553457,89.8721481934047,False,0.5,0.5,13,0.0254,0.0124,-0.298,-0.145,0.99,0.119,1.43,0.371,0.03333333333333333,0.01,0,0,0,-0.06645944714546204,0.02232225239276886,-20.051008224487305,-0.5040596723556519,-0.08486728370189667,0.07211172580718994
1576040636.9421499,720,392,78,77,1280,720,0.59296875,0.5979166666666667,12.38735457822022,90,89.91280147934461,0.0,-3.5540541433400503,0.09296875000000004,0.09154817437116335,0.029639831641994324,-0.6126454217797797,1225,1280,720,3.0,90.0,50.625,-21.442589762292286,0.27464452311349,8.367187500000004,0.08891949492598297,-21.442589762292286,0.27464452311349,8.367187500000004,0.08891949492598297,-0.544296045708133,-0.08184123813467739,0.12717286441822795,8.283348281250003,-3.5540541433400503,-1.8810238521377567,89.91280147934461,False,0.5,0.5,13,0.0254,0.0124,-0.298,-0.145,0.99,0.119,1.43,0.371,0.03333333333333333,0.01,0,0,0,-0.06645944714546204,0.02232225239276886,-20.051008224487305,-0.5040596723556519,-0.08486728370189667,0.07211172580718994
1576040636.9542005,720,392,78,77,1280,720,0.59296875,0.5979166666666667,12.38735457822022,90,89.94273819847677,0.0,-3.5586758335306214,0.09296875000000004,0.09199987754827348,0.02771312803278911,-0.6126454217797797,1225,1280,720,3.0,90.0,50.625,-21.442589762292286,0.2759996326448204,8.367187500000004,0.08313938409836732,-21.442589762292286,0.2759996326448204,8.367187500000004,0.08313938409836732,-0.5446417799622241,-0.08224985543697691,0.11886787504949482,8.283515625000003,-3.5586758335306214,-1.9853675848709835,89.94273819847677,False,0.5,0.5,13,0.0254,0.0124,-0.298,-0.145,0.99,0.119,1.43,0.371,0.03333333333333333,0.01,0,0,0,-0.06645944714546204,0.02232225239276886,-20.051008224487305,-0.5040596723556519,-0.08486728370189667,0.07211172580718994
1576040636.973511,716,386,78,77,1280,720,0.58984375,0.5895833333333333,12.38735457822022,90,89.99205899447344,0.0,-3.1830841579584437,0.08984375,0.08975551660526043,0.02670759687983322,-0.6126454217797797,1225,1280,720,3.0,90.0,50.625,-21.442589762292286,0.2692665498157813,8.0859375,0.08012279063949966,-21.442589762292286,0.2692665498157813,8.0859375,0.08012279063949966,-0.5446417799622241,-0.08022934743030562,0.11453811325882637,8.0047434375,-3.1830841579584437,-1.4856415967237608,89.99205899447344,False,0.5,0.5,13,0.0254,0.0124,-0.298,-0.145,0.99,0.119,1.43,0.371,0.03333333333333333,0.01,0,0,0,-0.08063121885061264,0.021086838096380234,-20.051715850830078,-0.4855341911315918,-0.08429872989654541,0.06451065093278885
1576040636.9849076,716,386,78,77,1280,720,0.58984375,0.5895833333333333,12.38735457822022,90,90.01761073215846,0.0,-3.0428125629738916,0.08984375,0.09003942480176066,0.029478393817799688,-0.6126454217797797,1225,1280,720,3.0,90.0,50.625,-21.442589762292286,0.270118274405282,8.0859375,0.08843518145339907,-21.442589762292286,0.270118274405282,8.0859375,0.08843518145339907,-0.5446417799622241,-0.0804964807734288,0.12649314844828022,8.005078125,-3.0428125629738916,-1.1459983806921235,90.01761073215846,False,0.5,0.5,13,0.0254,0.0124,-0.298,-0.145,0.99,0.119,1.43,0.371,0.03333333333333333,0.01,0,0,0,-0.08063121885061264,0.021086838096380234,-20.051715850830078,-0.4855341911315918,-0.08429872989654541,0.06451065093278885
1576040636.9961002,716,386,78,77,1280,720,0.58984375,0.5895833333333333,12.38735457822022,90,90.12289126802504,0.0,-2.9926369261139203,0.08984375,0.09065262400724632,0.031142029739805538,-0.6126454217797797,1225,1280,720,3.0,90.0,50.625,-21.442589762292286,0.27195787202173893,8.0859375,0.09342608921941661,-21.442589762292286,0.27195787202173893,8.0859375,0.09342608921941661,-0.5446417799622241,-0.08104611327902206,0.1336178238515777,8.005078125,-2.9926369261139203,-0.08905522806011952,90.12289126802504,False,0.5,0.5,13,0.0254,0.0124,-0.298,-0.145,0.99,0.119,1.43,0.371,0.03333333333333333,0.01,0,0,0,-0.08063121885061264,0.021086838096380234,-20.051715850830078,-0.4855341911315918,-0.08429872989654541,0.06451065093278885
1576040637.0057664,716,384,78,78,1280,720,0.58984375,0.5875,12.307692307692308,90,90.12289126802504,0.0,-2.9926369261139203,0.08984375,0.09120920853361159,0.03046951750886085,-0.6126454217797797,1225,1280,720,3.0,90.0,50.625,-21.442589762292286,0.27362762560083476,8.0859375,0.09140855252658256,-21.442589762292286,0.27362762560083476,8.0859375,0.09140855252658256,-0.5446417799622241,-0.08154345357173845,0.13070674505188265,8.005078125,-2.9926369261139203,-0.08905522806011952,90.12289126802504,False,0.5,0.5,13,0.0254,0.0124,-0.298,-0.145,0.99,0.119,1.43,0.371,0.03333333333333333,0.01,0,0,0,-0.09448283165693283,0.019608739763498306,-20.0517520904541,-0.4740079343318939,-0.08889789134263992,0.09976210445165634
1576040637.022693,716,384,78,78,1280,720,0.58984375,0.5875,12.307692307692308,90,90.24168874825907,0.0,-3.1815879196433876,0.08984375,0.09252918053621184,0.024653818871241753,-0.6923076923076916,1225,1280,720,3.0,90.0,50.625,-24.230769230769205,0.2775875416086355,8.0859375,0.07396145661372526,-24.230769230769205,0.2775875416086355,8.0859375,0.07396145661372526,-0.615807272715629,-0.0827268292775847,0.10570015423179042,8.005078125,-3.1815879196433876,0.675875873150764,90.24168874825907,False,0.5,0.5,13,0.0254,0.0124,-0.298,-0.145,0.99,0.119,1.43,0.371,0.03333333333333333,0.01,0,0,0,-0.09448283165693283,0.019608739763498306,-20.0517520904541,-0.4740079343318939,-0.08889789134263992,0.09976210445165634
1576040637.0299723,716,384,78,78,1280,720,0.58984375,0.5875,12.307692307692308,90,90.34862902009395,0.0,-3.3358321606790815,0.08984375,0.09371740577882169,0.021607019048314455,-0.6923076923076916,1225,1280,720,3.0,90.0,50.625,-24.230769230769205,0.28115221733646506,8.0859375,0.06482105714494336,-24.230769230769205,0.28115221733646506,8.0859375,0.06482105714494336,-0.6154615384615378,-0.08378852954607194,0.09266020083523982,8.005078125,-3.3358321606790815,1.0148661124255776,90.34862902009395,False,0.5,0.5,13,0.0254,0.0124,-0.298,-0.145,0.99,0.119,1.43,0.371,0.03333333333333333,0.01,0,0,0,-0.10829303413629532,0.017813777551054955,-20.05037498474121,-0.47306451201438904,-0.09229306876659393,0.14179661870002747
1576040637.0418856,716,384,78,78,1280,720,0.58984375,0.5875,12.307692307692308,90,90.42787287484444,0.0,-3.4132457381754175,0.08984375,0.0945978930538271,0.020077861961967078,-0.6923076923076916,1225,1280,720,3.0,90.0,50.625,-24.230769230769205,0.2837936791614813,8.0859375,0.060233585885901234,-24.230769230769205,0.2837936791614813,8.0859375,0.060233585885901234,-0.6154615384615378,-0.0845743465097677,0.08611700829846772,8.005078125,-3.4132457381754175,1.1244094333861825,90.42787287484444,False,0.5,0.5,13,0.0254,0.0124,-0.298,-0.145,0.99,0.119,1.43,0.371,0.03333333333333333,0.01,0,0,0,-0.10829303413629532,0.017813777551054955,-20.05037498474121,-0.47306451201438904,-0.09229306876659393,0.14179661870002747
1576040637.0566247,712,388,78,76,1280,720,0.58671875,0.5916666666666667,12.468584003187146,90,90.6277037193915,0.0,-3.4815851959159803,0.08671874999999996,0.09369323577101668,0.022894613414005338,-0.5314159968128536,1225,1280,720,3.0,90.0,50.625,-18.599559888449875,0.28107970731305004,7.8046874999999964,0.06868384024201601,-18.599559888449875,0.28107970731305004,7.8046874999999964,0.06868384024201601,-0.47173055120817925,-0.08375781752010868,0.0982492419897441,7.726305937499997,-3.4815851959159803,1.2390892700460487,90.6277037193915,False,0.5,0.5,13,0.0254,0.0124,-0.298,-0.145,0.99,0.119,1.43,0.371,0.03333333333333333,0.01,0,0,0,-0.10829303413629532,0.017813777551054955,-20.05037498474121,-0.47306451201438904,-0.09229306876659393,0.14179661870002747
1576040637.065855,712,388,78,76,1280,720,0.58671875,0.5916666666666667,12.468584003187146,90,90.6277037193915,0.0,-3.4815851959159803,0.08671874999999996,0.09369323577101668,0.022894613414005338,-0.5314159968128536,1225,1280,720,3.0,90.0,50.625,-18.599559888449875,0.28107970731305004,7.8046874999999964,0.06868384024201601,-18.599559888449875,0.28107970731305004,7.8046874999999964,0.06868384024201601,-0.47173055120817925,-0.08375781752010868,0.0982492419897441,7.726305937499997,-3.4815851959159803,1.2390892700460487,90.6277037193915,False,0.5,0.5,13,0.0254,0.0124,-0.298,-0.145,0.99,0.119,1.43,0.371,0.03333333333333333,0.01,0,0,0,-0.12580075860023499,0.01527158822864294,-20.04706382751465,-0.47554096579551697,-0.0936637818813324,0.169855996966362
1576040637.0773077,708,378,78,76,1280,720,0.58359375,0.5777777777777777,12.468584003187146,90,90.87322852948596,0.0,-3.4636999186874786,0.08671874999999996,0.09551712395238239,0.023233597388979538,-0.5314159968128536,1225,1280,720,3.0,90.0,50.625,-18.599559888449875,0.2865513718571472,7.8046874999999964,0.06970079216693861,-18.599559888449875,0.2865513718571472,7.8046874999999964,0.06970079216693861,-0.4724288211666268,-0.0854002427270188,0.09967590569036368,7.726640624999996,-3.4636999186874786,1.7829896133720347,90.87322852948596,False,0.5,0.5,13,0.0254,0.0124,-0.298,-0.145,0.99,0.119,1.43,0.371,0.03333333333333333,0.01,0,0,0,-0.12580075860023499,0.01527158822864294,-20.04706382751465,-0.47554096579551697,-0.0936637818813324,0.169855996966362
1576040637.095308,708,378,78,76,1280,720,0.58359375,0.5777777777777777,12.468584003187146,90,91.02554857816641,0.0,-3.4897863321184617,0.08359375000000002,0.09417351317891258,0.009102713211330563,-0.5314159968128536,1225,1280,720,3.0,90.0,50.625,-18.599559888449875,0.2825205395367377,7.523437500000002,0.027308139633991688,-18.599559888449875,0.2825205395367377,7.523437500000002,0.027308139633991688,-0.4724288211666268,-0.08419493670618428,0.03904778704936611,7.448203125000002,-3.4897863321184617,2.5130372642949035,91.02554857816641,False,0.5,0.5,13,0.0254,0.0124,-0.298,-0.145,0.99,0.119,1.43,0.371,0.03333333333333333,0.01,0,0,0,-0.12580075860023499,0.01527158822864294,-20.04706382751465,-0.47554096579551697,-0.0936637818813324,0.169855996966362
1576040637.1036882,708,378,78,76,1280,720,0.58359375,0.5777777777777777,12.468584003187146,90,91.02554857816641,0.0,-3.4897863321184617,0.08359375000000002,0.094988734201849,0.008843726772968602,-0.5314159968128536,1225,1280,720,3.0,90.0,50.625,-18.599559888449875,0.284966202605547,7.523437500000002,0.026531180318905806,-18.599559888449875,0.284966202605547,7.523437500000002,0.026531180318905806,-0.4724288211666268,-0.08492347458790277,0.03793670533697633,7.448203125000002,-3.4897863321184617,2.5130372642949035,91.02554857816641,False,0.5,0.5,13,0.0254,0.0124,-0.298,-0.145,0.99,0.119,1.43,0.371,0.03333333333333333,0.01,0,0,0,-0.1395302563905716,0.014571747742593288,-20.044666290283203,-0.4826148450374603,-0.0895078256726265,0.12213464826345444
1576040637.1124542,702,377,76,77,1280,720,0.578125,0.5770833333333333,12.54928765478405,90,91.13102035932975,0.0,-3.493380719169181,0.08359375000000002,0.094988734201849,0.008843726772968602,-0.5314159968128536,1225,1280,720,3.0,90.0,50.625,-18.599559888449875,0.284966202605547,7.523437500000002,0.026531180318905806,-18.599559888449875,0.284966202605547,7.523437500000002,0.026531180318905806,-0.4724288211666268,-0.08492347458790277,0.03793670533697633,7.448203125000002,-3.493380719169181,2.9302551008769013,91.13102035932975,False,0.5,0.5,13,0.0254,0.0124,-0.298,-0.145,0.99,0.119,1.43,0.371,0.03333333333333333,0.01,0,0,0,-0.1395302563905716,0.014571747742593288,-20.044666290283203,-0.4826148450374603,-0.0895078256726265,0.12213464826345444
1576040637.1249022,702,377,76,77,1280,720,0.578125,0.5770833333333333,12.54928765478405,90,91.20048338318878,0.0,-3.490818757900191,0.078125,0.0906918928814417,0.008078282090485264,-0.4507123452159494,1225,1280,720,3.0,90.0,50.625,-15.774932082558228,0.2720756786443251,7.03125,0.024234846271455793,-15.774932082558228,0.2720756786443251,7.03125,0.024234846271455793,-0.4003330210490484,-0.08105986097626511,0.03464731076886574,6.960351796875,-3.490818757900191,2.961294041786378,91.20048338318878,False,0.5,0.5,13,0.0254,0.0124,-0.298,-0.145,0.99,0.119,1.43,0.371,0.03333333333333333,0.01,0,0,0,-0.1395302563905716,0.014571747742593288,-20.044666290283203,-0.4826148450374603,-0.0895078256726265,0.12213464826345444
1576040637.1369689,702,377,76,77,1280,720,0.578125,0.5770833333333333,12.54928765478405,90,91.36709901780208,0.0,-3.4755131577438387,0.078125,0.09146370425765314,0.008128888732835682,-0.4507123452159494,1225,1280,720,3.0,90.0,50.625,-15.774932082558228,0.2743911127729594,7.03125,0.024386666198507045,-15.774932082558228,0.2743911127729594,7.03125,0.024386666198507045,-0.40068327489697897,-0.08177190898582842,0.03487349591579444,6.9609375,-3.4755131577438387,1.9464376410360265,91.36709901780208,False,0.5,0.5,13,0.0254,0.0124,-0.298,-0.145,0.99,0.119,1.43,0.371,0.03333333333333333,0.01,0,0,0,-0.15386947989463806,0.01380275096744299,-20.04452896118164,-0.4983510375022888,-0.0830061286687851,0.032989054918289185
1576040637.149627,692,368,78,76,1280,720,0.57109375,0.5638888888888889,12.468584003187146,90,91.49308185704295,0.0,-3.399161034333205,0.078125,0.09331498908668973,0.00843122157543029,-0.4507123452159494,1225,1280,720,3.0,90.0,50.625,-15.774932082558228,0.2799449672600692,7.03125,0.025293664726290868,-15.774932082558228,0.2799449672600692,7.03125,0.025293664726290868,-0.40068327489697897,-0.08343165333250692,0.03617330552313402,6.9609375,-3.399161034333205,0.7406689686082091,91.49308185704295,False,0.5,0.5,13,0.0254,0.0124,-0.298,-0.145,0.99,0.119,1.43,0.371,0.03333333333333333,0.01,0,0,0,-0.15386947989463806,0.01380275096744299,-20.04452896118164,-0.4983510375022888,-0.0830061286687851,0.032989054918289185
1576040637.16019,692,368,78,76,1280,720,0.57109375,0.5638888888888889,12.468584003187146,90,91.5514253329332,0.0,-3.334334428260145,0.07109374999999996,0.08833180925481336,-0.0019745072248917583,-0.5314159968128536,1225,1280,720,3.0,90.0,50.625,-18.599559888449875,0.2649954277644401,6.3984374999999964,-0.005923521674675275,-18.599559888449875,0.2649954277644401,6.3984374999999964,-0.005923521674675275,-0.4727790750145574,-0.07894696064153447,-0.008586451756333227,6.333700078124996,-3.334334428260145,0.37369419032381035,91.5514253329332,False,0.5,0.5,13,0.0254,0.0124,-0.298,-0.145,0.99,0.119,1.43,0.371,0.03333333333333333,0.01,0,0,0,-0.15386947989463806,0.01380275096744299,-20.04452896118164,-0.4983510375022888,-0.0830061286687851,0.032989054918289185
1576040637.1735046,692,368,78,76,1280,720,0.57109375,0.5638888888888889,12.468584003187146,90,91.60615563875251,0.0,-3.2779315798678255,0.07109374999999996,0.08893992376391675,-0.0008603768862780331,-0.5314159968128536,1225,1280,720,3.0,90.0,50.625,-18.599559888449875,0.2668197712917503,6.3984374999999964,-0.0025811306588340993,-18.599559888449875,0.2668197712917503,6.3984374999999964,-0.0025811306588340993,-0.4724288211666268,-0.07951493714305617,-0.003678616571463991,6.334453124999996,-3.2779315798678255,0.24578358355054192,91.60615563875251,False,0.5,0.5,13,0.0254,0.0124,-0.298,-0.145,0.99,0.119,1.43,0.371,0.03333333333333333,0.01,0,0,0,-0.1686270833015442,0.013032532297074795,-20.04708480834961,-0.49775272607803345,-0.07570624351501465,-0.054441433399915695
1576040637.1826677,686,372,76,76,1280,720,0.565625,0.5694444444444444,12.631578947368421,90,91.69090462597403,0.0,-3.230933688519203,0.06562500000000004,0.08441282917748924,0.005623532078633003,-0.36842105263157876,1225,1280,720,3.0,90.0,50.625,-12.894736842105257,0.2532384875324677,5.9062500000000036,0.01687059623589901,-12.894736842105257,0.2532384875324677,5.9062500000000036,0.01687059623589901,-0.3268189177317268,-0.07544537642322442,0.024197118524115043,5.846601796875003,-3.230933688519203,0.42317586929193796,91.69090462597403,False,0.5,0.5,13,0.0254,0.0124,-0.298,-0.145,0.99,0.119,1.43,0.371,0.03333333333333333,0.01,0,0,0,-0.1686270833015442,0.013032532297074795,-20.04708480834961,-0.49775272607803345,-0.07570624351501465,-0.054441433399915695
1576040637.1951373,686,372,76,76,1280,720,0.565625,0.5694444444444444,12.631578947368421,90,91.82741278672592,0.0,-3.211780343982606,0.06562500000000004,0.08592958651917688,0.006001869748491706,-0.36842105263157876,1225,1280,720,3.0,90.0,50.625,-12.894736842105257,0.25778875955753067,5.9062500000000036,0.018005609245475118,-12.894736842105257,0.25778875955753067,5.9062500000000036,0.018005609245475118,-0.3275263157894735,-0.07682764824258048,0.025752232119294945,5.847187500000003,-3.211780343982606,0.5464636919771506,91.82741278672592,False,0.5,0.5,13,0.0254,0.0124,-0.298,-0.145,0.99,0.119,1.43,0.371,0.03333333333333333,0.01,0,0,0,-0.1686270833015442,0.013032532297074795,-20.04708480834961,-0.49775272607803345,-0.07570624351501465,-0.054441433399915695
1576040637.2081778,686,372,76,76,1280,720,0.565625,0.5694444444444444,12.631578947368421,90,91.88151471514158,0.0,-3.1908968271518803,0.06562500000000004,0.08592958651917688,0.006001869748491706,-0.36842105263157876,1225,1280,720,3.0,90.0,50.625,-12.894736842105257,0.25778875955753067,5.9062500000000036,0.018005609245475118,-12.894736842105257,0.25778875955753067,5.9062500000000036,0.018005609245475118,-0.3275263157894735,-0.07682105034814414,0.025748021221029416,5.847187500000003,-3.1908968271518803,0.23479951878725072,91.88151471514158,False,0.5,0.5,13,0.0254,0.0124,-0.298,-0.145,0.99,0.119,1.43,0.371,0.03333333333333333,0.01,0,0,0,-0.18342694640159607,0.012216676957905293,-20.05143165588379,-0.4954211711883545,-0.07350391894578934,-0.08763983845710754
1576040637.2236629,676,374,76,76,1280,720,0.5578125,0.5722222222222222,12.631578947368421,90,91.96747264584619,0.0,-3.113763714298338,0.057812500000000044,0.07967330717606878,0.010715778482995764,-0.36842105263157876,1225,1280,720,3.0,90.0,50.625,-12.894736842105257,0.23901992152820634,5.2031250000000036,0.03214733544898729,-12.894736842105257,0.23901992152820634,5.2031250000000036,0.03214733544898729,-0.3275263157894735,-0.07120072180026296,0.04602315549626685,5.150257031250004,-3.113763714298338,-0.5766944294087444,91.96747264584619,False,0.5,0.5,13,0.0254,0.0124,-0.298,-0.145,0.99,0.119,1.43,0.371,0.03333333333333333,0.01,0,0,0,-0.18342694640159607,0.012216676957905293,-20.05143165588379,-0.4954211711883545,-0.07350391894578934,-0.08763983845710754
1576040637.2333376,676,374,76,76,1280,720,0.5578125,0.5722222222222222,12.631578947368421,90,92.02470280090172,0.0,-3.0341390765016216,0.057812500000000044,0.07967330717606878,0.010715778482995764,-0.36842105263157876,1225,1280,720,3.0,90.0,50.625,-12.894736842105257,0.23901992152820634,5.2031250000000036,0.03214733544898729,-12.894736842105257,0.23901992152820634,5.2031250000000036,0.03214733544898729,-0.3275263157894735,-0.07120072180026296,0.04602315549626685,5.150257031250004,-3.0341390765016216,-1.186779305792154,92.02470280090172,False,0.5,0.5,13,0.0254,0.0124,-0.298,-0.145,0.99,0.119,1.43,0.371,0.03333333333333333,0.01,0,0,0,-0.19831599295139313,0.011245407164096832,-20.056194305419922,-0.4912875294685364,-0.07440556585788727,-0.07587750256061554
1576040637.2494454,676,374,76,76,1280,720,0.5578125,0.5722222222222222,12.631578947368421,90,92.18594990682739,0.0,-2.779825307049248,0.057812500000000044,0.08090926785187809,0.014090802624871397,-0.36842105263157876,1225,1280,720,3.0,90.0,50.625,-12.894736842105257,0.24272780355563428,5.2031250000000036,0.04227240787461419,-12.894736842105257,0.24272780355563428,5.2031250000000036,0.04227240787461419,-0.3275263157894735,-0.07233826188851879,0.060487107279397365,5.151093750000004,-2.779825307049248,-2.590237184936265,92.18594990682739,False,0.5,0.5,13,0.0254,0.0124,-0.298,-0.145,0.99,0.119,1.43,0.371,0.03333333333333333,0.01,0,0,0,-0.19831599295139313,0.011245407164096832,-20.056194305419922,-0.4912875294685364,-0.07440556585788727,-0.07587750256061554
1576040637.2617426,668,376,76,76,1280,720,0.5515625,0.575,12.631578947368421,90,92.2405436088633,0.0,-2.744751431887586,0.051562499999999956,0.07585083229808205,0.0200898704780395,-0.36842105263157876,1225,1280,720,3.0,90.0,50.625,-12.894736842105257,0.22755249689424617,4.6406249999999964,0.0602696114341185,-12.894736842105257,0.22755249689424617,4.6406249999999964,0.0602696114341185,-0.3275263157894735,-0.06778863987982633,0.08625231397599521,4.593549374999996,-2.744751431887586,-2.92808758303248,92.2405436088633,False,0.5,0.5,13,0.0254,0.0124,-0.298,-0.145,0.99,0.119,1.43,0.371,0.03333333333333333,0.01,0,0,0,-0.19831599295139313,0.011245407164096832,-20.056194305419922,-0.4912875294685364,-0.07440556585788727,-0.07587750256061554
1576040637.2751114,668,376,76,76,1280,720,0.5515625,0.575,12.631578947368421,90,92.37806946780151,0.0,-2.878802858972372,0.051562499999999956,0.07645742898737001,0.02078268776518344,-0.36842105263157876,1225,1280,720,3.0,90.0,50.625,-12.894736842105257,0.22937228696211004,4.6406249999999964,0.062348063295550316,-12.894736842105257,0.22937228696211004,4.6406249999999964,0.062348063295550316,-0.3275263157894735,-0.06835558021030719,0.08916544156904287,4.594218749999996,-2.878802858972372,-3.803973112948344,92.37806946780151,False,0.5,0.5,13,0.0254,0.0124,-0.298,-0.145,0.99,0.119,1.43,0.371,0.03333333333333333,0.01,0,0,0,-0.21301983296871185,0.010038714855909348,-20.05951690673828,-0.4779284596443176,-0.07858865708112717,-0.00590538838878274
1576040637.2880404,664,378,76,76,1280,720,0.5484375,0.5777777777777777,12.631578947368421,90,92.4631667946707,0.0,-3.0726837549787076,0.051562499999999956,0.0779854940866834,0.01813475834128643,-0.36842105263157876,1225,1280,720,3.0,90.0,50.625,-12.894736842105257,0.2339564822600502,4.6406249999999964,0.05440427502385929,-12.894736842105257,0.2339564822600502,4.6406249999999964,0.05440427502385929,-0.3275263157894735,-0.06972567879667697,0.07776864182963081,4.594218749999996,-3.0726837549787076,-4.427530964356427,92.4631667946707,False,0.5,0.5,13,0.0254,0.0124,-0.298,-0.145,0.99,0.119,1.43,0.371,0.03333333333333333,0.01,0,0,0,-0.21301983296871185,0.010038714855909348,-20.05951690673828,-0.4779284596443176,-0.07858865708112717,-0.00590538838878274
1576040637.2984822,664,378,76,76,1280,720,0.5484375,0.5777777777777777,12.631578947368421,90,92.4908837023226,0.0,-3.1345953643800537,0.04843750000000002,0.07580601994078556,0.017082790025111892,-0.36842105263157876,1225,1280,720,3.0,90.0,50.625,-12.894736842105257,0.2274180598223567,4.359375000000002,0.05124837007533568,-12.894736842105257,0.2274180598223567,4.359375000000002,0.05124837007533568,-0.3275263157894735,-0.06776110111452763,0.07327346080037099,4.315446562500002,-3.1345953643800537,-4.641861873624604,92.4908837023226,False,0.5,0.5,13,0.0254,0.0124,-0.298,-0.145,0.99,0.119,1.43,0.371,0.03333333333333333,0.01,0,0,0,-0.2268717736005783,0.010067032650113106,-20.060293197631836,-0.45934051275253296,-0.08423560112714767,0.07953937351703644
1576040637.3074298,664,378,76,76,1280,720,0.5484375,0.5777777777777777,12.631578947368421,90,92.58339178444126,0.0,-3.2804929008065806,0.04843750000000002,0.07611398558136231,0.015859844654221106,-0.36842105263157876,1225,1280,720,3.0,90.0,50.625,-12.894736842105257,0.22834195674408694,4.359375000000002,0.04757953396266332,-12.894736842105257,0.22834195674408694,4.359375000000002,0.04757953396266332,-0.3275263157894735,-0.0680472427602744,0.06802512218463053,4.3157812500000015,-3.2804929008065806,-5.395930552806467,92.58339178444126,False,0.5,0.5,13,0.0254,0.0124,-0.298,-0.145,0.99,0.119,1.43,0.371,0.03333333333333333,0.01,0,0,0,-0.2268717736005783,0.010067032650113106,-20.060293197631836,-0.45934051275253296,-0.08423560112714767,0.07953937351703644
1576040637.3256502,654,376,76,76,1280,720,0.540625,0.575,12.631578947368421,90,92.64759556263938,0.0,-3.2142407061876916,0.04062500000000002,0.07004272847377092,0.011508825556786298,-0.36842105263157876,1225,1280,720,3.0,90.0,50.625,-12.894736842105257,0.21012818542131279,3.6562500000000018,0.034526476670358894,-12.894736842105257,0.21012818542131279,3.6562500000000018,0.034526476670358894,-0.3275263157894735,-0.06261992779429176,0.04938671839627553,3.6196875000000017,-3.2142407061876916,-5.810528584954942,92.64759556263938,False,0.5,0.5,13,0.0254,0.0124,-0.298,-0.145,0.99,0.119,1.43,0.371,0.03333333333333333,0.01,0,0,0,-0.2268717736005783,0.010067032650113106,-20.060293197631836,-0.45934051275253296,-0.08423560112714767,0.07953937351703644
1576040637.333722,654,376,76,76,1280,720,0.540625,0.575,12.631578947368421,90,92.64759556263938,0.0,-3.2142407061876916,0.04062500000000002,0.07004272847377092,0.011508825556786298,-0.36842105263157876,1225,1280,720,3.0,90.0,50.625,-12.894736842105257,0.21012818542131279,3.6562500000000018,0.034526476670358894,-12.894736842105257,0.21012818542131279,3.6562500000000018,0.034526476670358894,-0.3275263157894735,-0.06261992779429176,0.04938671839627553,3.6196875000000017,-3.2142407061876916,-5.810528584954942,92.64759556263938,False,0.5,0.5,13,0.0254,0.0124,-0.298,-0.145,0.99,0.119,1.43,0.371,0.03333333333333333,0.01,0,0,0,-0.24014250934123993,0.00968451239168644,-20.058639526367188,-0.432371586561203,-0.08686588704586029,0.1428469568490982
1576040637.3403833,654,376,76,76,1280,720,0.540625,0.575,12.631578947368421,90,92.67128265868098,0.0,-3.1741792988280393,0.04062500000000002,0.07030591842978869,0.012300161998458445,-0.36842105263157876,1225,1280,720,3.0,90.0,50.625,-12.894736842105257,0.21091775528936607,3.6562500000000018,0.036900485995375334,-12.894736842105257,0.21091775528936607,3.6562500000000018,0.036900485995375334,-0.3275263157894735,-0.06285463595253976,0.05277650254798254,3.6196875000000017,-3.1741792988280393,-5.775645528203217,92.67128265868098,False,0.5,0.5,13,0.0254,0.0124,-0.298,-0.145,0.99,0.119,1.43,0.371,0.03333333333333333,0.01,0,0,0,-0.24014250934123993,0.00968451239168644,-20.058639526367188,-0.432371586561203,-0.08686588704586029,0.1428469568490982
1576040637.3594584,650,380,76,76,1280,720,0.5375,0.5805555555555556,12.631578947368421,90,92.73868979559984,0.0,-3.238430674906938,0.03749999999999998,0.06744023794527687,0.017987363126016842,-0.36842105263157876,1225,1280,720,3.0,90.0,50.625,-12.894736842105257,0.2023207138358306,3.3749999999999982,0.053962089378050526,-12.894736842105257,0.2023207138358306,3.3749999999999982,0.053962089378050526,-0.3275263157894735,-0.060279107012969894,0.07722908635916197,3.340915312499998,-3.238430674906938,-5.360398201196769,92.73868979559984,False,0.5,0.5,13,0.0254,0.0124,-0.298,-0.145,0.99,0.119,1.43,0.371,0.03333333333333333,0.01,0,0,0,-0.24014250934123993,0.00968451239168644,-20.058639526367188,-0.432371586561203,-0.08686588704586029,0.1428469568490982
1576040637.3632963,650,380,76,76,1280,720,0.5375,0.5805555555555556,12.631578947368421,90,92.73868979559984,0.0,-3.238430674906938,0.03749999999999998,0.06792988661777596,0.016586554569739537,-0.36842105263157876,1225,1280,720,3.0,90.0,50.625,-12.894736842105257,0.2037896598533279,3.3749999999999982,0.04975966370921861,-12.894736842105257,0.2037896598533279,3.3749999999999982,0.04975966370921861,-0.3275263157894735,-0.06073144860801708,0.07114072810495124,3.3412499999999983,-3.238430674906938,-5.360398201196769,92.73868979559984,False,0.5,0.5,13,0.0254,0.0124,-0.298,-0.145,0.99,0.119,1.43,0.371,0.03333333333333333,0.01,0,0,0,-0.24014250934123993,0.00968451239168644,-20.058639526367188,-0.432371586561203,-0.08686588704586029,0.1428469568490982
1576040637.3732605,650,380,76,76,1280,720,0.5375,0.5805555555555556,12.631578947368421,90,92.82796719824108,0.0,-3.448580014299186,0.03749999999999998,0.0683061541500529,0.014828299446898244,-0.36842105263157876,1225,1280,720,3.0,90.0,50.625,-12.894736842105257,0.20491846245015868,3.3749999999999982,0.04448489834069473,-12.894736842105257,0.20491846245015868,3.3749999999999982,0.04448489834069473,-0.3275263157894735,-0.06106733857391269,0.06359383524767624,3.3412499999999983,-3.448580014299186,-4.994411052258098,92.82796719824108,False,0.5,0.5,13,0.0254,0.0124,-0.298,-0.145,0.99,0.119,1.43,0.371,0.03333333333333333,0.01,0,0,0,-0.2554687261581421,0.008833581581711769,-20.05543327331543,-0.3871716260910034,-0.08467616885900497,0.13044553995132446
1576040637.3889837,645,376,75,76,1280,720,0.533203125,0.575,12.71551062782442,90,92.8668651255643,0.0,-3.4805790236738727,0.033203125,0.06462498275823425,0.006879900952114798,-0.2844893721755799,1225,1280,720,3.0,90.0,50.625,-9.957128026145297,0.19387494827470275,2.98828125,0.020639702856344394,-9.957128026145297,0.19387494827470275,2.98828125,0.020639702856344394,-0.2525467883709115,-0.057758721490307,0.02942630940932554,2.9579382421875002,-3.4805790236738727,-4.940883286619531,92.8668651255643,False,0.5,0.5,13,0.0254,0.0124,-0.298,-0.145,0.99,0.119,1.43,0.371,0.03333333333333333,0.01,0,0,0,-0.2554687261581421,0.008833581581711769,-20.05543327331543,-0.3871716260910034,-0.08467616885900497,0.13044553995132446
