time,x_bb,y_bb,w_bb,h_bb,w_im,h_im,f_u,f_v,f_delta,psi_telem_ref,psi_telem,theta_centroid_ref,theta_centroid,delta_f_u_psi,delta_f_u_y,delta_f_v_z,delta_f_delta_x,A_exp,alpha_u,alpha_v,d_exp,FOV_u,FOV_v,delta_x_tme,delta_y_tme,delta_psi_tme,delta_z_tme,prev_delta_x_tme,prev_delta_y_tme,prev_delta_psi_tme,prev_delta_z_tme,v_xr,v_yr,v_zr,yawrate,pitch_angle,roll_angle,yaw_angle,f_u_ref,f_v_ref,f_delta_ref,kp_vx,kd_vx,kp_vy,kd_vy,kp_yaw,kd_yaw,kp_vz,kd_vz,camera_period,controller_period,local_x,local_y,local_z,local_vx,local_vy,local_vz,body_vx,body_vy,body_vz,body_yawrate
1579735830.8523483,315,214,5,5,1280,720,0.248046875,0.30069444444444443,192.0,90,86.93044035939357,0.0,-1.3185074013420777,-0.251953125,-0.251953125,-0.2253501461993497,175.0,1225,214,214,1,90.0,50.625,1365.3645833333335,-1.5070093457943925,-22.67578125,-0.758187407773513,1365.3645833333335,-1.5070093457943925,-22.67578125,-0.758187407773513,34.68026041666667,-0.44908878504672894,-0.5534764348605978,-45.1248046875,-1.3185074013420777,-1.1129120905789354,86.93044035939357,0.5,0.5,17,0.0254,1.24e-05,0.298,1.45e-05,1.99,1.19e-05,0.73,1.71e-05,0.03333333333333333,0.01,-0.0072488063015043736,0.018722238019108772,-10.042594909667969,0.000634996045846492,-0.019249163568019867,0.043427906930446625,-0.01818063165424628,-0.002516552293471203,0.043818354779852256,0.003888768870957421
1579735830.8714342,315,214,5,5,1280,720,0.248046875,0.30069444444444443,192.0,90,86.93087066131127,0.0,-1.3184991837707325,-0.251953125,-0.251953125,-0.22534998387695276,175.0,1225,214,214,1,90.0,50.625,1365.3645833333335,-1.5070093457943925,-22.67578125,-0.758186861642084,1365.3645833333335,-1.5070093457943925,-22.67578125,-0.758186861642084,34.68026041666667,-0.44908878504672894,-0.5534764080648366,-45.1248046875,-1.3184991837707325,-1.1131378069866633,86.93087066131127,0.5,0.5,17,0.0254,1.24e-05,0.298,1.45e-05,1.99,1.19e-05,0.73,1.71e-05,0.03333333333333333,0.01,-0.0072995200753211975,0.018914613872766495,-10.042420387268066,0.0001764803018886596,-0.018698526546359062,0.04374869540333748,-0.017650818314780842,-0.0020356723473481573,0.04413523581797983,0.030254319593518174
1579735830.8853889,315,214,5,5,1280,720,0.248046875,0.30069444444444443,192.0,90,86.93306315203485,0.0,-1.312220639097904,-0.251953125,-0.251953125,-0.22529190618817688,175.0,1225,214,214,1,90.0,50.625,1365.3645833333335,-1.5070093457943925,-22.67578125,-0.7579914600723708,1365.3645833333335,-1.5070093457943925,-22.67578125,-0.7579914600723708,34.68026041666667,-0.44908878504672894,-0.5533334317161465,-45.1248046875,-1.312220639097904,-1.1134688577179972,86.93306315203485,0.5,0.5,17,0.0254,1.24e-05,0.298,1.45e-05,1.99,1.19e-05,0.73,1.71e-05,0.03333333333333333,0.01,-0.0072995200753211975,0.018914613872766495,-10.042420387268066,0.0001764803018886596,-0.018698526546359062,0.04374869540333748,-0.017650818314780842,-0.0020356723473481573,0.04413523581797983,0.07438788373529977
1579735830.8927138,315,214,5,5,1280,720,0.248046875,0.30069444444444443,192.0,90,86.93306315203485,0.0,-1.312220639097904,-0.251953125,-0.251953125,-0.2252259632414401,175.0,1225,214,214,1,90.0,50.625,1365.3645833333335,-1.5070093457943925,-22.67578125,-0.7577695959525087,1365.3645833333335,-1.5070093457943925,-22.67578125,-0.7577695959525087,34.68026041666667,-0.44908878504672894,-0.5531714256576864,-45.1248046875,-1.312220639097904,-1.1134688577179972,86.93306315203485,0.5,0.5,17,0.0254,1.24e-05,0.298,1.45e-05,1.99,1.19e-05,0.73,1.71e-05,0.03333333333333333,0.01,-0.007361957803368568,0.019047871232032776,-10.042220115661621,-4.724298196379095e-05,-0.018464626744389534,0.04339947551488876,-0.0174419988975036,-0.0017918967693920074,0.043783843231307656,0.07438788373529977
1579735830.9030724,315,214,5,5,1280,720,0.248046875,0.30069444444444443,192.0,90,86.93059745374448,0.0,-1.3169112715104103,-0.251953125,-0.251953125,-0.22531861770884762,175.0,1225,214,214,1,90.0,50.625,1365.3645833333335,-1.5070093457943925,-22.67578125,-0.7580813306092069,1365.3645833333335,-1.5070093457943925,-22.67578125,-0.7580813306092069,34.68026041666667,-0.44908878504672894,-0.553399904410984,-45.1248046875,-1.3169112715104103,-1.1169554558458772,86.93059745374448,0.5,0.5,17,0.0254,1.24e-05,0.298,1.45e-05,1.99,1.19e-05,0.73,1.71e-05,0.03333333333333333,0.01,-0.007361957803368568,0.019047871232032776,-10.042220115661621,-4.724298196379095e-05,-0.018464626744389534,0.04339947551488876,-0.0174419988975036,-0.0017918967693920074,0.043783843231307656,-0.49168077235688823
1579735830.9152172,315,214,5,5,1280,720,0.248046875,0.30069444444444443,192.0,90,86.92818639696746,0.0,-1.3398982731620883,-0.251953125,-0.251953125,-0.22531861770884762,175.0,1225,214,214,1,90.0,50.625,1365.3645833333335,-1.5070093457943925,-22.67578125,-0.7580813306092069,1365.3645833333335,-1.5070093457943925,-22.67578125,-0.7580813306092069,34.68026041666667,-0.44908878504672894,-0.553399904410984,-45.1248046875,-1.3398982731620883,-1.124723728809709,86.92818639696746,0.5,0.5,17,0.0254,1.24e-05,0.298,1.45e-05,1.99,1.19e-05,0.73,1.71e-05,0.03333333333333333,0.01,-0.007361957803368568,0.019047871232032776,-10.042220115661621,-4.724298196379095e-05,-0.018464626744389534,0.04339947551488876,-0.0174419988975036,-0.0017918967693920074,0.043783843231307656,-0.7443163429858487
1579735830.9312913,315,214,5,5,1280,720,0.248046875,0.30069444444444443,192.0,90,86.86931699651112,0.0,-1.9771525748467507,-0.251953125,-0.251953125,-0.23085462305654297,175.0,1225,214,214,1,90.0,50.625,1365.3645833333335,-1.5070093457943925,-22.67578125,-0.7767071429939764,1365.3645833333335,-1.5070093457943925,-22.67578125,-0.7767071429939764,34.68026041666667,-0.44908878504672894,-0.5670254521702005,-45.1248046875,-1.9771525748467507,-1.3499641577296888,86.86931699651112,0.5,0.5,17,0.0254,1.24e-05,0.298,1.45e-05,1.99,1.19e-05,0.73,1.71e-05,0.03333333333333333,0.01,-0.0074071129783988,0.01908426731824875,-10.042591094970703,0.00040491329855285585,-0.016832491382956505,0.010226179845631123,-0.016422450236638533,-0.0015776434289270832,0.01076501948944526,-6.0707878206364
1579735830.9446568,315,214,5,5,1280,720,0.248046875,0.30069444444444443,192.0,90,86.7117035512239,0.0,-3.700954650357511,-0.251953125,-0.251953125,-0.25638024791648384,175.0,1225,214,214,1,90.0,50.625,1365.3645833333335,-1.5070093457943925,-22.67578125,-0.8625877499993848,1365.3645833333335,-1.5070093457943925,-22.67578125,-0.8625877499993848,34.68026041666667,-0.44908878504672894,-0.6298359133375302,-45.1248046875,-3.700954650357511,-1.8707420695593602,86.7117035512239,0.5,0.5,17,0.0254,1.24e-05,0.298,1.45e-05,1.99,1.19e-05,0.73,1.71e-05,0.03333333333333333,0.01,-0.0074071129783988,0.01908426731824875,-10.042591094970703,0.00040491329855285585,-0.016832491382956505,0.010226179845631123,-0.016422450236638533,-0.0015776434289270832,0.01076501948944526,-13.28183901093964
1579735830.9557498,315,214,5,5,1280,720,0.248046875,0.30069444444444443,192.0,90,86.56403486136823,0.0,-5.155674379883037,-0.251953125,-0.251953125,-0.27241083259965454,175.0,1225,214,214,1,90.0,50.625,1365.3645833333335,-1.5070093457943925,-22.67578125,-0.91652242743809,1365.3645833333335,-1.5070093457943925,-22.67578125,-0.91652242743809,34.68026041666667,-0.44908878504672894,-0.6691536003282258,-45.1248046875,-5.155674379883037,-2.141223963994212,86.56403486136823,0.5,0.5,17,0.0254,1.24e-05,0.298,1.45e-05,1.99,1.19e-05,0.73,1.71e-05,0.03333333333333333,0.01,-0.0074071129783988,0.01908426731824875,-10.042591094970703,0.00040491329855285585,-0.016832491382956505,0.010226179845631123,-0.016422450236638533,-0.0015776434289270832,0.01076501948944526,-18.1449832188602
1579735830.9666252,315,214,5,5,1280,720,0.248046875,0.30069444444444443,192.0,90,86.37177869661072,0.0,-6.7867692305721565,-0.251953125,-0.251953125,-0.3011460371334921,175.0,1225,214,214,1,90.0,50.625,1365.3645833333335,-1.5070093457943925,-22.67578125,-1.0132016202622163,1365.3645833333335,-1.5070093457943925,-22.67578125,-1.0132016202622163,34.68026041666667,-0.44908878504672894,-0.7398025042111471,-45.1248046875,-6.7867692305721565,-2.2727994475048683,86.37177869661072,0.5,0.5,17,0.0254,1.24e-05,0.298,1.45e-05,1.99,1.19e-05,0.73,1.71e-05,0.03333333333333333,0.01,-0.007313315756618977,0.019336441531777382,-10.046333312988281,0.010134312324225903,0.006397247780114412,-0.17995452880859375,-0.009206258657689016,-0.0030060272020463567,-0.18009294851869245,-22.69371674381215
1579735830.9754496,315,214,5,5,1280,720,0.248046875,0.30069444444444443,192.0,90,86.37177869661072,0.0,-6.7867692305721565,-0.251953125,-0.251953125,-0.33336519467796855,175.0,1225,214,214,1,90.0,50.625,1365.3645833333335,-1.5070093457943925,-22.67578125,-1.1216025241501746,1365.3645833333335,-1.5070093457943925,-22.67578125,-1.1216025241501746,34.68026041666667,-0.44908878504672894,-0.8189552081752758,-45.1248046875,-6.7867692305721565,-2.2727994475048683,86.37177869661072,0.5,0.5,17,0.0254,1.24e-05,0.298,1.45e-05,1.99,1.19e-05,0.73,1.71e-05,0.03333333333333333,0.01,-0.007313315756618977,0.019336441531777382,-10.046333312988281,0.010134312324225903,0.006397247780114412,-0.17995452880859375,-0.009206258657689016,-0.0030060272020463567,-0.18009294851869245,-22.69371674381215
1579735830.9854867,315,214,5,5,1280,720,0.248046875,0.30069444444444443,192.0,90,85.94769225104463,0.0,-9.698155720423486,-0.251953125,-0.251953125,-0.39087406361330346,175.0,1225,214,214,1,90.0,50.625,1365.3645833333335,-1.5070093457943925,-22.67578125,-1.3150903074840117,1365.3645833333335,-1.5070093457943925,-22.67578125,-1.3150903074840117,34.68026041666667,-0.44908878504672894,-0.9603467885728294,-45.1248046875,-9.698155720423486,-2.2030220215006064,85.94769225104463,0.5,0.5,17,0.0254,1.24e-05,0.298,1.45e-05,1.99,1.19e-05,0.73,1.71e-05,0.03333333333333333,0.01,-0.007313315756618977,0.019336441531777382,-10.046333312988281,0.010134312324225903,0.006397247780114412,-0.17995452880859375,-0.009206258657689016,-0.0030060272020463567,-0.18009294851869245,-29.164340850253335
1579735830.9973452,315,214,5,5,1280,720,0.248046875,0.30069444444444443,192.0,90,85.63764264386106,0.0,-11.558626679575028,-0.251953125,-0.251953125,-0.39087406361330346,175.0,1225,214,214,1,90.0,50.625,1365.3645833333335,-1.5070093457943925,-22.67578125,-1.3150903074840117,1365.3645833333335,-1.5070093457943925,-22.67578125,-1.3150903074840117,34.68026041666667,-0.44908878504672894,-0.9600159244633285,-45.1248046875,-11.558626679575028,-2.0794528003576747,85.63764264386106,0.5,0.5,17,0.0254,1.24e-05,0.298,1.45e-05,1.99,1.19e-05,0.73,1.71e-05,0.03333333333333333,0.01,-0.006687752436846495,0.021135790273547173,-10.059318542480469,0.031061824411153793,0.08487444370985031,-0.5061901807785034,0.0003444085612326758,-0.005225279943074975,-0.5141688293543661,-32.02700973518908
1579735831.006221,315,214,5,5,1280,720,0.248046875,0.30069444444444443,192.0,90,85.41267670316836,0.0,-12.852031428170017,-0.251953125,-0.251953125,-0.4531728430255806,175.0,1225,214,214,1,90.0,50.625,1365.3645833333335,-1.5070093457943925,-22.67578125,-1.524693677469243,1365.3645833333335,-1.5070093457943925,-22.67578125,-1.524693677469243,34.68026041666667,-0.44908878504672894,-1.113384806315222,-45.1248046875,-12.852031428170017,-1.9866887995885578,85.41267670316836,0.5,0.5,17,0.0254,1.24e-05,0.298,1.45e-05,1.99,1.19e-05,0.73,1.71e-05,0.03333333333333333,0.01,-0.006687752436846495,0.021135790273547173,-10.059318542480469,0.031061824411153793,0.08487444370985031,-0.5061901807785034,0.0003444085612326758,-0.005225279943074975,-0.5141688293543661,-33.76497527516092
1579735831.0234797,315,214,5,5,1280,720,0.248046875,0.30069444444444443,192.0,90,85.0451373937408,0.0,-14.864668756745688,-0.251953125,-0.251953125,-0.4929286421085568,175.0,1225,214,214,1,90.0,50.625,1365.3645833333335,-1.5070093457943925,-22.67578125,-1.6584515061596303,1365.3645833333335,-1.5070093457943925,-22.67578125,-1.6584515061596303,34.68026041666667,-0.44908878504672894,-1.2108983253835908,-45.1248046875,-14.864668756745688,-1.8517428311659119,85.0451373937408,0.5,0.5,17,0.0254,1.24e-05,0.298,1.45e-05,1.99,1.19e-05,0.73,1.71e-05,0.03333333333333333,0.01,-0.006687752436846495,0.021135790273547173,-10.059318542480469,0.031061824411153793,0.08487444370985031,-0.5061901807785034,0.0003444085612326758,-0.005225279943074975,-0.5141688293543661,-36.0123841347565
1579735831.0311258,315,214,5,5,1280,720,0.248046875,0.30069444444444443,192.0,90,84.78538529960521,0.0,-16.252855186679298,-0.251953125,-0.251953125,-0.520349608625764,175.0,1225,214,214,1,90.0,50.625,1365.3645833333335,-1.5070093457943925,-22.67578125,-1.7507089636007012,1365.3645833333335,-1.5070093457943925,-22.67578125,-1.7507089636007012,34.68026041666667,-0.44908878504672894,-1.2781753036807362,-45.1248046875,-16.252855186679298,-1.7731512594811603,84.78538529960521,0.5,0.5,17,0.0254,1.24e-05,0.298,1.45e-05,1.99,1.19e-05,0.73,1.71e-05,0.03333333333333333,0.01,-0.004788506776094437,0.028735581785440445,-10.090574264526367,0.06121449917554855,0.26300719380378723,-0.9119924306869507,0.0015469915014767466,-0.007631693382654521,-0.9510991307984442,-36.9144198976834
1579735831.0471816,315,214,5,5,1280,720,0.248046875,0.30069444444444443,192.0,90,84.24089627935014,0.0,-19.04688579309829,-0.251953125,-0.251953125,-0.5618794186445002,175.0,1225,214,214,1,90.0,50.625,1365.3645833333335,-1.5070093457943925,-22.67578125,-1.890435427215141,1365.3645833333335,-1.5070093457943925,-22.67578125,-1.890435427215141,34.68026041666667,-0.44908878504672894,-1.3802567941198336,-45.1248046875,-19.04688579309829,-1.6062759709577028,84.24089627935014,0.5,0.5,17,0.0254,1.24e-05,0.298,1.45e-05,1.99,1.19e-05,0.73,1.71e-05,0.03333333333333333,0.01,-0.004788506776094437,0.028735581785440445,-10.090574264526367,0.06121449917554855,0.26300719380378723,-0.9119924306869507,0.0015469915014767466,-0.007631693382654521,-0.9510991307984442,-38.087747359348626
1579735831.057165,315,214,5,5,1280,720,0.248046875,0.30069444444444443,192.0,90,83.66235193589337,0.0,-21.727716259308078,-0.251953125,-0.251953125,-0.5755403366537934,175.0,1225,214,214,1,90.0,50.625,1365.3645833333335,-1.5070093457943925,-22.67578125,-1.9363973943492117,1365.3645833333335,-1.5070093457943925,-22.67578125,-1.9363973943492117,34.68026041666667,-0.44908878504672894,-1.4136486928387237,-45.1248046875,-21.727716259308078,-1.4369432017152162,83.66235193589337,0.5,0.5,17,0.0254,1.24e-05,0.298,1.45e-05,1.99,1.19e-05,0.73,1.71e-05,0.03333333333333333,0.01,-0.004788506776094437,0.028735581785440445,-10.090574264526367,0.06121449917554855,0.26300719380378723,-0.9119924306869507,0.0015469915014767466,-0.007631693382654521,-0.9510991307984442,-38.38372336174738
1579735831.0684848,315,214,5,5,1280,720,0.248046875,0.30069444444444443,192.0,90,83.5144578497951,0.0,-22.376092456839046,-0.251953125,-0.251953125,-0.6284950125295423,175.0,1225,214,214,1,90.0,50.625,1365.3645833333335,-1.5070093457943925,-22.67578125,-2.114562658977899,1365.3645833333335,-1.5070093457943925,-22.67578125,-2.114562658977899,34.68026041666667,-0.44908878504672894,-1.5439354036563815,-45.1248046875,-22.376092456839046,-1.3936515417649713,83.5144578497951,0.5,0.5,17,0.0254,1.24e-05,0.298,1.45e-05,1.99,1.19e-05,0.73,1.71e-05,0.03333333333333333,0.01,-0.0022883221972733736,0.04124383255839348,-10.127676010131836,0.09203017503023148,0.48551228642463684,-1.2626368999481201,-0.00972408445473677,-0.0038741519356986116,-1.355851801497593,-38.25889482447622
1579735831.0782707,315,214,5,5,1280,720,0.248046875,0.30069444444444443,192.0,90,83.06437570424792,0.0,-24.274960178183463,-0.251953125,-0.251953125,-0.6413024435918824,175.0,1225,214,214,1,90.0,50.625,1365.3645833333335,-1.5070093457943925,-22.67578125,-2.1576530812437165,1365.3645833333335,-1.5070093457943925,-22.67578125,-2.1576530812437165,34.68026041666667,-0.44908878504672894,-1.5751604339299876,-45.1248046875,-24.274960178183463,-1.254426139662195,83.06437570424792,0.5,0.5,17,0.0254,1.24e-05,0.298,1.45e-05,1.99,1.19e-05,0.73,1.71e-05,0.03333333333333333,0.01,-0.0022883221972733736,0.04124383255839348,-10.127676010131836,0.09203017503023148,0.48551228642463684,-1.2626368999481201,-0.00972408445473677,-0.0038741519356986116,-1.355851801497593,-38.1045632850852
1579735831.0902908,315,214,5,5,1280,720,0.248046875,0.30069444444444443,192.0,90,82.5988436707982,0.0,-26.12928994349752,-0.251953125,-0.251953125,-0.6788109417912782,175.0,1225,214,214,1,90.0,50.625,1365.3645833333335,-1.5070093457943925,-22.67578125,-2.2838498976155153,1365.3645833333335,-1.5070093457943925,-22.67578125,-2.2838498976155153,34.68026041666667,-0.44908878504672894,-1.6674262218153217,-45.1248046875,-26.12928994349752,-1.1160134233489443,82.5988436707982,0.5,0.5,17,0.0254,1.24e-05,0.298,1.45e-05,1.99,1.19e-05,0.73,1.71e-05,0.03333333333333333,0.01,-0.0022883221972733736,0.04124383255839348,-10.127676010131836,0.09203017503023148,0.48551228642463684,-1.2626368999481201,-0.00972408445473677,-0.0038741519356986116,-1.355851801497593,-37.958605557616615
1579735831.101439,315,214,5,5,1280,720,0.248046875,0.30069444444444443,192.0,90,82.12566865566723,0.0,-27.924874959307584,-0.251953125,-0.251953125,-0.7154396778962473,175.0,1225,214,214,1,90.0,50.625,1365.3645833333335,-1.5070093457943925,-22.67578125,-2.407086766753729,1365.3645833333335,-1.5070093457943925,-22.67578125,-2.407086766753729,34.68026041666667,-0.44908878504672894,-1.7573840747764484,-45.1248046875,-27.924874959307584,-0.9808991547962811,82.12566865566723,0.5,0.5,17,0.0254,1.24e-05,0.298,1.45e-05,1.99,1.19e-05,0.73,1.71e-05,0.03333333333333333,0.01,0.00028729860787279904,0.055834293365478516,-10.162737846374512,0.1192811131477356,0.6931275129318237,-1.5181022882461548,-0.03766744993645177,0.0035775648525776284,-1.6726794836309915,-37.8399173604093
1579735831.1111898,315,214,5,5,1280,720,0.248046875,0.30069444444444443,192.0,90,81.96479721014592,0.0,-28.50795113327865,-0.251953125,-0.251953125,-0.7509080238875572,175.0,1225,214,214,1,90.0,50.625,1365.3645833333335,-1.5070093457943925,-22.67578125,-2.5264195196216876,1365.3645833333335,-1.5070093457943925,-22.67578125,-2.5264195196216876,34.68026041666667,-0.44908878504672894,-1.844490308331236,-45.1248046875,-28.50795113327865,-0.9360759316463666,81.96479721014592,0.5,0.5,17,0.0254,1.24e-05,0.298,1.45e-05,1.99,1.19e-05,0.73,1.71e-05,0.03333333333333333,0.01,0.00028729860787279904,0.055834293365478516,-10.162737846374512,0.1192811131477356,0.6931275129318237,-1.5181022882461548,-0.03766744993645177,0.0035775648525776284,-1.6726794836309915,-37.85664790878125
1579735831.1231303,315,214,5,5,1280,720,0.248046875,0.30069444444444443,192.0,90,81.47757249589223,0.0,-30.207201453487563,-0.251953125,-0.251953125,-0.7624255779413067,175.0,1225,214,214,1,90.0,50.625,1365.3645833333335,-1.5070093457943925,-22.67578125,-2.5651701687744897,1365.3645833333335,-1.5070093457943925,-22.67578125,-2.5651701687744897,34.68026041666667,-0.44908878504672894,-1.8726404868154287,-45.1248046875,-30.207201453487563,-0.8101446923502267,81.47757249589223,0.5,0.5,17,0.0254,1.24e-05,0.298,1.45e-05,1.99,1.19e-05,0.73,1.71e-05,0.03333333333333333,0.01,0.00028729860787279904,0.055834293365478516,-10.162737846374512,0.1192811131477356,0.6931275129318237,-1.5181022882461548,-0.03766744993645177,0.0035775648525776284,-1.6726794836309915,-37.499637335959264
1579735831.1357434,315,214,5,5,1280,720,0.248046875,0.30069444444444443,192.0,90,81.14865107603192,0.0,-31.292750739034368,-0.251953125,-0.251953125,-0.8174339652154936,175.0,1225,214,214,1,90.0,50.625,1365.3645833333335,-1.5070093457943925,-22.67578125,-2.750245116612876,1365.3645833333335,-1.5070093457943925,-22.67578125,-2.750245116612876,34.68026041666667,-0.44908878504672894,-2.0078023022237756,-45.1248046875,-31.292750739034368,-0.729807847249978,81.14865107603192,0.5,0.5,17,0.0254,1.24e-05,0.298,1.45e-05,1.99,1.19e-05,0.73,1.71e-05,0.03333333333333333,0.01,0.006087861955165863,0.09140372276306152,-10.232150077819824,0.1664174348115921,1.041962742805481,-1.8052637577056885,-0.03601306411022143,0.02252281439662194,-2.0905870316575443,-37.02974764181907
1579735831.1479259,315,214,5,5,1280,720,0.248046875,0.30069444444444443,192.0,90,80.31736924271718,0.0,-33.77907620070241,-0.251953125,-0.251953125,-0.866546566927455,175.0,1225,214,214,1,90.0,50.625,1365.3645833333335,-1.5070093457943925,-22.67578125,-2.9154837765783532,1365.3645833333335,-1.5070093457943925,-22.67578125,-2.9154837765783532,34.68026041666667,-0.44908878504672894,-2.128585715010739,-45.1248046875,-33.77907620070241,-0.5494001397117272,80.31736924271718,0.5,0.5,17,0.0254,1.24e-05,0.298,1.45e-05,1.99,1.19e-05,0.73,1.71e-05,0.03333333333333333,0.01,0.006087861955165863,0.09140372276306152,-10.232150077819824,0.1664174348115921,1.041962742805481,-1.8052637577056885,-0.03601306411022143,0.02252281439662194,-2.0905870316575443,-36.013500870685796
1579735831.1598022,315,214,5,5,1280,720,0.248046875,0.30069444444444443,192.0,90,79.81457852734503,0.0,-35.11063865486932,-0.251953125,-0.251953125,-0.8928490351579126,175.0,1225,214,214,1,90.0,50.625,1365.3645833333335,-1.5070093457943925,-22.67578125,-3.0039780622135375,1365.3645833333335,-1.5070093457943925,-22.67578125,-3.0039780622135375,34.68026041666667,-0.44908878504672894,-2.1930553106443185,-45.1248046875,-35.11063865486932,-0.4533367840475242,79.81457852734503,0.5,0.5,17,0.0254,1.24e-05,0.298,1.45e-05,1.99,1.19e-05,0.73,1.71e-05,0.03333333333333333,0.01,0.006087861955165863,0.09140372276306152,-10.232150077819824,0.1664174348115921,1.041962742805481,-1.8052637577056885,-0.03601306411022143,0.02252281439662194,-2.0905870316575443,-35.1437377515872
1579735831.176589,315,214,5,5,1280,720,0.248046875,0.30069444444444443,192.0,90,79.47911378625986,0.0,-35.92723216637395,-0.251953125,-0.251953125,-0.8928490351579126,175.0,1225,214,214,1,90.0,50.625,1365.3645833333335,-1.5070093457943925,-22.67578125,-3.0039780622135375,1365.3645833333335,-1.5070093457943925,-22.67578125,-3.0039780622135375,34.68026041666667,-0.44908878504672894,-2.1929039854158825,-45.1248046875,-35.92723216637395,-0.3962870420356109,79.47911378625986,0.5,0.5,17,0.0254,1.24e-05,0.298,1.45e-05,1.99,1.19e-05,0.73,1.71e-05,0.03333333333333333,0.01,0.012032297439873219,0.1292683184146881,-10.293462753295898,0.20169970393180847,1.2917892932891846,-1.904375433921814,-0.026052101467226363,0.04818494365098311,-2.3093392218039646,-34.59901308980576
1579735831.1948633,315,214,5,5,1280,720,0.248046875,0.30069444444444443,192.0,90,78.47660594064206,0.0,-38.02513501522712,-0.251953125,-0.251953125,-0.9310433855379654,175.0,1225,214,214,1,90.0,50.625,1365.3645833333335,-1.5070093457943925,-22.67578125,-3.132482418632407,1365.3645833333335,-1.5070093457943925,-22.67578125,-3.132482418632407,34.68026041666667,-0.44908878504672894,-2.286931908051133,-45.1248046875,-38.02513501522712,-0.274746520478305,78.47660594064206,0.5,0.5,17,0.0254,1.24e-05,0.298,1.45e-05,1.99,1.19e-05,0.73,1.71e-05,0.03333333333333333,0.01,0.012032297439873219,0.1292683184146881,-10.293462753295898,0.20169970393180847,1.2917892932891846,-1.904375433921814,-0.026052101467226363,0.04818494365098311,-2.3093392218039646,-33.34918750943639
1579735831.2040439,315,214,5,5,1280,720,0.248046875,0.30069444444444443,192.0,90,77.97813190482536,0.0,-38.887661548900084,-0.251953125,-0.251953125,-0.950419333634116,175.0,1225,214,214,1,90.0,50.625,1365.3645833333335,-1.5070093457943925,-22.67578125,-3.197672524376465,1365.3645833333335,-1.5070093457943925,-22.67578125,-3.197672524376465,34.68026041666667,-0.44908878504672894,-2.3344124178756416,-45.1248046875,-38.887661548900084,-0.237372552433215,77.97813190482536,0.5,0.5,17,0.0254,1.24e-05,0.298,1.45e-05,1.99,1.19e-05,0.73,1.71e-05,0.03333333333333333,0.01,0.01915864460170269,0.17501847445964813,-10.357208251953125,0.2417430728673935,1.5469225645065308,-1.9663941860198975,0.020740374515969773,0.08420232716097249,-2.5120897741994215,-32.27605550780067
1579735831.219109,315,214,5,5,1280,720,0.248046875,0.30069444444444443,192.0,90,77.81369510055731,0.0,-39.1482742468711,-0.251953125,-0.251953125,-0.9674568947930882,175.0,1225,214,214,1,90.0,50.625,1365.3645833333335,-1.5070093457943925,-22.67578125,-3.2549951600515117,1365.3645833333335,-1.5070093457943925,-22.67578125,-3.2549951600515117,34.68026041666667,-0.44908878504672894,-2.3762444885446077,-45.1248046875,-39.1482742468711,-0.23135729020854942,77.81369510055731,0.5,0.5,17,0.0254,1.24e-05,0.298,1.45e-05,1.99,1.19e-05,0.73,1.71e-05,0.03333333333333333,0.01,0.01915864460170269,0.17501847445964813,-10.357208251953125,0.2417430728673935,1.5469225645065308,-1.9663941860198975,0.020740374515969773,0.08420232716097249,-2.5120897741994215,-32.17051883984022
1579735831.226482,315,214,5,5,1280,720,0.248046875,0.30069444444444443,192.0,90,77.15391931730159,0.0,-40.04599333024255,-0.251953125,-0.251953125,-0.9726047999381946,175.0,1225,214,214,1,90.0,50.625,1365.3645833333335,-1.5070093457943925,-22.67578125,-3.2723152147453276,1365.3645833333335,-1.5070093457943925,-22.67578125,-3.2723152147453276,34.68026041666667,-0.44908878504672894,-2.3888197240576154,-45.1248046875,-40.04599333024255,-0.22557585524125096,77.15391931730159,0.5,0.5,17,0.0254,1.24e-05,0.298,1.45e-05,1.99,1.19e-05,0.73,1.71e-05,0.03333333333333333,0.01,0.01915864460170269,0.17501847445964813,-10.357208251953125,0.2417430728673935,1.5469225645065308,-1.9663941860198975,0.020740374515969773,0.08420232716097249,-2.5120897741994215,-31.579198627540947
1579735831.2396286,315,214,5,5,1280,720,0.248046875,0.30069444444444443,192.0,90,76.99065730557076,0.0,-40.24201292923274,-0.251953125,-0.251953125,-0.9942095146515111,175.0,1225,214,214,1,90.0,50.625,1365.3645833333335,-1.5070093457943925,-22.67578125,-3.3450039745284483,1365.3645833333335,-1.5070093457943925,-22.67578125,-3.3450039745284483,34.68026041666667,-0.44908878504672894,-2.4419771991849966,-45.1248046875,-40.24201292923274,-0.2283059031968462,76.99065730557076,0.5,0.5,17,0.0254,1.24e-05,0.298,1.45e-05,1.99,1.19e-05,0.73,1.71e-05,0.03333333333333333,0.01,0.026899203658103943,0.22635425627231598,-10.42109489440918,0.3024976849555969,1.8726125955581665,-2.0933902263641357,0.09233106166161464,0.13804833905309413,-2.8200856464690207,-31.351223988518846
1579735831.25141,314,211,6,6,1280,720,0.24765625,0.2972222222222222,160.0,90,76.0286661421095,0.0,-41.24370798233931,-0.251953125,-0.251953125,-1.00812313279543,175.0,1225,214,214,1,90.0,50.625,1365.3645833333335,-1.5070093457943925,-22.67578125,-3.3918161477229423,1365.3645833333335,-1.5070093457943925,-22.67578125,-3.3918161477229423,34.68026041666667,-0.44908878504672894,-2.4761058366539106,-45.1248046875,-41.24370798233931,-0.2856081487646384,76.0286661421095,0.5,0.5,17,0.0254,1.24e-05,0.298,1.45e-05,1.99,1.19e-05,0.73,1.71e-05,0.03333333333333333,0.01,0.026899203658103943,0.22635425627231598,-10.42109489440918,0.3024976849555969,1.8726125955581665,-2.0933902263641357,0.09233106166161464,0.13804833905309413,-2.8200856464690207,-29.875257674919528
1579735831.2631996,314,211,6,6,1280,720,0.24765625,0.2972222222222222,160.0,90,75.55661810819157,0.0,-41.63420014247269,-0.25234375,-0.25234375,-1.0174683058239864,143.0,1225,214,214,1,90.0,50.625,1115.6979166666667,-1.5093457943925233,-22.710937499999996,-3.4232578513704213,1115.6979166666667,-1.5093457943925233,-22.710937499999996,-3.4232578513704213,28.029140416666667,-0.4497884345794392,-2.4990319968136445,-45.1948074609375,-41.63420014247269,-0.330169583570271,75.55661810819157,0.5,0.5,17,0.0254,1.24e-05,0.298,1.45e-05,1.99,1.19e-05,0.73,1.71e-05,0.03333333333333333,0.01,0.026899203658103943,0.22635425627231598,-10.42109489440918,0.3024976849555969,1.8726125955581665,-2.0933902263641357,0.09233106166161464,0.13804833905309413,-2.8200856464690207,-29.481049891877657
1579735831.275036,314,211,6,6,1280,720,0.24765625,0.2972222222222222,160.0,90,75.24393887817756,0.0,-41.86080874366079,-0.25234375,-0.25234375,-1.0251817312093372,143.0,1225,214,214,1,90.0,50.625,1115.6979166666667,-1.5093457943925233,-22.710937499999996,-3.4492095629473027,1115.6979166666667,-1.5093457943925233,-22.710937499999996,-3.4492095629473027,28.338727083333335,-0.4497850467289719,-2.5179673583783275,-45.194765624999995,-41.86080874366079,-0.3622594664774305,75.24393887817756,0.5,0.5,17,0.0254,1.24e-05,0.298,1.45e-05,1.99,1.19e-05,0.73,1.71e-05,0.03333333333333333,0.01,0.039827995002269745,0.30634722113609314,-10.507893562316895,0.39741799235343933,2.308966636657715,-2.2712740898132324,0.23629765355248855,0.20977127689763445,-3.247785924474692,-29.234288817543437
1579735831.2833805,306,197,7,5,1280,720,0.241796875,0.27708333333333335,162.2696169078752,90,74.77395356138898,0.0,-42.14969159460648,-0.25234375,-0.25234375,-1.029657950492065,143.0,1225,214,214,1,90.0,50.625,1115.6979166666667,-1.5093457943925233,-22.710937499999996,-3.464269739973303,1115.6979166666667,-1.5093457943925233,-22.710937499999996,-3.464269739973303,28.338727083333335,-0.4497850467289719,-2.5289426630832255,-45.194765624999995,-42.14969159460648,-0.42407958869649526,74.77395356138898,0.5,0.5,17,0.0254,1.24e-05,0.298,1.45e-05,1.99,1.19e-05,0.73,1.71e-05,0.03333333333333333,0.01,0.039827995002269745,0.30634722113609314,-10.507893562316895,0.39741799235343933,2.308966636657715,-2.2712740898132324,0.23629765355248855,0.20977127689763445,-3.247785924474692,-29.182143738324974
1579735831.2960777,300,173,7,5,1280,720,0.237109375,0.24375,162.2696169078752,90,74.61769249355743,0.0,-42.23882556327514,-0.262890625,-0.262890625,-1.088836500634202,145.2696169078752,1225,214,214,1,90.0,50.625,1133.4056569166512,-1.572429906542056,-23.66015625,-3.6633751423206795,1133.4056569166512,-1.572429906542056,-23.66015625,-3.6633751423206795,28.81046128359292,-0.4686755841121495,-2.67460432413211,-47.0848405078125,-42.23882556327514,-0.44801041043367784,74.61769249355743,0.5,0.5,17,0.0254,1.24e-05,0.298,1.45e-05,1.99,1.19e-05,0.73,1.71e-05,0.03333333333333333,0.01,0.04954458400607109,0.362751841545105,-10.563517570495605,0.46025997400283813,2.5634779930114746,-2.3690998554229736,0.32770788843073917,0.2635523954103212,-3.495574411169377,-29.06521431482894
1579735831.3070607,300,173,7,5,1280,720,0.237109375,0.24375,162.2696169078752,90,74.15126570532642,0.0,-42.49575337418893,-0.262890625,-0.262890625,-1.0905971716202498,145.2696169078752,1225,214,214,1,90.0,50.625,1133.4056569166512,-1.572429906542056,-23.66015625,-3.6692988951709338,1133.4056569166512,-1.572429906542056,-23.66015625,-3.6692988951709338,28.78850368568294,-0.46858411214953266,-2.6785983230921553,-47.0837109375,-42.49575337418893,-0.5284427714606009,74.15126570532642,0.5,0.5,17,0.0254,1.24e-05,0.298,1.45e-05,1.99,1.19e-05,0.73,1.71e-05,0.03333333333333333,0.01,0.04954458400607109,0.362751841545105,-10.563517570495605,0.46025997400283813,2.5634779930114746,-2.3690998554229736,0.32770788843073917,0.2635523954103212,-3.495574411169377,-28.79457831425094
1579735831.3207107,300,173,7,5,1280,720,0.237109375,0.24375,162.2696169078752,90,73.37891474417056,0.0,-42.86297166472549,-0.262890625,-0.262890625,-1.1029259835007506,145.2696169078752,1225,214,214,1,90.0,50.625,1133.4056569166512,-1.572429906542056,-23.66015625,-3.7107790099090674,1133.4056569166512,-1.572429906542056,-23.66015625,-3.7107790099090674,28.78850368568294,-0.46858411214953266,-2.7088928125024174,-47.0837109375,-42.86297166472549,-0.7029333473826522,73.37891474417056,0.5,0.5,17,0.0254,1.24e-05,0.298,1.45e-05,1.99,1.19e-05,0.73,1.71e-05,0.03333333333333333,0.01,0.04954458400607109,0.362751841545105,-10.563517570495605,0.46025997400283813,2.5634779930114746,-2.3690998554229736,0.32770788843073917,0.2635523954103212,-3.495574411169377,-28.206642460685412
1579735831.3273683,299,150,6,6,1280,720,0.2359375,0.2125,160.0,90,73.37891474417056,0.0,-42.86297166472549,-0.262890625,-0.262890625,-1.1029259835007506,145.2696169078752,1225,214,214,1,90.0,50.625,1133.4056569166512,-1.572429906542056,-23.66015625,-3.7107790099090674,1133.4056569166512,-1.572429906542056,-23.66015625,-3.7107790099090674,28.78850368568294,-0.46858411214953266,-2.7088928125024174,-47.0837109375,-42.86297166472549,-0.7029333473826522,73.37891474417056,0.5,0.5,17,0.0254,1.24e-05,0.298,1.45e-05,1.99,1.19e-05,0.73,1.71e-05,0.03333333333333333,0.01,0.04954458400607109,0.362751841545105,-10.563517570495605,0.46025997400283813,2.5634779930114746,-2.3690998554229736,0.32770788843073917,0.2635523954103212,-3.495574411169377,-28.206642460685412
1579735831.339319,299,150,6,6,1280,720,0.2359375,0.2125,160.0,90,73.07209581646441,0.0,-42.99577444785264,-0.2640625,-0.2640625,-1.1367992483526446,143.0,1225,214,214,1,90.0,50.625,1115.6979166666667,-1.5794392523364484,-23.765624999999996,-3.8247451346444117,1115.6979166666667,-1.5794392523364484,-23.765624999999996,-3.8247451346444117,28.316769485423354,-0.4706830607476635,-2.792258830363718,-47.29371925781249,-42.99577444785264,-0.7800564817567041,73.07209581646441,0.5,0.5,17,0.0254,1.24e-05,0.298,1.45e-05,1.99,1.19e-05,0.73,1.71e-05,0.03333333333333333,0.01,0.06926538050174713,0.4699801206588745,-10.661189079284668,0.5697970390319824,2.953493595123291,-2.501668930053711,0.4819454604820921,0.36750815308606366,-3.865075270710258,-28.341513083583777
1579735831.3511178,299,150,6,6,1280,720,0.2359375,0.2125,160.0,90,72.14170110810362,0.0,-43.31900632013432,-0.2640625,-0.2640625,-1.1412701384013535,143.0,1225,214,214,1,90.0,50.625,1115.6979166666667,-1.5794392523364484,-23.765624999999996,-3.839787381537264,1115.6979166666667,-1.5794392523364484,-23.765624999999996,-3.839787381537264,28.338727083333335,-0.4706728971962616,-2.8030705107643894,-47.29359374999999,-43.31900632013432,-1.0470684266497778,72.14170110810362,0.5,0.5,17,0.0254,1.24e-05,0.298,1.45e-05,1.99,1.19e-05,0.73,1.71e-05,0.03333333333333333,0.01,0.06926538050174713,0.4699801206588745,-10.661189079284668,0.5697970390319824,2.953493595123291,-2.501668930053711,0.4819454604820921,0.36750815308606366,-3.865075270710258,-28.701738967957542
1579735831.3629932,297,128,6,4,1280,720,0.234375,0.18055555555555555,195.95917942265424,90,71.82803833084913,0.0,-43.40923311907019,-0.265625,-0.265625,-1.175128519903888,178.95917942265424,1225,214,214,1,90.0,50.625,1396.2544311205004,-1.588785046728972,-23.90625,-3.953703431452333,1396.2544311205004,-1.588785046728972,-23.90625,-3.953703431452333,35.812752628383464,-0.47347149532710275,-2.8863983014055576,-47.57360484375,-43.40923311907019,-1.1409571674761252,71.82803833084913,0.5,0.5,17,0.0254,1.24e-05,0.298,1.45e-05,1.99,1.19e-05,0.73,1.71e-05,0.03333333333333333,0.01,0.06926538050174713,0.4699801206588745,-10.661189079284668,0.5697970390319824,2.953493595123291,-2.501668930053711,0.4819454604820921,0.36750815308606366,-3.865075270710258,-28.6793359474799
1579735831.3733122,297,128,6,4,1280,720,0.234375,0.18055555555555555,195.95917942265424,90,71.3574041460894,0.0,-43.524069089585616,-0.265625,-0.265625,-1.1769107776606456,178.95917942265424,1225,214,214,1,90.0,50.625,1396.2544311205004,-1.588785046728972,-23.90625,-3.9596998126900225,1396.2544311205004,-1.588785046728972,-23.90625,-3.9596998126900225,35.46486255046071,-0.4734579439252336,-2.890591117075633,-47.5734375,-43.524069089585616,-1.2947244692086817,71.3574041460894,0.5,0.5,17,0.0254,1.24e-05,0.298,1.45e-05,1.99,1.19e-05,0.73,1.71e-05,0.03333333333333333,0.01,0.08834374696016312,0.5665892362594604,-10.74312973022461,0.6641425490379333,3.23948073387146,-2.589695453643799,0.6068103668264613,0.4616160037340962,-4.1304400657797755,-28.729387573717755
1579735831.384443,297,128,6,4,1280,720,0.234375,0.18055555555555555,195.95917942265424,90,71.04038774595242,0.0,-43.59064294342573,-0.265625,-0.265625,-1.1791791425103333,178.95917942265424,1225,214,214,1,90.0,50.625,1396.2544311205004,-1.588785046728972,-23.90625,-3.9673316944272896,1396.2544311205004,-1.588785046728972,-23.90625,-3.9673316944272896,35.46486255046071,-0.4734579439252336,-2.896165187449692,-47.5734375,-43.59064294342573,-1.3965946062453063,71.04038774595242,0.5,0.5,17,0.0254,1.24e-05,0.298,1.45e-05,1.99,1.19e-05,0.73,1.71e-05,0.03333333333333333,0.01,0.08834374696016312,0.5665892362594604,-10.74312973022461,0.6641425490379333,3.23948073387146,-2.589695453643799,0.6068103668264613,0.4616160037340962,-4.1304400657797755,-28.75485051894356
1579735831.3957732,102,14,4,5,1280,720,0.08125,0.022916666666666665,214.66252583997982,90,70.56808699503522,0.0,-43.681156610306736,-0.265625,-0.265625,-1.180494181598533,178.95917942265424,1225,214,214,1,90.0,50.625,1396.2544311205004,-1.588785046728972,-23.90625,-3.97175612500441,1396.2544311205004,-1.588785046728972,-23.90625,-3.97175612500441,35.46486255046071,-0.4734579439252336,-2.899389537029506,-47.5734375,-43.681156610306736,-1.5467794737581912,70.56808699503522,0.5,0.5,17,0.0254,1.24e-05,0.298,1.45e-05,1.99,1.19e-05,0.73,1.71e-05,0.03333333333333333,0.01,0.08834374696016312,0.5665892362594604,-10.74312973022461,0.6641425490379333,3.23948073387146,-2.589695453643799,0.6068103668264613,0.4616160037340962,-4.1304400657797755,-28.802405711039775
1579735831.4028926,102,14,4,5,1280,720,0.08125,0.022916666666666665,214.66252583997982,90,70.2513779534109,0.0,-43.73130385919297,-0.41875,-0.41875,-1.3399209947714912,197.66252583997982,1225,214,214,1,90.0,50.625,1542.179498480676,-2.5046728971962615,-37.6875,-4.508145402969503,1542.179498480676,-2.5046728971962615,-37.6875,-4.508145402969503,39.35230634493579,-0.7477205607476635,-3.2918633698330577,-75.0145246875,-43.73130385919297,-1.6483937988660575,70.2513779534109,0.5,0.5,17,0.0254,1.24e-05,0.298,1.45e-05,1.99,1.19e-05,0.73,1.71e-05,0.03333333333333333,0.01,0.11060992628335953,0.6721859574317932,-10.828014373779297,0.7656354308128357,3.5060741901397705,-2.669735908508301,0.731511229617255,0.5627430181306727,-4.376580317707865,-28.790121615817508
1579735831.4152322,102,14,4,5,1280,720,0.08125,0.022916666666666665,214.66252583997982,90,69.93280427014315,0.0,-43.77101799412201,-0.41875,-0.41875,-1.3409115577124537,197.66252583997982,1225,214,214,1,90.0,50.625,1542.179498480676,-2.5046728971962615,-37.6875,-4.511478138097975,1542.179498480676,-2.5046728971962615,-37.6875,-4.511478138097975,39.17135926140917,-0.7463925233644859,-3.293384739788592,-74.998125,-43.77101799412201,-1.7501932861334548,69.93280427014315,0.5,0.5,17,0.0254,1.24e-05,0.298,1.45e-05,1.99,1.19e-05,0.73,1.71e-05,0.03333333333333333,0.01,0.11060992628335953,0.6721859574317932,-10.828014373779297,0.7656354308128357,3.5060741901397705,-2.669735908508301,0.731511229617255,0.5627430181306727,-4.376580317707865,-28.894169302538895
1579735831.4334667,294,81,6,5,1280,720,0.23203125,0.11597222222222223,175.27121840165316,90,69.13366530706249,0.0,-43.82435152625605,-0.26796875,-0.26796875,-1.2496939807655516,158.27121840165316,1225,214,214,1,90.0,50.625,1234.8452352378981,-1.602803738317757,-24.117187499999996,-4.204577879211201,1234.8452352378981,-1.602803738317757,-24.117187499999996,-4.204577879211201,30.983974488621566,-0.4763278037383177,-3.068812539074184,-47.97705445312499,-43.82435152625605,-1.9997361684505748,69.13366530706249,0.5,0.5,17,0.0254,1.24e-05,0.298,1.45e-05,1.99,1.19e-05,0.73,1.71e-05,0.03333333333333333,0.01,0.13507996499538422,0.7738978266716003,-10.91480827331543,0.8732266426086426,3.7442123889923096,-2.7432332038879395,0.8490015930270693,0.6784922825741289,-4.596283728370476,-28.931906097703216
1579735831.445116,294,81,6,5,1280,720,0.23203125,0.11597222222222223,175.27121840165316,90,68.49280231761854,0.0,-43.83084703615673,-0.26796875,-0.26796875,-1.2496939807655516,158.27121840165316,1225,214,214,1,90.0,50.625,1234.8452352378981,-1.602803738317757,-24.117187499999996,-4.204577879211201,1234.8452352378981,-1.602803738317757,-24.117187499999996,-4.204577879211201,30.983974488621566,-0.4763278037383177,-3.068812539074184,-47.97705445312499,-43.83084703615673,-2.2029853092338176,68.49280231761854,0.5,0.5,17,0.0254,1.24e-05,0.298,1.45e-05,1.99,1.19e-05,0.73,1.71e-05,0.03333333333333333,0.01,0.13507996499538422,0.7738978266716003,-10.91480827331543,0.8732266426086426,3.7442123889923096,-2.7432332038879395,0.8490015930270693,0.6784922825741289,-4.596283728370476,-28.9284705125507
1579735831.4544313,294,81,6,5,1280,720,0.23203125,0.11597222222222223,175.27121840165316,90,68.33343351371462,0.0,-43.83064896067081,-0.26796875,-0.26796875,-1.249818374531769,158.27121840165316,1225,214,214,1,90.0,50.625,1234.8452352378981,-1.602803738317757,-24.117187499999996,-4.204996400293802,1234.8452352378981,-1.602803738317757,-24.117187499999996,-4.204996400293802,31.36506897504261,-0.47763551401869153,-3.069648087885527,-47.993203124999994,-43.83064896067081,-2.2537564532120498,68.33343351371462,0.5,0.5,17,0.0254,1.24e-05,0.298,1.45e-05,1.99,1.19e-05,0.73,1.71e-05,0.03333333333333333,0.01,0.13507996499538422,0.7738978266716003,-10.91480827331543,0.8732266426086426,3.7442123889923096,-2.7432332038879395,0.8490015930270693,0.6784922825741289,-4.596283728370476,-28.714395308489575
1579735831.470297,292,63,8,5,1280,720,0.23125,0.09097222222222222,151.7893276880822,90,67.35163480166031,0.0,-43.81086873283445,-0.26796875,-0.26796875,-1.249818374531769,158.27121840165316,1225,214,214,1,90.0,50.625,1234.8452352378981,-1.602803738317757,-24.117187499999996,-4.204996400293802,1234.8452352378981,-1.602803738317757,-24.117187499999996,-4.204996400293802,31.36506897504261,-0.47763551401869153,-3.0696473722144755,-47.993203124999994,-43.81086873283445,-2.591949001097,67.35163480166031,0.5,0.5,17,0.0254,1.24e-05,0.298,1.45e-05,1.99,1.19e-05,0.73,1.71e-05,0.03333333333333333,0.01,0.17080385982990265,0.9127295613288879,-11.026789665222168,1.0094681978225708,3.997633934020996,-2.8084166049957275,1.0000617123137483,0.7922412793476545,-4.822814247607796,-30.20382392494299
1579735831.479496,292,63,8,5,1280,720,0.23125,0.09097222222222222,151.7893276880822,90,67.35163480166031,0.0,-43.81086873283445,-0.26875,-0.26875,-1.274427653981915,134.7893276880822,1225,214,214,1,90.0,50.625,1051.6375670663915,-1.6074766355140186,-24.1875,-4.28779397601392,1051.6375670663915,-1.6074766355140186,-24.1875,-4.28779397601392,26.484416694953673,-0.47903481308411217,-3.130231186344643,-48.133208671874996,-43.81086873283445,-2.591949001097,67.35163480166031,0.5,0.5,17,0.0254,1.24e-05,0.298,1.45e-05,1.99,1.19e-05,0.73,1.71e-05,0.03333333333333333,0.01,0.17080385982990265,0.9127295613288879,-11.026789665222168,1.0094681978225708,3.997633934020996,-2.8084166049957275,1.0000617123137483,0.7922412793476545,-4.822814247607796,-30.20382392494299
1579735831.4952168,292,63,8,5,1280,720,0.23125,0.09097222222222222,151.7893276880822,90,66.47752085206042,0.0,-43.77675535302482,-0.26875,-0.26875,-1.2737538094424656,134.7893276880822,1225,214,214,1,90.0,50.625,1051.6375670663915,-1.6074766355140186,-24.1875,-4.285526835507361,1051.6375670663915,-1.6074766355140186,-24.1875,-4.285526835507361,26.711594203486342,-0.47902803738317756,-3.128433058446421,-48.133125,-43.77675535302482,-2.962284632659441,66.47752085206042,0.5,0.5,17,0.0254,1.24e-05,0.298,1.45e-05,1.99,1.19e-05,0.73,1.71e-05,0.03333333333333333,0.01,0.17080385982990265,0.9127295613288879,-11.026789665222168,1.0094681978225708,3.997633934020996,-2.8084166049957275,1.0000617123137483,0.7922412793476545,-4.822814247607796,-31.846330741074734
1579735831.5037386,290,52,7,5,1280,720,0.229296875,0.07569444444444444,162.2696169078752,90,65.93941805867931,0.0,-43.75394935138615,-0.26875,-0.26875,-1.2737538094424656,134.7893276880822,1225,214,214,1,90.0,50.625,1051.6375670663915,-1.6074766355140186,-24.1875,-4.285526835507361,1051.6375670663915,-1.6074766355140186,-24.1875,-4.285526835507361,26.711594203486342,-0.47902803738317756,-3.128433058446421,-48.133125,-43.75394935138615,-3.173830532293546,65.93941805867931,0.5,0.5,17,0.0254,1.24e-05,0.298,1.45e-05,1.99,1.19e-05,0.73,1.71e-05,0.03333333333333333,0.01,0.20335595309734344,1.0314655303955078,-11.11827564239502,1.1182223558425903,4.162439346313477,-2.8378522396087646,1.114581879140437,0.8934194561660469,-4.958753552328744,-32.422487933416576
1579735831.51048,290,52,7,5,1280,720,0.229296875,0.07569444444444444,162.2696169078752,90,65.75884151740252,0.0,-43.74648736971791,-0.270703125,-0.270703125,-1.2885810982989856,145.2696169078752,1225,214,214,1,90.0,50.625,1133.4056569166512,-1.6191588785046727,-24.36328125,-4.335413041005933,1133.4056569166512,-1.6191588785046727,-24.36328125,-4.335413041005933,28.889896117097262,-0.48252628504672884,-3.1649368253457335,-48.4831388671875,-43.74648736971791,-3.2339628774161033,65.75884151740252,0.5,0.5,17,0.0254,1.24e-05,0.298,1.45e-05,1.99,1.19e-05,0.73,1.71e-05,0.03333333333333333,0.01,0.20335595309734344,1.0314655303955078,-11.11827564239502,1.1182223558425903,4.162439346313477,-2.8378522396087646,1.114581879140437,0.8934194561660469,-4.958753552328744,-32.47441786167618
1579735831.5265844,287,46,6,4,1280,720,0.2265625,0.06666666666666667,195.95917942265424,90,65.22527396963028,0.0,-43.72791608536464,-0.270703125,-0.270703125,-1.2884337011302303,145.2696169078752,1225,214,214,1,90.0,50.625,1133.4056569166512,-1.6191588785046727,-24.36328125,-4.334917125297971,1133.4056569166512,-1.6191588785046727,-24.36328125,-4.334917125297971,28.78850368568294,-0.4825093457943924,-3.164488653451658,-48.4829296875,-43.72791608536464,-3.389830355596733,65.22527396963028,0.5,0.5,17,0.0254,1.24e-05,0.298,1.45e-05,1.99,1.19e-05,0.73,1.71e-05,0.03333333333333333,0.01,0.20335595309734344,1.0314655303955078,-11.11827564239502,1.1182223558425903,4.162439346313477,-2.8378522396087646,1.114581879140437,0.8934194561660469,-4.958753552328744,-31.897847442889553
1579735831.5378888,287,46,6,4,1280,720,0.2265625,0.06666666666666667,195.95917942265424,64.87267228391755,64.87267228391755,0.0,-43.71543049956186,-0.2734375,-0.2734375,-1.2968480098678885,178.95917942265424,1225,214,214,1,90.0,50.625,1396.2544311205004,-1.6355140186915886,-24.609375,-4.363226949088223,1396.2544311205004,-1.6355140186915886,-24.609375,-4.363226949088223,35.46486255046071,-0.4873831775700934,-3.1851542539117546,-48.97265625,-43.71543049956186,-3.4774147250974528,64.87267228391755,0.5,0.5,17,0.0254,1.24e-05,0.298,1.45e-05,1.99,1.19e-05,0.73,1.71e-05,0.03333333333333333,0.01,0.23985043168067932,1.1564557552337646,-11.21146297454834,1.2458254098892212,4.324077129364014,-2.8916831016540527,1.2135839032910765,1.0199545106215244,-5.108665387255441,-31.629277574535482
1579735831.554835,287,46,6,4,1280,720,0.2265625,0.06666666666666667,195.95917942265424,64.87267228391755,64.00399516489699,0.0,-43.67575734576784,-0.2734375,-0.2734375,-1.2960643426324512,178.95917942265424,1225,214,214,1,90.0,50.625,1396.2544311205004,-1.6355140186915886,-24.609375,-4.360590311660584,1396.2544311205004,-1.6355140186915886,-24.609375,-4.360590311660584,35.46486255046071,-0.4873831775700934,-3.183226418862225,-48.97265625,-43.67575734576784,-3.6645074802858537,64.00399516489699,0.5,0.5,17,0.0254,1.24e-05,0.298,1.45e-05,1.99,1.19e-05,0.73,1.71e-05,0.03333333333333333,0.01,0.23985043168067932,1.1564557552337646,-11.21146297454834,1.2458254098892212,4.324077129364014,-2.8916831016540527,1.2135839032910765,1.0199545106215244,-5.108665387255441,-31.02611381421541
1579735831.571443,287,46,6,4,1280,720,0.2265625,0.06666666666666667,195.95917942265424,64.87267228391755,62.98784060131751,0.0,-43.61530334142406,-0.2734375,-0.2734375,-1.2954899996142437,178.95917942265424,1225,214,214,1,90.0,50.625,1396.2544311205004,-1.6355140186915886,-24.609375,-4.358657942627362,1396.2544311205004,-1.6355140186915886,-24.609375,-4.358657942627362,35.46486255046071,-0.4873831775700934,-3.181816993766927,-48.97265625,-43.61530334142406,-3.900928075103498,62.98784060131751,0.5,0.5,17,0.0254,1.24e-05,0.298,1.45e-05,1.99,1.19e-05,0.73,1.71e-05,0.03333333333333333,0.01,0.2805286943912506,1.2870248556137085,-11.306343078613281,1.37126886844635,4.455428123474121,-2.92939829826355,1.306045229752553,1.1084178101507356,-5.232422792441843,-30.247304909199293
1579735831.5835388,282,42,6,5,1280,720,0.22265625,0.06180555555555556,175.27121840165316,64.87267228391755,62.486313470941816,0.0,-43.58535296191355,-0.2734375,-0.2734375,-1.2948701894602284,178.95917942265424,1225,214,214,1,90.0,50.625,1396.2544311205004,-1.6355140186915886,-24.609375,-4.356572600053105,1396.2544311205004,-1.6355140186915886,-24.609375,-4.356572600053105,35.46486255046071,-0.4873831775700934,-3.1802944321029645,-48.97265625,-43.58535296191355,-4.034252087041677,62.486313470941816,0.5,0.5,17,0.0254,1.24e-05,0.298,1.45e-05,1.99,1.19e-05,0.73,1.71e-05,0.03333333333333333,0.01,0.2805286943912506,1.2870248556137085,-11.306343078613281,1.37126886844635,4.455428123474121,-2.92939829826355,1.306045229752553,1.1084178101507356,-5.232422792441843,-29.897524091613768
1579735831.599337,282,42,6,5,1280,720,0.22265625,0.06180555555555556,175.27121840165316,64.87267228391755,62.156121635895886,0.0,-43.56172392247989,-0.27734375,-0.27734375,-1.2986729416786151,158.27121840165316,1225,214,214,1,90.0,50.625,1234.8452352378981,-1.658878504672897,-24.9609375,-4.369366906582257,1234.8452352378981,-1.658878504672897,-24.9609375,-4.369366906582257,31.164921572148184,-0.4943796728971962,-3.189659720069212,-49.672683984375,-43.56172392247989,-4.133064006877429,62.156121635895886,0.5,0.5,17,0.0254,1.24e-05,0.298,1.45e-05,1.99,1.19e-05,0.73,1.71e-05,0.03333333333333333,0.01,0.325185626745224,1.4220154285430908,-11.402142524719238,1.488649845123291,4.552340984344482,-2.9377846717834473,1.3961544232171605,1.1957210611497107,-5.3095639696069235,-29.616400335565213
1579735831.605353,276,42,6,4,1280,720,0.21796875,0.06111111111111111,195.95917942265424,64.87267228391755,61.66411578922319,0.0,-43.52377197635672,-0.27734375,-0.27734375,-1.2979232736070463,158.27121840165316,1225,214,214,1,90.0,50.625,1234.8452352378981,-1.658878504672897,-24.9609375,-4.366844658864829,1234.8452352378981,-1.658878504672897,-24.9609375,-4.366844658864829,31.36506897504261,-0.4943457943925233,-3.187792287927728,-49.672265625,-43.52377197635672,-4.287613258548246,61.66411578922319,0.5,0.5,17,0.0254,1.24e-05,0.298,1.45e-05,1.99,1.19e-05,0.73,1.71e-05,0.03333333333333333,0.01,0.325185626745224,1.4220154285430908,-11.402142524719238,1.488649845123291,4.552340984344482,-2.9377846717834473,1.3961544232171605,1.1957210611497107,-5.3095639696069235,-29.37255575200659
1579735831.6191423,276,42,6,4,1280,720,0.21796875,0.06111111111111111,195.95917942265424,64.87267228391755,61.33606180338747,0.0,-43.50116063510939,-0.28203125,-0.28203125,-1.2981710742737658,178.95917942265424,1225,214,214,1,90.0,50.625,1396.2544311205004,-1.6869158878504673,-25.3828125,-4.367678380734165,1396.2544311205004,-1.6869158878504673,-25.3828125,-4.367678380734165,35.66500995335514,-0.5027415887850467,-3.188406643600337,-50.51229890625,-43.50116063510939,-4.3896733602211615,61.33606180338747,0.5,0.5,17,0.0254,1.24e-05,0.298,1.45e-05,1.99,1.19e-05,0.73,1.71e-05,0.03333333333333333,0.01,0.325185626745224,1.4220154285430908,-11.402142524719238,1.488649845123291,4.552340984344482,-2.9377846717834473,1.3961544232171605,1.1957210611497107,-5.3095639696069235,-29.486527703592007
1579735831.6278174,276,42,6,4,1280,720,0.21796875,0.06111111111111111,195.95917942265424,64.87267228391755,61.00811027038932,0.0,-43.47508297285828,-0.28203125,-0.28203125,-1.2976559599576944,178.95917942265424,1225,214,214,1,90.0,50.625,1396.2544311205004,-1.6869158878504673,-25.3828125,-4.365945285838972,1396.2544311205004,-1.6869158878504673,-25.3828125,-4.365945285838972,35.46486255046071,-0.5027009345794392,-3.1871370950701787,-50.511796875,-43.47508297285828,-4.496846285374655,61.00811027038932,0.5,0.5,17,0.0254,1.24e-05,0.298,1.45e-05,1.99,1.19e-05,0.73,1.71e-05,0.03333333333333333,0.01,0.325185626745224,1.4220154285430908,-11.402142524719238,1.488649845123291,4.552340984344482,-2.9377846717834473,1.3961544232171605,1.1957210611497107,-5.3095639696069235,-29.57807614413227
1579735831.638974,270,42,6,5,1280,720,0.21328125,0.06180555555555556,175.27121840165316,64.87267228391755,60.67817115234268,0.0,-43.44740363124681,-0.28671875,-0.28671875,-1.2964147630863567,158.27121840165316,1225,214,214,1,90.0,50.625,1234.8452352378981,-1.7149532710280375,-25.804687500000004,-4.3617692963653125,1234.8452352378981,-1.7149532710280375,-25.804687500000004,-4.3617692963653125,31.164921572148184,-0.5110967289719627,-3.184084445404678,-51.35183015625001,-43.44740363124681,-4.608343147159589,60.67817115234268,0.5,0.5,17,0.0254,1.24e-05,0.298,1.45e-05,1.99,1.19e-05,0.73,1.71e-05,0.03333333333333333,0.01,0.3715100586414337,1.5495599508285522,-11.497920036315918,1.5982255935668945,4.61460542678833,-2.925358772277832,1.4774997409910196,1.2997541803588226,-5.341747450547494,-29.591480390378422
1579735831.6511264,270,42,6,5,1280,720,0.21328125,0.06180555555555556,175.27121840165316,64.87267228391755,59.69322372308099,0.0,-43.3696897388704,-0.28671875,-0.28671875,-1.2953989706071265,158.27121840165316,1225,214,214,1,90.0,50.625,1234.8452352378981,-1.7149532710280375,-25.804687500000004,-4.358351676809024,1234.8452352378981,-1.7149532710280375,-25.804687500000004,-4.358351676809024,31.36506897504261,-0.5110560747663552,-3.181590879941146,-51.35132812500001,-43.3696897388704,-4.9330221657716695,59.69322372308099,0.5,0.5,17,0.0254,1.24e-05,0.298,1.45e-05,1.99,1.19e-05,0.73,1.71e-05,0.03333333333333333,0.01,0.3715100586414337,1.5495599508285522,-11.497920036315918,1.5982255935668945,4.61460542678833,-2.925358772277832,1.4774997409910196,1.2997541803588226,-5.341747450547494,-29.27542021672525
1579735831.6632566,263,44,6,4,1280,720,0.2078125,0.06388888888888888,195.95917942265424,64.87267228391755,59.19974938573674,0.0,-43.328626641580286,-0.28671875,-0.28671875,-1.29487967385423,158.27121840165316,1225,214,214,1,90.0,50.625,1234.8452352378981,-1.7149532710280375,-25.804687500000004,-4.3566045101637645,1234.8452352378981,-1.7149532710280375,-25.804687500000004,-4.3566045101637645,31.36506897504261,-0.5110560747663552,-3.1803183047645844,-51.35132812500001,-43.328626641580286,-5.099392340461663,59.19974938573674,0.5,0.5,17,0.0254,1.24e-05,0.298,1.45e-05,1.99,1.19e-05,0.73,1.71e-05,0.03333333333333333,0.01,0.3715100586414337,1.5495599508285522,-11.497920036315918,1.5982255935668945,4.61460542678833,-2.925358772277832,1.4774997409910196,1.2997541803588226,-5.341747450547494,-29.543573443539955
1579735831.671396,263,44,6,4,1280,720,0.2078125,0.06388888888888888,195.95917942265424,64.87267228391755,59.0351486569286,0.0,-43.316588433168135,-0.2921875,-0.2921875,-1.2919852176114626,178.95917942265424,1225,214,214,1,90.0,50.625,1396.2544311205004,-1.747663551401869,-26.296875,-4.3468661527114625,1396.2544311205004,-1.747663551401869,-26.296875,-4.3468661527114625,35.66500995335514,-0.520851168224299,-3.1731956388881244,-52.331366953125,-43.316588433168135,-5.153429382080219,59.0351486569286,0.5,0.5,17,0.0254,1.24e-05,0.298,1.45e-05,1.99,1.19e-05,0.73,1.71e-05,0.03333333333333333,0.01,0.42159801721572876,1.6804332733154297,-11.593317031860352,1.7088266611099243,4.658519268035889,-2.9046566486358643,1.5541676530604989,1.3991609517381745,-5.35591561846878,-29.63268692164111
1579735831.6831887,263,44,6,4,1280,720,0.2078125,0.06388888888888888,195.95917942265424,64.87267228391755,58.539836998697616,0.0,-43.28387865723295,-0.2921875,-0.2921875,-1.2917474258403583,178.95917942265424,1225,214,214,1,90.0,50.625,1396.2544311205004,-1.747663551401869,-26.296875,-4.346066105631112,1396.2544311205004,-1.747663551401869,-26.296875,-4.346066105631112,35.46486255046071,-0.520803738317757,-3.1726268890302043,-52.33078125,-43.28387865723295,-5.311430013716008,58.539836998697616,0.5,0.5,17,0.0254,1.24e-05,0.298,1.45e-05,1.99,1.19e-05,0.73,1.71e-05,0.03333333333333333,0.01,0.42159801721572876,1.6804332733154297,-11.593317031860352,1.7088266611099243,4.658519268035889,-2.9046566486358643,1.5541676530604989,1.3991609517381745,-5.35591561846878,-29.87016918398787
1579735831.6958637,263,44,6,4,1280,720,0.2078125,0.06388888888888888,195.95917942265424,64.87267228391755,58.042237227094674,0.0,-43.25067369258293,-0.2921875,-0.2921875,-1.2904454062732431,178.95917942265424,1225,214,214,1,90.0,50.625,1396.2544311205004,-1.747663551401869,-26.296875,-4.341685479050164,1396.2544311205004,-1.747663551401869,-26.296875,-4.341685479050164,35.46486255046071,-0.520803738317757,-3.169422908835166,-52.33078125,-43.25067369258293,-5.474864914610189,58.042237227094674,0.5,0.5,17,0.0254,1.24e-05,0.298,1.45e-05,1.99,1.19e-05,0.73,1.71e-05,0.03333333333333333,0.01,0.48967403173446655,1.8477493524551392,-11.711871147155762,1.857604742050171,4.696474075317383,-2.885913848876953,1.6410218978580848,1.430919172125234,-5.39403191634514,-29.896649827400008
1579735831.7051506,255,47,6,4,1280,720,0.2015625,0.06805555555555555,195.95917942265424,64.87267228391755,57.542656700632435,0.0,-43.21798782230983,-0.2984375,-0.2984375,-1.285633092786367,178.95917942265424,1225,214,214,1,90.0,50.625,1396.2544311205004,-1.7850467289719627,-26.859375000000004,-4.325494517785907,1396.2544311205004,-1.7850467289719627,-26.859375000000004,-4.325494517785907,35.46486255046071,-0.5319981308411215,-3.15758331143995,-53.45082562500001,-43.21798782230983,-5.635761973340887,57.542656700632435,0.5,0.5,17,0.0254,1.24e-05,0.298,1.45e-05,1.99,1.19e-05,0.73,1.71e-05,0.03333333333333333,0.01,0.48967403173446655,1.8477493524551392,-11.711871147155762,1.857604742050171,4.696474075317383,-2.885913848876953,1.6410218978580848,1.430919172125234,-5.39403191634514,-30.089674388439153
1579735831.7167923,255,47,6,4,1280,720,0.2015625,0.06805555555555555,195.95917942265424,64.87267228391755,57.20613669532049,0.0,-43.19783876425829,-0.2984375,-0.2984375,-1.2852350867013984,178.95917942265424,1225,214,214,1,90.0,50.625,1396.2544311205004,-1.7850467289719627,-26.859375000000004,-4.324155431892556,1396.2544311205004,-1.7850467289719627,-26.859375000000004,-4.324155431892556,35.46486255046071,-0.5319439252336449,-3.156631175444688,-53.450156250000006,-43.19783876425829,-5.735243678602123,57.20613669532049,0.5,0.5,17,0.0254,1.24e-05,0.298,1.45e-05,1.99,1.19e-05,0.73,1.71e-05,0.03333333333333333,0.01,0.48967403173446655,1.8477493524551392,-11.711871147155762,1.857604742050171,4.696474075317383,-2.885913848876953,1.6410218978580848,1.430919172125234,-5.39403191634514,-30.41237692106016
1579735831.728231,255,47,6,4,1280,720,0.2015625,0.06805555555555555,195.95917942265424,64.87267228391755,56.352964105715856,0.0,-43.14421494908452,-0.2984375,-0.2984375,-1.2848032838285368,178.95917942265424,1225,214,214,1,90.0,50.625,1396.2544311205004,-1.7850467289719627,-26.859375000000004,-4.322702637180123,1396.2544311205004,-1.7850467289719627,-26.859375000000004,-4.322702637180123,35.46486255046071,-0.5319439252336449,-3.155570440862532,-53.450156250000006,-43.14421494908452,-5.9868627249835145,56.352964105715856,0.5,0.5,17,0.0254,1.24e-05,0.298,1.45e-05,1.99,1.19e-05,0.73,1.71e-05,0.03333333333333333,0.01,0.48967403173446655,1.8477493524551392,-11.711871147155762,1.857604742050171,4.696474075317383,-2.885913848876953,1.6410218978580848,1.430919172125234,-5.39403191634514,-30.980976509085384
1579735831.7388813,248,50,5,4,1280,720,0.195703125,0.07222222222222222,214.66252583997982,64.87267228391755,56.352964105715856,0.0,-43.14421494908452,-0.2984375,-0.2984375,-1.2841758508461139,178.95917942265424,1225,214,214,1,90.0,50.625,1396.2544311205004,-1.7850467289719627,-26.859375000000004,-4.320591647706551,1396.2544311205004,-1.7850467289719627,-26.859375000000004,-4.320591647706551,35.46486255046071,-0.5319439252336449,-3.154028293033782,-53.450156250000006,-43.14421494908452,-5.9868627249835145,56.352964105715856,0.5,0.5,17,0.0254,1.24e-05,0.298,1.45e-05,1.99,1.19e-05,0.73,1.71e-05,0.03333333333333333,0.01,0.5488700270652771,1.9840463399887085,-11.806588172912598,1.9883230924606323,4.717104434967041,-2.883270740509033,1.697290351894253,1.5312667544853376,-5.412225117403015,-30.980976509085384
