time,x_bb,y_bb,w_bb,h_bb,w_im,h_im,f_u,f_v,f_delta,psi_telem_ref,psi_telem,theta_centroid_ref,theta_centroid,delta_f_u_psi,delta_f_u_y,delta_f_v_z,delta_f_delta_x,A_exp,alpha_u,alpha_v,d_exp,FOV_u,FOV_v,delta_x_tme,delta_y_tme,delta_psi_tme,delta_z_tme,prev_delta_x_tme,prev_delta_y_tme,prev_delta_psi_tme,prev_delta_z_tme,v_xr,v_yr,v_zr,yawrate,pitch_angle,roll_angle,yaw_angle,f_u_ref,f_v_ref,f_delta_ref,kp_vx,kd_vx,kp_vy,kd_vy,kp_yaw,kd_yaw,kp_vz,kd_vz,camera_period,controller_period,local_x,local_y,local_z,local_vx,local_vy,local_vz,body_vx,body_vy,body_vz,body_yawrate
1576122333.5529277,279,368,35,30,1280,720,0.231640625,0.5319444444444444,29.626243192721645,90,86.8879770733236,0.0,-3.8056678536361535,-0.268359375,-0.3029432511249166,-0.04327582175697976,12.626243192721645,1225,214,214,1,90.0,50.625,98.51100157654702,-1.8119970160742676,-24.15234375,-0.14560089563095996,98.51100157654702,-1.8119970160742676,-24.15234375,-0.14560089563095996,2.5068402638108287,-0.539934503974547,-0.2518981144112729,-23.91031828125,-3.8056678536361535,-0.6941446014681383,86.8879770733236,0.5,0.5,17,0.0254,1.24e-05,0.298,1.45e-05,0.99,1.19e-05,1.73,3.71e-05,0.03333333333333333,0.01,0.03602997958660126,-0.002119292039424181,-10.064623832702637,-0.027691001072525978,-0.002732324181124568,0.06288449466228485,-4.6112522567692306e-05,0.026735402729375808,0.06335560684969936,0.027616239067880084
1576122333.563011,279,368,35,30,1280,720,0.231640625,0.5319444444444444,29.626243192721645,90,86.89034031877642,0.0,-3.7984470630229805,-0.268359375,-0.3029374075186267,-0.043229241553306735,12.626243192721645,1225,214,214,1,90.0,50.625,98.51100157654702,-1.8119620636628138,-24.15234375,-0.14544417718869557,98.51100157654702,-1.8119620636628138,-24.15234375,-0.14544417718869557,2.5021794400442943,-0.5399646442905218,-0.25161784511102253,-23.9108203125,-3.7984470630229805,-0.7003107681847789,86.89034031877642,0.5,0.5,17,0.0254,1.24e-05,0.298,1.45e-05,0.99,1.19e-05,1.73,3.71e-05,0.03333333333333333,0.01,0.03602997958660126,-0.002119292039424181,-10.064623832702637,-0.027691001072525978,-0.002732324181124568,0.06288449466228485,-4.6112522567692306e-05,0.026735402729375808,0.06335560684969936,0.22769558844190854
1576122333.5776231,286,370,34,28,1280,720,0.23671875,0.5333333333333333,31.113778730503892,90,86.89103699807177,0.0,-3.7947348552090787,-0.268359375,-0.3029111492358175,-0.04308660865230579,12.626243192721645,1225,214,214,1,90.0,50.625,98.51100157654702,-1.8118050047749832,-24.15234375,-0.14496429079280454,98.51100157654702,-1.8118050047749832,-24.15234375,-0.14496429079280454,2.5021794400442943,-0.5399176636875577,-0.2507864426930231,-23.9108203125,-3.7947348552090787,-0.7045858796358251,86.89103699807177,0.5,0.5,17,0.0254,1.24e-05,0.298,1.45e-05,0.99,1.19e-05,1.73,3.71e-05,0.03333333333333333,0.01,0.03602997958660126,-0.002119292039424181,-10.064623832702637,-0.027691001072525978,-0.002732324181124568,0.06288449466228485,-4.6112522567692306e-05,0.026735402729375808,0.06335560684969936,0.1714379616107316
1576122333.586908,286,370,34,28,1280,720,0.23671875,0.5333333333333333,31.113778730503892,90,86.89312020576861,0.0,-3.7688736245772945,-0.26328125,-0.2978120783223629,-0.04137106807444413,14.113778730503892,1225,214,214,1,90.0,50.625,110.11687780361892,-1.7813058890309557,-23.695312500000004,-0.13919237856822322,110.11687780361892,-1.7813058890309557,-23.695312500000004,-0.13919237856822322,2.811359982733489,-0.5307849312133959,-0.240781401128673,-23.457815507812505,-3.7688736245772945,-0.7303428965219134,86.89312020576861,0.5,0.5,17,0.0254,1.24e-05,0.298,1.45e-05,0.99,1.19e-05,1.73,3.71e-05,0.03333333333333333,0.01,0.035887185484170914,-0.0022103937808424234,-10.064545631408691,-0.028499936684966087,-0.001482455525547266,0.06261300295591354,0.001124532854460362,0.027604714979447394,0.06302021375203555,0.17434008497668624
1576122333.600115,286,370,34,28,1280,720,0.23671875,0.5333333333333333,31.113778730503892,90,86.89776473440422,0.0,-3.760711121632306,-0.26328125,-0.29780213660257104,-0.04111355307807002,14.113778730503892,1225,214,214,1,90.0,50.625,110.11687780361892,-1.7812464245387427,-23.695312500000004,-0.13832597297294585,110.11687780361892,-1.7812464245387427,-23.695312500000004,-0.13832597297294585,2.7969686962119202,-0.5308113482890316,-0.23930071887843785,-23.458359375000004,-3.760711121632306,-0.7334023410224031,86.89776473440422,0.5,0.5,17,0.0254,1.24e-05,0.298,1.45e-05,0.99,1.19e-05,1.73,3.71e-05,0.03333333333333333,0.01,0.035887185484170914,-0.0022103937808424234,-10.064545631408691,-0.028499936684966087,-0.001482455525547266,0.06261300295591354,0.001124532854460362,0.027604714979447394,0.06302021375203555,0.36469717700046395
1576122333.6103654,292,368,32,30,1280,720,0.240625,0.5319444444444444,30.983866769659336,90,86.89115994147683,0.0,-3.798768081913971,-0.259375,-0.29391766731692415,-0.0430929497662019,13.983866769659336,1225,214,214,1,90.0,50.625,109.10329385911295,-1.7580122157273967,-23.343750000000004,-0.14498562538161386,109.10329385911295,-1.7580122157273967,-23.343750000000004,-0.14498562538161386,2.7699668199302816,-0.5238539506839877,-0.2508498392206281,-23.109894140625002,-3.798768081913971,-0.7483958335501976,86.89115994147683,0.5,0.5,17,0.0254,1.24e-05,0.298,1.45e-05,0.99,1.19e-05,1.73,3.71e-05,0.03333333333333333,0.01,0.03556787595152855,-0.002260242123156786,-10.06464958190918,-0.027804730460047722,0.002163016004487872,0.015297243371605873,0.0016639497637854898,0.027679935442145035,0.015583317171385471,-0.18238045826962096
1576122333.621669,292,368,32,30,1280,720,0.240625,0.5319444444444444,30.983866769659336,90,86.83779567349151,0.0,-4.151413310082668,-0.259375,-0.29391766731692415,-0.0430929497662019,13.983866769659336,1225,214,214,1,90.0,50.625,109.10329385911295,-1.7580122157273967,-23.343750000000004,-0.14498562538161386,109.10329385911295,-1.7580122157273967,-23.343750000000004,-0.14498562538161386,2.771223664021469,-0.5238876402867642,-0.25082513191019196,-23.110312500000003,-4.151413310082668,-0.907109312819754,86.83779567349151,0.5,0.5,17,0.0254,1.24e-05,0.298,1.45e-05,0.99,1.19e-05,1.73,3.71e-05,0.03333333333333333,0.01,0.03556787595152855,-0.002260242123156786,-10.06464958190918,-0.027804730460047722,0.002163016004487872,0.015297243371605873,0.0016639497637854898,0.027679935442145035,0.015583317171385471,-4.037511367936243
1576122333.6328664,292,368,32,30,1280,720,0.240625,0.5319444444444444,30.983866769659336,90,86.80254506718508,0.0,-4.3827590743469935,-0.259375,-0.2949022770312769,-0.05462857430808876,13.983866769659336,1225,214,214,1,90.0,50.625,109.10329385911295,-1.7639014700936189,-23.343750000000004,-0.18379707243842947,109.10329385911295,-1.7639014700936189,-23.343750000000004,-0.18379707243842947,2.771223664021469,-0.5256511775067294,-0.31811292578706374,-23.110312500000003,-4.3827590743469935,-1.0192537619153703,86.80254506718508,0.5,0.5,17,0.0254,1.24e-05,0.298,1.45e-05,0.99,1.19e-05,1.73,3.71e-05,0.03333333333333333,0.01,0.03556787595152855,-0.002260242123156786,-10.06464958190918,-0.027804730460047722,0.002163016004487872,0.015297243371605873,0.0016639497637854898,0.027679935442145035,0.015583317171385471,-6.2631677825726255
1576122333.6428003,298,369,32,29,1280,720,0.2453125,0.5326388888888889,31.513543886333412,90,86.57830995673356,0.0,-5.7379825844592975,-0.2546875,-0.292706278258516,-0.08070397697697379,14.513543886333412,1225,214,214,1,90.0,50.625,113.2358788631638,-1.750766524163086,-22.921875,-0.27152739917486507,113.2358788631638,-1.750766524163086,-22.921875,-0.27152739917486507,2.881315728529384,-0.5217093785290003,-0.47006788008470873,-22.692154218749998,-5.7379825844592975,-1.6605494011545647,86.57830995673356,0.5,0.5,17,0.0254,1.24e-05,0.298,1.45e-05,0.99,1.19e-05,1.73,3.71e-05,0.03333333333333333,0.01,0.03536384925246239,-0.002046071458607912,-10.068449020385742,-0.023863915354013443,0.02075701206922531,-0.2280501127243042,-0.0036012794485866563,0.03168094386284417,-0.22801434714053817,-16.495492534302123
1576122333.6613433,298,369,32,29,1280,720,0.2453125,0.5326388888888889,31.513543886333412,90,86.1901366458234,0.0,-6.995434071036985,-0.2546875,-0.2935939751776453,-0.08792769466349928,14.513543886333412,1225,214,214,1,90.0,50.625,113.2358788631638,-1.756076113212084,-22.921875,-0.29583149606410974,113.2358788631638,-1.756076113212084,-22.921875,-0.29583149606410974,2.8761913231243605,-0.523318380641322,-0.5118786563903689,-22.69265625,-6.995434071036985,-2.016718580048165,86.1901366458234,0.5,0.5,17,0.0254,1.24e-05,0.298,1.45e-05,0.99,1.19e-05,1.73,3.71e-05,0.03333333333333333,0.01,0.03536384925246239,-0.002046071458607912,-10.068449020385742,-0.023863915354013443,0.02075701206922531,-0.2280501127243042,-0.0036012794485866563,0.03168094386284417,-0.22801434714053817,-27.251554910927727
1576122333.674643,304,369,32,29,1280,720,0.25,0.5326388888888889,31.513543886333412,90,85.92645719291505,0.0,-7.331024743734983,-0.2546875,-0.29994908674538834,-0.11217147641945646,14.513543886333412,1225,214,214,1,90.0,50.625,113.2358788631638,-1.7940879954864348,-22.921875,-0.37739935991592827,113.2358788631638,-1.7940879954864348,-22.921875,-0.37739935991592827,2.8761913231243605,-0.5346933398842554,-0.6532035094294462,-22.69265625,-7.331024743734983,-1.8897120662054243,85.92645719291505,0.5,0.5,17,0.0254,1.24e-05,0.298,1.45e-05,0.99,1.19e-05,1.73,3.71e-05,0.03333333333333333,0.01,0.03536384925246239,-0.002046071458607912,-10.068449020385742,-0.023863915354013443,0.02075701206922531,-0.2280501127243042,-0.0036012794485866563,0.03168094386284417,-0.22801434714053817,-34.45707492866373
1576122333.6793187,304,369,32,29,1280,720,0.25,0.5326388888888889,31.513543886333412,90,85.92645719291505,0.0,-7.331024743734983,-0.25,-0.2952615867453883,-0.11217147641945646,14.513543886333412,1225,214,214,1,90.0,50.625,113.2358788631638,-1.7660506123088646,-22.5,-0.37739935991592827,113.2358788631638,-1.7660506123088646,-22.5,-0.37739935991592827,2.8761913231243605,-0.5262424282624342,-0.6529008926545559,-22.274497968749998,-7.331024743734983,-1.8897120662054243,85.92645719291505,0.5,0.5,17,0.0254,1.24e-05,0.298,1.45e-05,0.99,1.19e-05,1.73,3.71e-05,0.03333333333333333,0.01,0.03536384925246239,-0.002046071458607912,-10.068449020385742,-0.023863915354013443,0.02075701206922531,-0.2280501127243042,-0.0036012794485866563,0.03168094386284417,-0.22801434714053817,-34.45707492866373
1576122333.6913733,304,369,32,29,1280,720,0.25,0.5326388888888889,31.513543886333412,90,85.15509660918883,0.0,-7.319841162742734,-0.25,-0.2952615867453883,-0.11217147641945646,14.513543886333412,1225,214,214,1,90.0,50.625,113.2358788631638,-1.7660506123088646,-22.5,-0.37739935991592827,113.2358788631638,-1.7660506123088646,-22.5,-0.37739935991592827,2.8761913231243605,-0.5262424282624342,-0.6529008926545559,-22.274497968749998,-7.319841162742734,-1.0031968409503165,85.15509660918883,0.5,0.5,17,0.0254,1.24e-05,0.298,1.45e-05,0.99,1.19e-05,1.73,3.71e-05,0.03333333333333333,0.01,0.035496797412633896,0.00012882519513368607,-10.088678359985352,-0.001013685599900782,0.09217230975627899,-0.6339178085327148,0.01022749361451239,0.028674216697791775,-0.6398607175709068,-38.99673966994519
1576122333.7047822,304,369,32,29,1280,720,0.25,0.5326388888888889,31.513543886333412,90,84.67532363131963,0.0,-7.187475511722472,-0.25,-0.3091630707631152,-0.10933593603402414,14.513543886333412,1225,214,214,1,90.0,50.625,113.2358788631638,-1.849199675592465,-22.5,-0.3678592240397074,113.2358788631638,-1.849199675592465,-22.5,-0.3678592240397074,2.8761913231243605,-0.5511077369011613,-0.6363638211399105,-22.275,-7.187475511722472,-0.583281986780663,84.67532363131963,0.5,0.5,17,0.0254,1.24e-05,0.298,1.45e-05,0.99,1.19e-05,1.73,3.71e-05,0.03333333333333333,0.01,0.035496797412633896,0.00012882519513368607,-10.088678359985352,-0.001013685599900782,0.09217230975627899,-0.6339178085327148,0.01022749361451239,0.028674216697791775,-0.6398607175709068,-39.55546621952516
1576122333.7157037,310,368,32,30,1280,720,0.2546875,0.5319444444444444,30.983866769659336,90,84.35174341939027,0.0,-7.259604016905099,-0.2453125,-0.30807090645121915,-0.11145514107466861,13.983866769659336,1225,214,214,1,90.0,50.625,109.10329385911295,-1.842667104007292,-22.078125,-0.3749892596904738,109.10329385911295,-1.842667104007292,-22.078125,-0.3749892596904738,2.7660992586164457,-0.5491053247653744,-0.648757871696784,-21.856841718749997,-7.259604016905099,-0.49260172731692925,84.35174341939027,0.5,0.5,17,0.0254,1.24e-05,0.298,1.45e-05,0.99,1.19e-05,1.73,3.71e-05,0.03333333333333333,0.01,0.03652697429060936,0.003758084960281849,-10.112985610961914,0.003210458206012845,0.12589271366596222,-0.7504640817642212,0.029758066428536428,0.015732068075212675,-0.7602121940161181,-39.905800282433454
1576122333.7276134,310,368,32,30,1280,720,0.2546875,0.5319444444444444,30.983866769659336,90,83.86703904494031,0.0,-7.653758865980902,-0.2453125,-0.31345651061177426,-0.1192409158712277,13.983866769659336,1225,214,214,1,90.0,50.625,109.10329385911295,-1.8748800634722946,-22.078125,-0.40118438984712124,109.10329385911295,-1.8748800634722946,-22.078125,-0.40118438984712124,2.771223664021469,-0.5587609677059681,-0.6941461783684009,-21.85734375,-7.653758865980902,-0.618137936219119,83.86703904494031,0.5,0.5,17,0.0254,1.24e-05,0.298,1.45e-05,0.99,1.19e-05,1.73,3.71e-05,0.03333333333333333,0.01,0.03652697429060936,0.003758084960281849,-10.112985610961914,0.003210458206012845,0.12589271366596222,-0.7504640817642212,0.029758066428536428,0.015732068075212675,-0.7602121940161181,-40.38666950566444
1576122333.750697,310,368,32,30,1280,720,0.2546875,0.5319444444444444,30.983866769659336,90,82.84776308491014,0.0,-9.156640393778304,-0.2453125,-0.3217375837434793,-0.14059626965351266,13.983866769659336,1225,214,214,1,90.0,50.625,109.10329385911295,-1.9244117158488483,-22.078125,-0.4730341782735005,109.10329385911295,-1.9244117158488483,-22.078125,-0.4730341782735005,2.771223664021469,-0.5735465122189028,-0.8186156911282177,-21.85734375,-9.156640393778304,-1.3608392062705243,82.84776308491014,0.5,0.5,17,0.0254,1.24e-05,0.298,1.45e-05,0.99,1.19e-05,1.73,3.71e-05,0.03333333333333333,0.01,0.03768986463546753,0.00821214821189642,-10.139009475708008,0.0061391256749629974,0.1451745629310608,-0.744819164276123,0.03007468509761964,0.026797678971938948,-0.7577904247067626,-35.41063422359462
1576122333.761953,316,370,32,28,1280,720,0.259375,0.5333333333333333,32.071349029490925,90,82.4461684522809,0.0,-9.64145832012321,-0.2453125,-0.32478179905655397,-0.14892746456846032,13.983866769659336,1225,214,214,1,90.0,50.625,109.10329385911295,-1.942620106506491,-22.078125,-0.5010643667723899,109.10329385911295,-1.942620106506491,-22.078125,-0.5010643667723899,2.771223664021469,-0.5789271939053878,-0.8669453465155653,-21.85734375,-9.64145832012321,-1.5115223574277028,82.4461684522809,0.5,0.5,17,0.0254,1.24e-05,0.298,1.45e-05,0.99,1.19e-05,1.73,3.71e-05,0.03333333333333333,0.01,0.03768986463546753,0.00821214821189642,-10.139009475708008,0.0061391256749629974,0.1451745629310608,-0.744819164276123,0.03007468509761964,0.026797678971938948,-0.7577904247067626,-34.059465711415186
1576122333.772213,316,370,32,28,1280,720,0.259375,0.5333333333333333,32.071349029490925,90,82.1856240562016,0.0,-9.83098326298637,-0.24062499999999998,-0.3245564616413233,-0.15711522607650785,15.071349029490925,1225,214,214,1,90.0,50.625,117.58792107384065,-1.9412722939294103,-21.656249999999996,-0.5286119755845123,117.58792107384065,-1.9412722939294103,-21.656249999999996,-0.5286119755845123,2.9972541330218148,-0.5784971892627274,-0.9146009193898994,-21.439185468749997,-9.83098326298637,-1.5255091974657138,82.1856240562016,0.5,0.5,17,0.0254,1.24e-05,0.298,1.45e-05,0.99,1.19e-05,1.73,3.71e-05,0.03333333333333333,0.01,0.03768986463546753,0.00821214821189642,-10.139009475708008,0.0061391256749629974,0.1451745629310608,-0.744819164276123,0.03007468509761964,0.026797678971938948,-0.7577904247067626,-32.65182519517809
1576122333.7814536,316,370,32,28,1280,720,0.259375,0.5333333333333333,32.071349029490925,90,81.68592058633429,0.0,-9.947661677030405,-0.24062499999999998,-0.3274513993755377,-0.16085892865158263,15.071349029490925,1225,214,214,1,90.0,50.625,117.58792107384065,-1.9585878093490103,-21.656249999999996,-0.5412076104165396,117.58792107384065,-1.9585878093490103,-21.656249999999996,-0.5412076104165396,2.9867331952755523,-0.5836842746833635,-0.9363358958258403,-21.439687499999998,-9.947661677030405,-1.435028080704968,81.68592058633429,0.5,0.5,17,0.0254,1.24e-05,0.298,1.45e-05,0.99,1.19e-05,1.73,3.71e-05,0.03333333333333333,0.01,0.03920212388038635,0.014598001725971699,-10.169588088989258,0.013581668958067894,0.16761000454425812,-0.6470111012458801,0.05496247158374286,0.027065093873606318,-0.6656932836535445,-30.818803912527184
1576122333.7977173,322,370,32,28,1280,720,0.2640625,0.5333333333333333,32.071349029490925,90,81.56871454017687,0.0,-9.942498907791522,-0.23593750000000002,-0.3296184495535903,-0.16306170682057328,15.071349029490925,1225,214,214,1,90.0,50.625,117.58792107384065,-1.9715496048065215,-21.234375000000004,-0.5486188266860409,117.58792107384065,-1.9715496048065215,-21.234375000000004,-0.5486188266860409,2.9867331952755523,-0.5875405768357568,-0.9491380657792106,-21.021529218750004,-9.942498907791522,-1.4070653929646417,81.56871454017687,0.5,0.5,17,0.0254,1.24e-05,0.298,1.45e-05,0.99,1.19e-05,1.73,3.71e-05,0.03333333333333333,0.01,0.03920212388038635,0.014598001725971699,-10.169588088989258,0.013581668958067894,0.16761000454425812,-0.6470111012458801,0.05496247158374286,0.027065093873606318,-0.6656932836535445,-29.967222756999163
1576122333.8073032,322,370,32,28,1280,720,0.2640625,0.5333333333333333,32.071349029490925,90,81.2424295733362,0.0,-9.925337203728219,-0.23593750000000002,-0.3332438380740423,-0.16272271019710063,15.071349029490925,1225,214,214,1,90.0,50.625,117.58792107384065,-1.993234171657823,-21.234375000000004,-0.5474782772986563,117.58792107384065,-1.993234171657823,-21.234375000000004,-0.5474782772986563,2.9867331952755523,-0.5940152257759657,-0.9471331882884482,-21.022031250000005,-9.925337203728219,-1.3498672544208392,81.2424295733362,0.5,0.5,17,0.0254,1.24e-05,0.298,1.45e-05,0.99,1.19e-05,1.73,3.71e-05,0.03333333333333333,0.01,0.03920212388038635,0.014598001725971699,-10.169588088989258,0.013581668958067894,0.16761000454425812,-0.6470111012458801,0.05496247158374286,0.027065093873606318,-0.6656932836535445,-27.045155131946405
1576122333.8245234,328,369,31,29,1280,720,0.268359375,0.5326388888888889,32.01779260632336,90,80.7016356854221,0.0,-10.245394745593138,-0.23593750000000002,-0.3354497615029841,-0.16344407936144167,15.071349029490925,1225,214,214,1,90.0,50.625,117.58792107384065,-2.0064284800178487,-21.234375000000004,-0.54990531373943,117.58792107384065,-2.0064284800178487,-21.234375000000004,-0.54990531373943,2.9867331952755523,-0.5979348187924409,-0.9513451970744091,-21.022031250000005,-10.245394745593138,-1.516354609543781,80.7016356854221,0.5,0.5,17,0.0254,1.24e-05,0.298,1.45e-05,0.99,1.19e-05,1.73,3.71e-05,0.03333333333333333,0.01,0.04051639139652252,0.02042889967560768,-10.191692352294922,0.022482194006443024,0.19834963977336884,-0.649087131023407,0.0841372983764906,0.024695768278056522,-0.6734041627112413,-21.246315988869117
1576122333.8293836,328,369,31,29,1280,720,0.268359375,0.5326388888888889,32.01779260632336,90,80.62567715166239,0.0,-10.351706640024387,-0.231640625,-0.3349557840508655,-0.16973927892529656,15.017792606323361,1225,214,214,1,90.0,50.625,117.17006939725205,-2.0034738485285413,-20.84765625,-0.5710854244215585,117.17006939725205,-2.0034738485285413,-20.84765625,-0.5710854244215585,2.975601626611232,-0.5970309226458458,-0.988056362459927,-20.6387194921875,-10.351706640024387,-1.5726576731411943,80.62567715166239,0.5,0.5,17,0.0254,1.24e-05,0.298,1.45e-05,0.99,1.19e-05,1.73,3.71e-05,0.03333333333333333,0.01,0.04051639139652252,0.02042889967560768,-10.191692352294922,0.022482194006443024,0.19834963977336884,-0.649087131023407,0.0841372983764906,0.024695768278056522,-0.6734041627112413,-20.349877565967038
1576122333.8425398,328,369,31,29,1280,720,0.268359375,0.5326388888888889,32.01779260632336,90,80.41753396689542,0.0,-10.66495106819222,-0.231640625,-0.3381124698122731,-0.17802681122355005,15.017792606323361,1225,214,214,1,90.0,50.625,117.17006939725205,-2.022354959624811,-20.84765625,-0.5989687106586731,117.17006939725205,-2.022354959624811,-20.84765625,-0.5989687106586731,2.976119762690202,-0.6026891555792833,-1.0363193164314441,-20.6391796875,-10.66495106819222,-1.7344976181424714,80.41753396689542,0.5,0.5,17,0.0254,1.24e-05,0.298,1.45e-05,0.99,1.19e-05,1.73,3.71e-05,0.03333333333333333,0.01,0.04051639139652252,0.02042889967560768,-10.191692352294922,0.022482194006443024,0.19834963977336884,-0.649087131023407,0.0841372983764906,0.024695768278056522,-0.6734041627112413,-17.267290250135222
1576122333.8559828,334,370,30,28,1280,720,0.27265625,0.5333333333333333,33.123146848433,90,80.28924935390424,0.0,-10.794418157683458,-0.231640625,-0.339537854401064,-0.18058418583078437,15.017792606323361,1225,214,214,1,90.0,50.625,117.17006939725205,-2.030880624454962,-20.84765625,-0.607572961673667,117.17006939725205,-2.030880624454962,-20.84765625,-0.607572961673667,2.976119762690202,-0.6052147883015824,-1.0511331454667097,-20.6391796875,-10.794418157683458,-1.7991860196065448,80.28924935390424,0.5,0.5,17,0.0254,1.24e-05,0.298,1.45e-05,0.99,1.19e-05,1.73,3.71e-05,0.03333333333333333,0.01,0.0422455295920372,0.027868323028087616,-10.21760082244873,0.04556692764163017,0.2686012089252472,-0.876115083694458,0.10559408250767402,0.02736853105338509,-0.9109892685729571,-16.640647714543235
1576122333.8639607,334,370,30,28,1280,720,0.27265625,0.5333333333333333,33.123146848433,90,80.09964330254468,0.0,-10.793892233117367,-0.22734375,-0.33734771330505914,-0.17987935275293565,16.123146848433002,1225,214,214,1,90.0,50.625,125.79413530704498,-2.0177807150956806,-20.4609375,-0.6052015606640826,125.79413530704498,-2.0177807150956806,-20.4609375,-0.6052015606640826,3.2058648785270853,-0.6012796582299419,-1.0469899020511173,-20.2558679296875,-10.793892233117367,-1.7983740808689594,80.09964330254468,0.5,0.5,17,0.0254,1.24e-05,0.298,1.45e-05,0.99,1.19e-05,1.73,3.71e-05,0.03333333333333333,0.01,0.0422455295920372,0.027868323028087616,-10.21760082244873,0.04556692764163017,0.2686012089252472,-0.876115083694458,0.10559408250767402,0.02736853105338509,-0.9109892685729571,-15.494331943498116
1576122333.875809,334,370,30,28,1280,720,0.27265625,0.5333333333333333,33.123146848433,90,79.90876000581034,0.0,-10.627489188141993,-0.22734375,-0.3394686388243296,-0.17659237902502703,16.123146848433002,1225,214,214,1,90.0,50.625,125.79413530704498,-2.0304666247436534,-20.4609375,-0.5941425836356049,125.79413530704498,-2.0304666247436534,-20.4609375,-0.5941425836356049,3.1951710367989423,-0.6050974487425982,-1.0278256408848208,-20.256328125,-10.627489188141993,-1.7256974530054388,79.90876000581034,0.5,0.5,17,0.0254,1.24e-05,0.298,1.45e-05,0.99,1.19e-05,1.73,3.71e-05,0.03333333333333333,0.01,0.0422455295920372,0.027868323028087616,-10.21760082244873,0.04556692764163017,0.2686012089252472,-0.876115083694458,0.10559408250767402,0.02736853105338509,-0.9109892685729571,-15.121366048774984
1576122333.8879004,334,370,30,28,1280,720,0.27265625,0.5333333333333333,33.123146848433,90,79.70813685931955,0.0,-10.452694401997611,-0.22734375,-0.3394686388243296,-0.17659237902502703,16.123146848433002,1225,214,214,1,90.0,50.625,125.79413530704498,-2.0304666247436534,-20.4609375,-0.5941425836356049,125.79413530704498,-2.0304666247436534,-20.4609375,-0.5941425836356049,3.1951710367989423,-0.6050974487425982,-1.0278256408848208,-20.256328125,-10.452694401997611,-1.6887180617870494,79.70813685931955,0.5,0.5,17,0.0254,1.24e-05,0.298,1.45e-05,0.99,1.19e-05,1.73,3.71e-05,0.03333333333333333,0.01,0.044709742069244385,0.03776289150118828,-10.251437187194824,0.07077204436063766,0.3433491587638855,-1.1152760982513428,0.13874440683498146,0.025443654022417647,-1.1605346666341283,-15.838313930478298
1576122333.8972454,338,370,32,28,1280,720,0.2765625,0.5333333333333333,32.071349029490925,90,79.56980503805929,0.0,-10.417246573978892,-0.2234375,-0.3393285551326746,-0.17243943849834847,15.071349029490925,1225,214,214,1,90.0,50.625,117.58792107384065,-2.029628740980484,-20.109375,-0.5801700734523874,117.58792107384065,-2.029628740980484,-20.109375,-0.5801700734523874,2.9765574896263787,-0.6048088167260086,-1.0036854869560312,-19.907862890624997,-10.417246573978892,-1.730566844275129,79.56980503805929,0.5,0.5,17,0.0254,1.24e-05,0.298,1.45e-05,0.99,1.19e-05,1.73,3.71e-05,0.03333333333333333,0.01,0.044709742069244385,0.03776289150118828,-10.251437187194824,0.07077204436063766,0.3433491587638855,-1.1152760982513428,0.13874440683498146,0.025443654022417647,-1.1605346666341283,-16.491087062287463
1576122333.9101439,338,370,32,28,1280,720,0.2765625,0.5333333333333333,32.071349029490925,90,79.42686283910926,0.0,-10.47191626186932,-0.2234375,-0.34091680178767486,-0.17351933356778904,15.071349029490925,1225,214,214,1,90.0,50.625,117.58792107384065,-2.0391285340571206,-20.109375,-0.5838033652748043,117.58792107384065,-2.0391285340571206,-20.109375,-0.5838033652748043,2.9867331952755523,-0.607674077848983,-1.0099933014380724,-19.908281249999998,-10.47191626186932,-1.8323401847246097,79.42686283910926,0.5,0.5,17,0.0254,1.24e-05,0.298,1.45e-05,0.99,1.19e-05,1.73,3.71e-05,0.03333333333333333,0.01,0.044709742069244385,0.03776289150118828,-10.251437187194824,0.07077204436063766,0.3433491587638855,-1.1152760982513428,0.13874440683498146,0.025443654022417647,-1.1605346666341283,-17.718712820306997
1576122333.9219167,338,370,32,28,1280,720,0.2765625,0.5333333333333333,32.071349029490925,90,79.28357913070073,0.0,-10.608189634868475,-0.2234375,-0.3425088429922141,-0.17621115328135262,15.071349029490925,1225,214,214,1,90.0,50.625,117.58792107384065,-2.048651023504832,-20.109375,-0.5928599549652985,117.58792107384065,-2.048651023504832,-20.109375,-0.5928599549652985,2.9867331952755523,-0.610511812614139,-1.0256813220377181,-19.908281249999998,-10.608189634868475,-1.9835780753084402,79.28357913070073,0.5,0.5,17,0.0254,1.24e-05,0.298,1.45e-05,0.99,1.19e-05,1.73,3.71e-05,0.03333333333333333,0.01,0.04785448685288429,0.048022013157606125,-10.289849281311035,0.08627905696630478,0.3889782726764679,-1.225806474685669,0.1657705121918106,0.03180428210462023,-1.2778334439957917,-17.973555715976637
1576122333.9329407,344,370,32,28,1280,720,0.28125,0.5333333333333333,32.071349029490925,90,78.90989265102016,0.0,-11.082973159548986,-0.21875,-0.3419734149886649,-0.1855895932750417,15.071349029490925,1225,214,214,1,90.0,50.625,117.58792107384065,-2.045448463483603,-19.6875,-0.6244135848506076,117.58792107384065,-2.045448463483603,-19.6875,-0.6244135848506076,2.9867331952755523,-0.6095389984060828,-1.0803525657584256,-19.49012296875,-11.082973159548986,-2.3985011817727253,78.90989265102016,0.5,0.5,17,0.0254,1.24e-05,0.298,1.45e-05,0.99,1.19e-05,1.73,3.71e-05,0.03333333333333333,0.01,0.04785448685288429,0.048022013157606125,-10.289849281311035,0.08627905696630478,0.3889782726764679,-1.225806474685669,0.1657705121918106,0.03180428210462023,-1.2778334439957917,-19.316323095476953
1576122333.9514222,344,370,32,28,1280,720,0.28125,0.5333333333333333,32.071349029490925,90,78.43587752262128,0.0,-11.436881118940489,-0.21875,-0.3445682038543527,-0.18997390013560522,15.071349029490925,1225,214,214,1,90.0,50.625,117.58792107384065,-2.0609686959512685,-19.6875,-0.6391645238207279,117.58792107384065,-2.0609686959512685,-19.6875,-0.6391645238207279,2.9867331952755523,-0.614191175730556,-1.1058093521934385,-19.490625,-11.436881118940489,-2.5971962939268622,78.43587752262128,0.5,0.5,17,0.0254,1.24e-05,0.298,1.45e-05,0.99,1.19e-05,1.73,3.71e-05,0.03333333333333333,0.01,0.05128360912203789,0.05883147940039635,-10.32809066772461,0.09227898716926575,0.40317827463150024,-1.1327526569366455,0.18337305587775543,0.04171880882262903,-1.1911467490503944,-20.10263496329633
1576122333.9618847,350,370,30,28,1280,720,0.28515625,0.5333333333333333,33.123146848433,90,78.43587752262128,0.0,-11.436881118940489,-0.21484375,-0.3433339997486524,-0.19258036778154053,16.123146848433002,1225,214,214,1,90.0,50.625,125.79413530704498,-2.053586540552687,-19.3359375,-0.6479339476762112,125.79413530704498,-2.053586540552687,-19.3359375,-0.6479339476762112,3.205346742448116,-0.6119580849593728,-1.1209582640423492,-19.142159765625,-11.436881118940489,-2.5971962939268622,78.43587752262128,0.5,0.5,17,0.0254,1.24e-05,0.298,1.45e-05,0.99,1.19e-05,1.73,3.71e-05,0.03333333333333333,0.01,0.05128360912203789,0.05883147940039635,-10.32809066772461,0.09227898716926575,0.40317827463150024,-1.1327526569366455,0.18337305587775543,0.04171880882262903,-1.1911467490503944,-20.10263496329633
1576122333.9706447,350,370,30,28,1280,720,0.28515625,0.5333333333333333,33.123146848433,90,78.11283006544718,0.0,-11.500735703717293,-0.21484375,-0.34692341593947573,-0.19384169291293418,16.123146848433002,1225,214,214,1,90.0,50.625,125.79413530704498,-2.07505594580621,-19.3359375,-0.652177658398657,125.79413530704498,-2.07505594580621,-19.3359375,-0.652177658398657,3.1951710367989423,-0.6183978024878682,-1.128283093196457,-19.142578125,-11.500735703717293,-2.5452601758083198,78.11283006544718,0.5,0.5,17,0.0254,1.24e-05,0.298,1.45e-05,0.99,1.19e-05,1.73,3.71e-05,0.03333333333333333,0.01,0.05128360912203789,0.05883147940039635,-10.32809066772461,0.09227898716926575,0.40317827463150024,-1.1327526569366455,0.18337305587775543,0.04171880882262903,-1.1911467490503944,-19.919493685986193
1576122333.9796417,350,370,30,28,1280,720,0.28515625,0.5333333333333333,33.123146848433,90,78.11283006544718,0.0,-11.500735703717293,-0.21484375,-0.34692341593947573,-0.19384169291293418,16.123146848433002,1225,214,214,1,90.0,50.625,125.79413530704498,-2.07505594580621,-19.3359375,-0.652177658398657,125.79413530704498,-2.07505594580621,-19.3359375,-0.652177658398657,3.1951710367989423,-0.6183978024878682,-1.128283093196457,-19.142578125,-11.500735703717293,-2.5452601758083198,78.11283006544718,0.5,0.5,17,0.0254,1.24e-05,0.298,1.45e-05,0.99,1.19e-05,1.73,3.71e-05,0.03333333333333333,0.01,0.05128360912203789,0.05883147940039635,-10.32809066772461,0.09227898716926575,0.40317827463150024,-1.1327526569366455,0.18337305587775543,0.04171880882262903,-1.1911467490503944,-19.919493685986193
1576122333.9984348,350,370,30,28,1280,720,0.28515625,0.5333333333333333,33.123146848433,90,77.70590105507617,0.0,-11.464278715248703,-0.21484375,-0.35144484938804255,-0.1931215548691102,16.123146848433002,1225,214,214,1,90.0,50.625,125.79413530704498,-2.1021000337228712,-19.3359375,-0.6497547640456044,125.79413530704498,-2.1021000337228712,-19.3359375,-0.6497547640456044,3.1951710367989423,-0.6264650239768947,-1.1240667528608457,-19.142578125,-11.464278715248703,-2.4430752097396398,77.70590105507617,0.5,0.5,17,0.0254,1.24e-05,0.298,1.45e-05,0.99,1.19e-05,1.73,3.71e-05,0.03333333333333333,0.01,0.05560910329222679,0.07284143567085266,-10.369559288024902,0.0943637415766716,0.40593621134757996,-0.9184972643852234,0.22517221657673975,0.034944729355857386,-0.9825488725060338,-19.778510043780667
1576122334.0103083,356,368,30,28,1280,720,0.28984375,0.5305555555555556,33.123146848433,90,77.38707465480914,0.0,-11.439077878532295,-0.21015625,-0.35029986494656506,-0.19540153834137866,16.123146848433002,1225,214,214,1,90.0,50.625,125.79413530704498,-2.095251528652352,-18.9140625,-0.6574257364756665,125.79413530704498,-2.095251528652352,-18.9140625,-0.6574257364756665,3.1951710367989423,-0.6243750252060485,-1.1373749834106186,-18.72441984375,-11.439077878532295,-2.4267312073860343,77.38707465480914,0.5,0.5,17,0.0254,1.24e-05,0.298,1.45e-05,0.99,1.19e-05,1.73,3.71e-05,0.03333333333333333,0.01,0.05560910329222679,0.07284143567085266,-10.369559288024902,0.0943637415766716,0.40593621134757996,-0.9184972643852234,0.22517221657673975,0.034944729355857386,-0.9825488725060338,-19.43280514158235
1576122334.0291083,369,336,31,28,1280,720,0.300390625,0.4861111111111111,32.584523198502275,90,77.08372546320136,0.0,-11.462620686827682,-0.21015625,-0.3536704115199849,-0.19586658146820113,16.123146848433002,1225,214,214,1,90.0,50.625,125.79413530704498,-2.1154118072223396,-18.9140625,-0.6589903675565645,125.79413530704498,-2.1154118072223396,-18.9140625,-0.6589903675565645,3.1951710367989423,-0.63040712248641,-1.14005804053496,-18.724921875,-11.462620686827682,-2.467022706743351,77.08372546320136,0.5,0.5,17,0.0254,1.24e-05,0.298,1.45e-05,0.99,1.19e-05,1.73,3.71e-05,0.03333333333333333,0.01,0.059098802506923676,0.08437930047512054,-10.397332191467285,0.10102199763059616,0.417018860578537,-0.8047997951507568,0.26083038718249385,0.03091230892180781,-0.8733984329259761,-18.296898578832334
1576122334.0385838,369,336,31,28,1280,720,0.300390625,0.4861111111111111,32.584523198502275,90,76.93975873587584,0.0,-11.48479233464719,-0.21015625,-0.3536704115199849,-0.19586658146820113,16.123146848433002,1225,214,214,1,90.0,50.625,125.79413530704498,-2.1154118072223396,-18.9140625,-0.6589903675565645,125.79413530704498,-2.1154118072223396,-18.9140625,-0.6589903675565645,3.1951710367989423,-0.63040712248641,-1.14005804053496,-18.724921875,-11.48479233464719,-2.487380512451397,76.93975873587584,0.5,0.5,17,0.0254,1.24e-05,0.298,1.45e-05,0.99,1.19e-05,1.73,3.71e-05,0.03333333333333333,0.01,0.059098802506923676,0.08437930047512054,-10.397332191467285,0.10102199763059616,0.417018860578537,-0.8047997951507568,0.26083038718249385,0.03091230892180781,-0.8733984329259761,-17.989422245418577
1576122334.04933,369,336,31,28,1280,720,0.300390625,0.4861111111111111,32.584523198502275,90,76.65999418747211,0.0,-11.52689788955938,-0.19960937499999998,-0.3447231668236017,-0.24074898438809267,15.584523198502275,1225,214,214,1,90.0,50.625,121.5917487049813,-2.061895577262664,-17.964843749999996,-0.8099965829879753,121.5917487049813,-2.061895577262664,-17.964843749999996,-0.8099965829879753,3.0832194577199656,-0.6143672834908324,-1.4018543216284476,-17.784065742187497,-11.52689788955938,-2.4857762717700904,76.65999418747211,0.5,0.5,17,0.0254,1.24e-05,0.298,1.45e-05,0.99,1.19e-05,1.73,3.71e-05,0.03333333333333333,0.01,0.059098802506923676,0.08437930047512054,-10.397332191467285,0.10102199763059616,0.417018860578537,-0.8047997951507568,0.26083038718249385,0.03091230892180781,-0.8733984329259761,-17.089947803430427
1576122334.0598028,391,336,29,26,1280,720,0.316796875,0.4847222222222222,34.96113795500303,90,76.59025795604629,0.0,-11.532491814489621,-0.19960937499999998,-0.34783166180586544,-0.24158069905302482,15.584523198502275,1225,214,214,1,90.0,50.625,121.5917487049813,-2.080488444446298,-17.964843749999996,-0.8127948753185882,121.5917487049813,-2.080488444446298,-17.964843749999996,-0.8127948753185882,3.0884304171065247,-0.620012516102413,-1.406145515965704,-17.785195312499997,-11.532491814489621,-2.4761085658867605,76.59025795604629,0.5,0.5,17,0.0254,1.24e-05,0.298,1.45e-05,0.99,1.19e-05,1.73,3.71e-05,0.03333333333333333,0.01,0.061908870935440063,0.09356476366519928,-10.417069435119629,0.11421684920787811,0.44361841678619385,-0.8205825686454773,0.2847891017036346,0.030070323758761362,-0.8950918855064847,-16.94441354769038
1576122334.0785484,391,336,29,26,1280,720,0.316796875,0.4847222222222222,34.96113795500303,90,76.18077445492568,0.0,-11.515824445367498,-0.18320312500000002,-0.3367500755008258,-0.24275085324182713,17.961137955003032,1225,214,214,1,90.0,50.625,140.13429508642992,-2.01420605907036,-16.488281250000004,-0.8167318426827829,140.13429508642992,-2.01420605907036,-16.488281250000004,-0.8167318426827829,3.5594110951953195,-0.600272865695287,-1.4129419782876065,-16.323398437500003,-11.515824445367498,-2.4179379791598774,76.18077445492568,0.5,0.5,17,0.0254,1.24e-05,0.298,1.45e-05,0.99,1.19e-05,1.73,3.71e-05,0.03333333333333333,0.01,0.061908870935440063,0.09356476366519928,-10.417069435119629,0.11421684920787811,0.44361841678619385,-0.8205825686454773,0.2847891017036346,0.030070323758761362,-0.8950918855064847,-16.48238710883216
1576122334.0831566,391,336,29,26,1280,720,0.316796875,0.4847222222222222,34.96113795500303,90,76.18077445492568,0.0,-11.515824445367498,-0.18320312500000002,-0.3367500755008258,-0.24275085324182713,17.961137955003032,1225,214,214,1,90.0,50.625,140.13429508642992,-2.01420605907036,-16.488281250000004,-0.8167318426827829,140.13429508642992,-2.01420605907036,-16.488281250000004,-0.8167318426827829,3.5594110951953195,-0.600272865695287,-1.4129419782876065,-16.323398437500003,-11.515824445367498,-2.4179379791598774,76.18077445492568,0.5,0.5,17,0.0254,1.24e-05,0.298,1.45e-05,0.99,1.19e-05,1.73,3.71e-05,0.03333333333333333,0.01,0.061908870935440063,0.09356476366519928,-10.417069435119629,0.11421684920787811,0.44361841678619385,-0.8205825686454773,0.2847891017036346,0.030070323758761362,-0.8950918855064847,-16.48238710883216
1576122334.09368,391,336,29,26,1280,720,0.316796875,0.4847222222222222,34.96113795500303,90,75.98391474266757,0.0,-11.503165543514525,-0.18320312500000002,-0.33893740563702707,-0.24250080085954617,17.961137955003032,1225,214,214,1,90.0,50.625,140.13429508642992,-2.0272891552121246,-16.488281250000004,-0.8158905449480058,140.13429508642992,-2.0272891552121246,-16.488281250000004,-0.8158905449480058,3.5594110951953195,-0.6041511387426187,-1.4114875215454539,-16.323398437500003,-11.503165543514525,-2.4453315200432715,75.98391474266757,0.5,0.5,17,0.0254,1.24e-05,0.298,1.45e-05,0.99,1.19e-05,1.73,3.71e-05,0.03333333333333333,0.01,0.0674448236823082,0.11083921045064926,-10.453519821166992,0.14698083698749542,0.507829487323761,-0.970698356628418,0.3238152235847337,0.023169448521444515,-1.056577650638206,-16.04847202105042
1576122334.1083524,418,320,28,26,1280,720,0.3375,0.4625,35.579967199732856,90,75.72200430875426,0.0,-11.511347256366554,-0.18320312500000002,-0.3396596601962605,-0.24250994150776875,17.961137955003032,1225,214,214,1,90.0,50.625,140.13429508642992,-2.0316091824823057,-16.488281250000004,-0.8159212985308107,140.13429508642992,-2.0316091824823057,-16.488281250000004,-0.8159212985308107,3.5594110951953195,-0.6054258004192689,-1.4115439605540947,-16.323398437500003,-11.511347256366554,-2.540200713180633,75.72200430875426,0.5,0.5,17,0.0254,1.24e-05,0.298,1.45e-05,0.99,1.19e-05,1.73,3.71e-05,0.03333333333333333,0.01,0.0674448236823082,0.11083921045064926,-10.453519821166992,0.14698083698749542,0.507829487323761,-0.970698356628418,0.3238152235847337,0.023169448521444515,-1.056577650638206,-16.05031446457903
1576122334.1221952,418,320,28,26,1280,720,0.3375,0.4625,35.579967199732856,90,75.53017844591446,0.0,-11.533026276792175,-0.16249999999999998,-0.32114439656939703,-0.2648846371627961,18.579967199732856,1225,214,214,1,90.0,50.625,144.96245242291573,-1.920863680415085,-14.624999999999998,-0.8912006483981925,144.96245242291573,-1.920863680415085,-14.624999999999998,-0.8912006483981925,3.688033206639302,-0.5722567957856979,-1.5420564081168808,-14.476532695312498,-11.533026276792175,-2.614538998003171,75.53017844591446,0.5,0.5,17,0.0254,1.24e-05,0.298,1.45e-05,0.99,1.19e-05,1.73,3.71e-05,0.03333333333333333,0.01,0.07275266945362091,0.12407398223876953,-10.485907554626465,0.1706123650074005,0.5518556237220764,-1.066494107246399,0.3521047737385174,0.025649825659399626,-1.1603564986988197,-15.81208088142357
1576122334.1357455,418,320,28,26,1280,720,0.3375,0.4625,35.579967199732856,90,75.33516288473226,0.0,-11.559766467392775,-0.16249999999999998,-0.325442634614086,-0.2658410660225733,18.579967199732856,1225,214,214,1,90.0,50.625,144.96245242291573,-1.9465727677851874,-14.624999999999998,-0.8944185398890316,144.96245242291573,-1.9465727677851874,-14.624999999999998,-0.8944185398890316,3.6820462915420595,-0.5801159629766725,-1.5473560123854557,-14.478749999999998,-11.559766467392775,-2.650987662178709,75.33516288473226,0.5,0.5,17,0.0254,1.24e-05,0.298,1.45e-05,0.99,1.19e-05,1.73,3.71e-05,0.03333333333333333,0.01,0.07275266945362091,0.12407398223876953,-10.485907554626465,0.1706123650074005,0.5518556237220764,-1.066494107246399,0.3521047737385174,0.025649825659399626,-1.1603564986988197,-15.945114183435201
1576122334.1509516,427,308,29,28,1280,720,0.344921875,0.44722222222222224,33.68939550449263,90,75.08556728189248,0.0,-11.590451946012703,-0.16249999999999998,-0.3268433546308742,-0.26614270741391854,18.579967199732856,1225,214,214,1,90.0,50.625,144.96245242291573,-1.9549509062033597,-14.624999999999998,-0.8954334081215951,144.96245242291573,-1.9549509062033597,-14.624999999999998,-0.8954334081215951,3.6820462915420595,-0.5825875183493076,-1.5491035612115023,-14.478749999999998,-11.590451946012703,-2.6104221014809457,75.08556728189248,0.5,0.5,17,0.0254,1.24e-05,0.298,1.45e-05,0.99,1.19e-05,1.73,3.71e-05,0.03333333333333333,0.01,0.07275266945362091,0.12407398223876953,-10.485907554626465,0.1706123650074005,0.5518556237220764,-1.066494107246399,0.3521047737385174,0.025649825659399626,-1.1603564986988197,-15.364288556795659
1576122334.1648984,427,308,29,28,1280,720,0.344921875,0.44722222222222224,33.68939550449263,90,74.96127149937658,0.0,-11.599127140032266,-0.16249999999999998,-0.3268433546308742,-0.26614270741391854,18.579967199732856,1225,214,214,1,90.0,50.625,144.96245242291573,-1.9549509062033597,-14.624999999999998,-0.8954334081215951,144.96245242291573,-1.9549509062033597,-14.624999999999998,-0.8954334081215951,3.6820462915420595,-0.5825875183493076,-1.5491035612115023,-14.478749999999998,-11.599127140032266,-2.557801897228344,74.96127149937658,0.5,0.5,17,0.0254,1.24e-05,0.298,1.45e-05,0.99,1.19e-05,1.73,3.71e-05,0.03333333333333333,0.01,0.0786895602941513,0.1379913091659546,-10.52003002166748,0.1900964379310608,0.5801243782043457,-1.0763440132141113,0.38082510699411914,0.01925306662045355,-1.177199618582822,-15.19899114869218
1576122334.17881,427,308,29,28,1280,720,0.344921875,0.44722222222222224,33.68939550449263,90,74.5997495866078,0.0,-11.585707525860483,-0.155078125,-0.3261920184821356,-0.28163125977008363,16.68939550449263,1225,214,214,1,90.0,50.625,130.21205450901022,-1.951055063818381,-13.957031250000002,-0.9475444253946739,130.21205450901022,-1.951055063818381,-13.957031250000002,-0.9475444253946739,3.3073861845288595,-0.5814492472665846,-1.6392485471548117,-13.817460937500002,-11.585707525860483,-2.3746527225119793,74.5997495866078,0.5,0.5,17,0.0254,1.24e-05,0.298,1.45e-05,0.99,1.19e-05,1.73,3.71e-05,0.03333333333333333,0.01,0.0786895602941513,0.1379913091659546,-10.52003002166748,0.1900964379310608,0.5801243782043457,-1.0763440132141113,0.38082510699411914,0.01925306662045355,-1.177199618582822,-14.623824333779991
1576122334.190807,454,305,27,27,1280,720,0.365234375,0.4423611111111111,35.55555555555556,90,74.48171025737165,0.0,-11.575302586433615,-0.155078125,-0.3261920184821356,-0.28163125977008363,16.68939550449263,1225,214,214,1,90.0,50.625,130.21205450901022,-1.951055063818381,-13.957031250000002,-0.9475444253946739,130.21205450901022,-1.951055063818381,-13.957031250000002,-0.9475444253946739,3.3073861845288595,-0.5814492472665846,-1.6392485471548117,-13.817460937500002,-11.575302586433615,-2.3287719939794767,74.48171025737165,0.5,0.5,17,0.0254,1.24e-05,0.298,1.45e-05,0.99,1.19e-05,1.73,3.71e-05,0.03333333333333333,0.01,0.08504917472600937,0.15294697880744934,-10.553326606750488,0.19931650161743164,0.5952047109603882,-1.004589319229126,0.4122386640030805,0.011923346300982754,-1.1104560026356882,-14.435710678754084
1576122334.2037666,454,305,27,27,1280,720,0.365234375,0.4423611111111111,35.55555555555556,90,74.30753360334715,0.0,-11.560877226906548,-0.134765625,-0.3091263627405872,-0.28600189584012936,18.555555555555557,1225,214,214,1,90.0,50.625,144.77199074074076,-1.8489801135885588,-12.12890625,-0.9622493691817436,144.77199074074076,-1.8489801135885588,-12.12890625,-0.9622493691817436,3.677208564814815,-0.5510128584739944,-1.664687851927027,-12.0076171875,-11.560877226906548,-2.282447089707511,74.30753360334715,0.5,0.5,17,0.0254,1.24e-05,0.298,1.45e-05,0.99,1.19e-05,1.73,3.71e-05,0.03333333333333333,0.01,0.08504917472600937,0.15294697880744934,-10.553326606750488,0.19931650161743164,0.5952047109603882,-1.004589319229126,0.4122386640030805,0.011923346300982754,-1.1104560026356882,-14.226343182578391
1576122334.2147748,469,300,27,28,1280,720,0.376953125,0.4361111111111111,34.91486243775878,90,74.19533408585136,0.0,-11.557914632354054,-0.123046875,-0.298654274046096,-0.2921933754539072,17.914862437758778,1225,214,214,1,90.0,50.625,139.77324964459714,-1.7863433213972097,-11.07421875,-0.9830805155458561,139.77324964459714,-1.7863433213972097,-11.07421875,-0.9830805155458561,3.544042102013549,-0.532239486427691,-1.700806575447342,-10.962221484375,-11.557914632354054,-2.264984216990493,74.19533408585136,0.5,0.5,17,0.0254,1.24e-05,0.298,1.45e-05,0.99,1.19e-05,1.73,3.71e-05,0.03333333333333333,0.01,0.08504917472600937,0.15294697880744934,-10.553326606750488,0.19931650161743164,0.5952047109603882,-1.004589319229126,0.4122386640030805,0.011923346300982754,-1.1104560026356882,-13.82143932329628
1576122334.2355914,469,300,27,28,1280,720,0.376953125,0.4361111111111111,34.91486243775878,90,73.76245035663429,0.0,-11.567685217961758,-0.123046875,-0.3017116943915661,-0.2922302416107607,17.914862437758778,1225,214,214,1,90.0,50.625,139.77324964459714,-1.8046306954261897,-11.07421875,-0.9832045512137744,139.77324964459714,-1.8046306954261897,-11.07421875,-0.9832045512137744,3.550240540972767,-0.5378064639293465,-1.7009443337721577,-10.9634765625,-11.567685217961758,-2.235124124043078,73.76245035663429,0.5,0.5,17,0.0254,1.24e-05,0.298,1.45e-05,0.99,1.19e-05,1.73,3.71e-05,0.03333333333333333,0.01,0.09162555634975433,0.16861343383789062,-10.583818435668945,0.20716418325901031,0.6059431433677673,-0.9143283367156982,0.44340750120181016,0.007857759258519233,-1.024406385492828,-12.899121313629024
1576122334.240378,469,300,27,28,1280,720,0.376953125,0.4361111111111111,34.91486243775878,90,73.76245035663429,0.0,-11.567685217961758,-0.123046875,-0.303464093259619,-0.2923863746757878,17.914862437758778,1225,214,214,1,90.0,50.625,139.77324964459714,-1.815112333515478,-11.07421875,-0.9837298587222768,139.77324964459714,-1.815112333515478,-11.07421875,-0.9837298587222768,3.550240540972767,-0.5409186737628419,-1.7018546044803953,-10.9634765625,-11.567685217961758,-2.235124124043078,73.76245035663429,0.5,0.5,17,0.0254,1.24e-05,0.298,1.45e-05,0.99,1.19e-05,1.73,3.71e-05,0.03333333333333333,0.01,0.09162555634975433,0.16861343383789062,-10.583818435668945,0.20716418325901031,0.6059431433677673,-0.9143283367156982,0.44340750120181016,0.007857759258519233,-1.024406385492828,-12.899121313629024
1576122334.2522805,469,300,27,28,1280,720,0.376953125,0.4361111111111111,34.91486243775878,90,73.66091959462204,0.0,-11.574304525041146,-0.123046875,-0.303464093259619,-0.2923863746757878,17.914862437758778,1225,214,214,1,90.0,50.625,139.77324964459714,-1.815112333515478,-11.07421875,-0.9837298587222768,139.77324964459714,-1.815112333515478,-11.07421875,-0.9837298587222768,3.550240540972767,-0.5409186737628419,-1.7018546044803953,-10.9634765625,-11.574304525041146,-2.223747803650187,73.66091959462204,0.5,0.5,17,0.0254,1.24e-05,0.298,1.45e-05,0.99,1.19e-05,1.73,3.71e-05,0.03333333333333333,0.01,0.10020449012517929,0.1892961710691452,-10.619200706481934,0.2212115079164505,0.6303731799125671,-0.8717010617256165,0.4786831361648642,0.0034159228306505154,-0.9884424135092058,-12.47509633976546
1576122334.2625208,482,308,28,26,1280,720,0.3875,0.44583333333333336,35.579967199732856,90,73.56120566292903,0.0,-11.580584883982972,-0.11249999999999999,-0.2951532704118997,-0.28291896067126854,18.579967199732856,1225,214,214,1,90.0,50.625,144.96245242291573,-1.7654027389122973,-10.124999999999998,-0.9518768770248287,144.96245242291573,-1.7654027389122973,-10.124999999999998,-0.9518768770248287,3.6884809029871746,-0.52601793728369,-1.646628822690856,-10.022620429687498,-11.580584883982972,-2.210489125810723,73.56120566292903,0.5,0.5,17,0.0254,1.24e-05,0.298,1.45e-05,0.99,1.19e-05,1.73,3.71e-05,0.03333333333333333,0.01,0.10020449012517929,0.1892961710691452,-10.619200706481934,0.2212115079164505,0.6303731799125671,-0.8717010617256165,0.4786831361648642,0.0034159228306505154,-0.9884424135092058,-12.33201839080568
1576122334.2744493,482,308,28,26,1280,720,0.3875,0.44583333333333336,35.579967199732856,90,73.37185232856876,0.0,-11.588604379842215,-0.11249999999999999,-0.297257196349236,-0.283077370466019,18.579967199732856,1225,214,214,1,90.0,50.625,144.96245242291573,-1.77798696881786,-10.124999999999998,-0.9524098445585686,144.96245242291573,-1.77798696881786,-10.124999999999998,-0.9524098445585686,3.6820462915420595,-0.5298583638410853,-1.6476710083958737,-10.023749999999998,-11.588604379842215,-2.1799280846997355,73.37185232856876,0.5,0.5,17,0.0254,1.24e-05,0.298,1.45e-05,0.99,1.19e-05,1.73,3.71e-05,0.03333333333333333,0.01,0.10020449012517929,0.1892961710691452,-10.619200706481934,0.2212115079164505,0.6303731799125671,-0.8717010617256165,0.4786831361648642,0.0034159228306505154,-0.9884424135092058,-11.514394374510026
1576122334.2840931,482,308,28,26,1280,720,0.3875,0.44583333333333336,35.579967199732856,90,73.32534557051015,0.0,-11.590175323351318,-0.11249999999999999,-0.2977739381054427,-0.2831084014489149,18.579967199732856,1225,214,214,1,90.0,50.625,144.96245242291573,-1.7810777606306853,-10.124999999999998,-0.9525142478655081,144.96245242291573,-1.7810777606306853,-10.124999999999998,-0.9525142478655081,3.6820462915420595,-0.5307656543160728,-1.6478500361435977,-10.023749999999998,-11.590175323351318,-2.170277240845919,73.32534557051015,0.5,0.5,17,0.0254,1.24e-05,0.298,1.45e-05,0.99,1.19e-05,1.73,3.71e-05,0.03333333333333333,0.01,0.10020449012517929,0.1892961710691452,-10.619200706481934,0.2212115079164505,0.6303731799125671,-0.8717010617256165,0.4786831361648642,0.0034159228306505154,-0.9884424135092058,-11.301012434649657
1576122334.298789,494,304,28,26,1280,720,0.396875,0.44027777777777777,35.579967199732856,90,73.11664231023124,0.0,-11.60409354133251,-0.10312500000000002,-0.2898474694464209,-0.28883486351570237,18.579967199732856,1225,214,214,1,90.0,50.625,144.96245242291573,-1.7336671069692466,-9.281250000000002,-0.9717808492117089,144.96245242291573,-1.7336671069692466,-9.281250000000002,-0.9717808492117089,3.6820462915420595,-0.5165640524290264,-1.6812523482272508,-9.187433437500001,-11.60409354133251,-2.1281774489058414,73.11664231023124,0.5,0.5,17,0.0254,1.24e-05,0.298,1.45e-05,0.99,1.19e-05,1.73,3.71e-05,0.03333333333333333,0.01,0.10758887976408005,0.20711232721805573,-10.64798641204834,0.2399277687072754,0.6657068133354187,-0.9256523847579956,0.5061779407638732,0.0009198295931806544,-1.049450465302569,-9.560652913373728
1576122334.312448,494,304,28,26,1280,720,0.396875,0.44027777777777777,35.579967199732856,90,73.00420373611449,0.0,-11.616188952578957,-0.10312500000000002,-0.2907178632196529,-0.288938884767062,18.579967199732856,1225,214,214,1,90.0,50.625,144.96245242291573,-1.738873200566148,-9.281250000000002,-0.9721308272536664,144.96245242291573,-1.738873200566148,-9.281250000000002,-0.9721308272536664,3.6820462915420595,-0.5181917626044276,-1.6817876295673784,-9.188437500000001,-11.616188952578957,-2.1152540906659425,73.00420373611449,0.5,0.5,17,0.0254,1.24e-05,0.298,1.45e-05,0.99,1.19e-05,1.73,3.71e-05,0.03333333333333333,0.01,0.10758887976408005,0.20711232721805573,-10.64798641204834,0.2399277687072754,0.6657068133354187,-0.9256523847579956,0.5061779407638732,0.0009198295931806544,-1.049450465302569,-9.144828435382413
1576122334.319228,508,298,28,26,1280,720,0.4078125,0.43194444444444446,35.579967199732856,90,72.88784463341415,0.0,-11.625659863636827,-0.10312500000000002,-0.2932600596287317,-0.2893648861952953,18.579967199732856,1225,214,214,1,90.0,50.625,144.96245242291573,-1.7540788613307317,-9.281250000000002,-0.9735641030869749,144.96245242291573,-1.7540788613307317,-9.281250000000002,-0.9735641030869749,3.6820462915420595,-0.5227375488846667,-1.6842712157938082,-9.188437500000001,-11.625659863636827,-2.1102430796926805,72.88784463341415,0.5,0.5,17,0.0254,1.24e-05,0.298,1.45e-05,0.99,1.19e-05,1.73,3.71e-05,0.03333333333333333,0.01,0.11615011096000671,0.22379560768604279,-10.678504943847656,0.25892555713653564,0.7008947730064392,-0.9944748878479004,0.5303452289930408,0.0002019616046618905,-1.1251711544570173,-9.488783101605915
1576122334.3313048,508,298,28,26,1280,720,0.4078125,0.43194444444444446,35.579967199732856,90,72.7764988895646,0.0,-11.637537562603478,-0.09218749999999998,-0.28355973456039324,-0.2979328407427847,18.579967199732856,1225,214,214,1,90.0,50.625,144.96245242291573,-1.6960582254079595,-8.296874999999998,-1.0023908660504905,144.96245242291573,-1.6960582254079595,-8.296874999999998,-1.0023908660504905,3.6820462915420595,-0.5053412212494839,-1.7342431455579432,-8.212734843749997,-11.637537562603478,-2.114771495112399,72.7764988895646,0.5,0.5,17,0.0254,1.24e-05,0.298,1.45e-05,0.99,1.19e-05,1.73,3.71e-05,0.03333333333333333,0.01,0.11615011096000671,0.22379560768604279,-10.678504943847656,0.25892555713653564,0.7008947730064392,-0.9944748878479004,0.5303452289930408,0.0002019616046618905,-1.1251711544570173,-9.201401184730337
1576122334.3400717,508,298,28,26,1280,720,0.4078125,0.43194444444444446,35.579967199732856,90,72.70379835603899,0.0,-11.644413855550388,-0.09218749999999998,-0.2843675182662334,-0.2980686687516126,18.579967199732856,1225,214,214,1,90.0,50.625,144.96245242291573,-1.7008898288821437,-8.296874999999998,-1.002847857482061,144.96245242291573,-1.7008898288821437,-8.296874999999998,-1.002847857482061,3.6820462915420595,-0.5068721748319164,-1.7349284888821765,-8.213906249999997,-11.644413855550388,-2.1133085539695466,72.70379835603899,0.5,0.5,17,0.0254,1.24e-05,0.298,1.45e-05,0.99,1.19e-05,1.73,3.71e-05,0.03333333333333333,0.01,0.11615011096000671,0.22379560768604279,-10.678504943847656,0.25892555713653564,0.7008947730064392,-0.9944748878479004,0.5303452289930408,0.0002019616046618905,-1.1251711544570173,-8.991901353639474
1576122334.3500462,508,298,28,26,1280,720,0.4078125,0.43194444444444446,35.579967199732856,90,72.59649608417809,0.0,-11.64971578989361,-0.09218749999999998,-0.2843675182662334,-0.2980686687516126,18.579967199732856,1225,214,214,1,90.0,50.625,144.96245242291573,-1.7008898288821437,-8.296874999999998,-1.002847857482061,144.96245242291573,-1.7008898288821437,-8.296874999999998,-1.002847857482061,3.6820462915420595,-0.5068721748319164,-1.7349284888821765,-8.213906249999997,-11.64971578989361,-2.111358108074685,72.59649608417809,0.5,0.5,17,0.0254,1.24e-05,0.298,1.45e-05,0.99,1.19e-05,1.73,3.71e-05,0.03333333333333333,0.01,0.12538263201713562,0.24112805724143982,-10.710724830627441,0.27532973885536194,0.7283384799957275,-1.0269724130630493,0.5539601677621729,-0.0020107008454633216,-1.1636493601374112,-8.800997566337617
1576122334.363915,520,300,26,26,1280,720,0.41640625,0.43472222222222223,36.92307692307692,90,72.53020909828311,0.0,-11.649113879473003,-0.08359375000000002,-0.2777025377968544,-0.2953837309525531,19.92307692307692,1225,214,214,1,90.0,50.625,155.44150641025638,-1.6610245251400635,-7.523437500000002,-0.9938144218964403,155.44150641025638,-1.6610245251400635,-7.523437500000002,-0.9938144218964403,3.961208289764814,-0.49491716356161536,-1.7192641285749122,-7.447282734375002,-11.649113879473003,-2.102113447033073,72.53020909828311,0.5,0.5,17,0.0254,1.24e-05,0.298,1.45e-05,0.99,1.19e-05,1.73,3.71e-05,0.03333333333333333,0.01,0.12538263201713562,0.24112805724143982,-10.710724830627441,0.27532973885536194,0.7283384799957275,-1.0269724130630493,0.5539601677621729,-0.0020107008454633216,-1.1636493601374112,-8.368818200378707
1576122334.3822277,520,300,26,26,1280,720,0.41640625,0.43472222222222223,36.92307692307692,90,72.39663791887435,0.0,-11.647425115200718,-0.08359375000000002,-0.2791866620125073,-0.2953503726459401,19.92307692307692,1225,214,214,1,90.0,50.625,155.44150641025638,-1.6699015297944362,-7.523437500000002,-0.9937021883414807,155.44150641025638,-1.6699015297944362,-7.523437500000002,-0.9937021883414807,3.9482142628205117,-0.4976435275354908,-1.7191043694442727,-7.448203125000002,-11.647425115200718,-2.0698497678280483,72.39663791887435,0.5,0.5,17,0.0254,1.24e-05,0.298,1.45e-05,0.99,1.19e-05,1.73,3.71e-05,0.03333333333333333,0.01,0.12538263201713562,0.24112805724143982,-10.710724830627441,0.27532973885536194,0.7283384799957275,-1.0269724130630493,0.5539601677621729,-0.0020107008454633216,-1.1636493601374112,-8.141225198176482
1576122334.3939214,532,302,26,27,1280,720,0.42578125,0.43819444444444444,36.232865092627065,90,72.20175213128637,0.0,-11.638043850375706,-0.08359375000000002,-0.28062259544901624,-0.29522690643627675,19.92307692307692,1225,214,214,1,90.0,50.625,155.44150641025638,-1.6784902905361718,-7.523437500000002,-0.9932867880099031,155.44150641025638,-1.6784902905361718,-7.523437500000002,-0.9932867880099031,3.9482142628205117,-0.5002025602828547,-1.7183846021219022,-7.448203125000002,-11.638043850375706,-2.0005145965725446,72.20175213128637,0.5,0.5,17,0.0254,1.24e-05,0.298,1.45e-05,0.99,1.19e-05,1.73,3.71e-05,0.03333333333333333,0.01,0.13738411664962769,0.26449891924858093,-10.751317977905273,0.28769904375076294,0.7519378066062927,-0.9951041340827942,0.5862840116761144,-0.005729395493450459,-1.1378276117795239,-7.941148466819297
1576122334.4023209,532,302,26,27,1280,720,0.42578125,0.43819444444444444,36.232865092627065,90,72.20175213128637,0.0,-11.638043850375706,-0.07421875,-0.2719770596523737,-0.29169284148890284,19.232865092627065,1225,214,214,1,90.0,50.625,150.0564161914341,-1.6267786745562538,-6.6796875,-0.9813964760374301,150.0564161914341,-1.6267786745562538,-6.6796875,-0.9813964760374301,3.804755459391086,-0.4847050631745927,-1.6977717904873362,-6.6118865625000005,-11.638043850375706,-2.0005145965725446,72.20175213128637,0.5,0.5,17,0.0254,1.24e-05,0.298,1.45e-05,0.99,1.19e-05,1.73,3.71e-05,0.03333333333333333,0.01,0.13738411664962769,0.26449891924858093,-10.751317977905273,0.28769904375076294,0.7519378066062927,-0.9951041340827942,0.5862840116761144,-0.005729395493450459,-1.1378276117795239,-7.941148466819297
1576122334.415715,532,302,26,27,1280,720,0.42578125,0.43819444444444444,36.232865092627065,90,72.04891298822899,0.0,-11.62794797700878,-0.07421875,-0.2726711586540285,-0.291634928230607,19.232865092627065,1225,214,214,1,90.0,50.625,150.0564161914341,-1.6309302947530677,-6.6796875,-0.9812016276917618,150.0564161914341,-1.6309302947530677,-6.6796875,-0.9812016276917618,3.811432971262426,-0.48602324768569954,-1.6974780930193853,-6.612890625,-11.62794797700878,-1.9613003461133858,72.04891298822899,0.5,0.5,17,0.0254,1.24e-05,0.298,1.45e-05,0.99,1.19e-05,1.73,3.71e-05,0.03333333333333333,0.01,0.13738411664962769,0.26449891924858093,-10.751317977905273,0.28769904375076294,0.7519378066062927,-0.9951041340827942,0.5862840116761144,-0.005729395493450459,-1.1378276117795239,-7.353671943475454
1576122334.4321375,538,306,26,26,1280,720,0.43046875,0.44305555555555554,36.92307692307692,90,71.961493397042,0.0,-11.630439288508542,-0.07421875,-0.2746466011439777,-0.29154262792115637,19.232865092627065,1225,214,214,1,90.0,50.625,150.0564161914341,-1.6427460255340722,-6.6796875,-0.9808910845945448,150.0564161914341,-1.6427460255340722,-6.6796875,-0.9808910845945448,3.811432971262426,-0.48955544841878595,-1.6969404242336719,-6.612890625,-11.630439288508542,-1.9496841153258981,71.961493397042,0.5,0.5,17,0.0254,1.24e-05,0.298,1.45e-05,0.99,1.19e-05,1.73,3.71e-05,0.03333333333333333,0.01,0.14473527669906616,0.279259592294693,-10.774785041809082,0.29405680298805237,0.7622232437133789,-0.9565388560295105,0.6062105352200678,-0.007102549804588659,-1.1022153149494958,-7.176953605306067
